{
"type": "FeatureCollection",
"name": "baleshwar_hsc_snapped",
"crs": { "type": "name", "properties": { "name": "urn:ogc:def:crs:OGC:1.3:CRS84" } },
"features": [
{ "type": "Feature", "properties": { "Statename": "Odisha", "Districtname": "Baleshwar", "Subdistrictname": "Similia", "Blockname": "Simulia", "Healthblockname": "Simulia", "Healthfacilitytype": "health sub centre", "Facilityname": "Andrai", "NIN": 6163775882, "latitude": 21.0705, "longitude": 86.63863, "facility_type_standardized": "hsc" }, "geometry": { "type": "Point", "coordinates": [ 86.6135113, 21.0591901 ] } },
{ "type": "Feature", "properties": { "Statename": "Odisha", "Districtname": "Baleshwar", "Subdistrictname": "Similia", "Blockname": "Simulia", "Healthblockname": "Simulia", "Healthfacilitytype": "health sub centre", "Facilityname": "Kanchapada", "NIN": 1375743786, "latitude": 21.08808, "longitude": 86.64579, "facility_type_standardized": "hsc" }, "geometry": { "type": "Point", "coordinates": [ 86.6638787, 21.054026 ] } },
{ "type": "Feature", "properties": { "Statename": "Odisha", "Districtname": "Baleshwar", "Subdistrictname": "Similia", "Blockname": "Simulia", "Healthblockname": "Simulia", "Healthfacilitytype": "health sub centre", "Facilityname": "Purusottampur", "NIN": 6184647664, "latitude": 21.10277, "longitude": 86.62508, "facility_type_standardized": "hsc" }, "geometry": { "type": "Point", "coordinates": [ 86.6217708, 21.1190577 ] } },
{ "type": "Feature", "properties": { "Statename": "Odisha", "Districtname": "Baleshwar", "Subdistrictname": "Similia", "Blockname": "Simulia", "Healthblockname": "Simulia", "Healthfacilitytype": "health sub centre", "Facilityname": "Ramakrushnapur", "NIN": 6287452384, "latitude": 21.12455, "longitude": 86.59096, "facility_type_standardized": "hsc" }, "geometry": { "type": "Point", "coordinates": [ 86.5881282, 21.1320277 ] } },
{ "type": "Feature", "properties": { "Statename": "Odisha", "Districtname": "Baleshwar", "Subdistrictname": "Similia", "Blockname": "Simulia", "Healthblockname": "Simulia", "Healthfacilitytype": "health sub centre", "Facilityname": "Maitapur", "NIN": 4176371880, "latitude": 21.13866, "longitude": 86.59347, "facility_type_standardized": "hsc" }, "geometry": { "type": "Point", "coordinates": [ 86.5881282, 21.1320277 ] } },
{ "type": "Feature", "properties": { "Statename": "Odisha", "Districtname": "Baleshwar", "Subdistrictname": "Similia", "Blockname": "Simulia", "Healthblockname": "Simulia", "Healthfacilitytype": "health sub centre", "Facilityname": "Kanheibindha", "NIN": 1481385480, "latitude": 21.14529, "longitude": 86.65653, "facility_type_standardized": "hsc" }, "geometry": { "type": "Point", "coordinates": [ 86.6332583, 21.1566717 ] } },
{ "type": "Feature", "properties": { "Statename": "Odisha", "Districtname": "Baleshwar", "Subdistrictname": "Similia", "Blockname": "Simulia", "Healthblockname": "Simulia", "Healthfacilitytype": "health sub centre", "Facilityname": "Simulia", "NIN": 1152364525, "latitude": 21.15866, "longitude": 86.57582, "facility_type_standardized": "hsc" }, "geometry": { "type": "Point", "coordinates": [ 86.5707969, 21.1598996 ] } },
{ "type": "Feature", "properties": { "Statename": "Odisha", "Districtname": "Baleshwar", "Subdistrictname": "Similia", "Blockname": "Khaira", "Healthblockname": "Khaira", "Healthfacilitytype": "health sub centre", "Facilityname": "Rapeya", "NIN": 3688683519, "latitude": 21.16074, "longitude": 86.50626, "facility_type_standardized": "hsc" }, "geometry": { "type": "Point", "coordinates": [ 86.4803785, 21.1571489 ] } },
{ "type": "Feature", "properties": { "Statename": "Odisha", "Districtname": "Baleshwar", "Subdistrictname": "Khaira", "Blockname": "Khaira", "Healthblockname": "Khaira", "Healthfacilitytype": "health sub centre", "Facilityname": "Mahatipur", "NIN": 7277626680, "latitude": 21.16335, "longitude": 86.4765, "facility_type_standardized": "hsc" }, "geometry": { "type": "Point", "coordinates": [ 86.4803785, 21.1571489 ] } },
{ "type": "Feature", "properties": { "Statename": "Odisha", "Districtname": "Baleshwar", "Subdistrictname": "Similia", "Blockname": "Simulia", "Healthblockname": "Simulia", "Healthfacilitytype": "health sub centre", "Facilityname": "Bari", "NIN": 6285868417, "latitude": 21.16437, "longitude": 86.62139, "facility_type_standardized": "hsc" }, "geometry": { "type": "Point", "coordinates": [ 86.6224243, 21.165883 ] } },
{ "type": "Feature", "properties": { "Statename": "Odisha", "Districtname": "Baleshwar", "Subdistrictname": "Similia", "Blockname": "Simulia", "Healthblockname": "Simulia", "Healthfacilitytype": "health sub centre", "Facilityname": "Kalasuni", "NIN": 1764874713, "latitude": 21.1664, "longitude": 86.54868, "facility_type_standardized": "hsc" }, "geometry": { "type": "Point", "coordinates": [ 86.5402273, 21.1639233 ] } },
{ "type": "Feature", "properties": { "Statename": "Odisha", "Districtname": "Baleshwar", "Subdistrictname": "Similia", "Blockname": "Khaira", "Healthblockname": "Khaira", "Healthfacilitytype": "health sub centre", "Facilityname": "Antara", "NIN": 2118888185, "latitude": 21.17144, "longitude": 86.48334, "facility_type_standardized": "hsc" }, "geometry": { "type": "Point", "coordinates": [ 86.4803785, 21.1571489 ] } },
{ "type": "Feature", "properties": { "Statename": "Odisha", "Districtname": "Baleshwar", "Subdistrictname": "Similia", "Blockname": "Simulia", "Healthblockname": "Simulia", "Healthfacilitytype": "health sub centre", "Facilityname": "Ada", "NIN": 5858264376, "latitude": 21.18294, "longitude": 86.52885, "facility_type_standardized": "hsc" }, "geometry": { "type": "Point", "coordinates": [ 86.5229927, 21.1872116 ] } },
{ "type": "Feature", "properties": { "Statename": "Odisha", "Districtname": "Baleshwar", "Subdistrictname": "Similia", "Blockname": "Khaira", "Healthblockname": "Khaira", "Healthfacilitytype": "health sub centre", "Facilityname": "Garsanga", "NIN": 8564265844, "latitude": 21.18413, "longitude": 86.47206, "facility_type_standardized": "hsc" }, "geometry": { "type": "Point", "coordinates": [ 86.4803785, 21.1571489 ] } },
{ "type": "Feature", "properties": { "Statename": "Odisha", "Districtname": "Baleshwar", "Subdistrictname": "Similia", "Blockname": "Simulia", "Healthblockname": "Simulia", "Healthfacilitytype": "health sub centre", "Facilityname": "Sunguda", "NIN": 3413171210, "latitude": 21.18481, "longitude": 86.64189, "facility_type_standardized": "hsc" }, "geometry": { "type": "Point", "coordinates": [ 86.6431931, 21.2002174 ] } },
{ "type": "Feature", "properties": { "Statename": "Odisha", "Districtname": "Baleshwar", "Subdistrictname": "Soro", "Blockname": "Soro", "Healthblockname": "Soro", "Healthfacilitytype": "health sub centre", "Facilityname": "Gud", "NIN": 8772613777, "latitude": 21.18643, "longitude": 86.7548, "facility_type_standardized": "hsc" }, "geometry": { "type": "Point", "coordinates": [ 86.7570162, 21.1662987 ] } },
{ "type": "Feature", "properties": { "Statename": "Odisha", "Districtname": "Baleshwar", "Subdistrictname": "Similia", "Blockname": "Simulia", "Healthblockname": "Simulia", "Healthfacilitytype": "health sub centre", "Facilityname": "Jamujhadi", "NIN": 1384378145, "latitude": 21.19644, "longitude": 86.64184, "facility_type_standardized": "hsc" }, "geometry": { "type": "Point", "coordinates": [ 86.6431931, 21.2002174 ] } },
{ "type": "Feature", "properties": { "Statename": "Odisha", "Districtname": "Baleshwar", "Subdistrictname": "Similia", "Blockname": "Khaira", "Healthblockname": "Khaira", "Healthfacilitytype": "health sub centre", "Facilityname": "Jalanga Gandibed", "NIN": 1717562126, "latitude": 21.2, "longitude": 86.4919, "facility_type_standardized": "hsc" }, "geometry": { "type": "Point", "coordinates": [ 86.4789247, 21.2191009 ] } },
{ "type": "Feature", "properties": { "Statename": "Odisha", "Districtname": "Baleshwar", "Subdistrictname": "Similia", "Blockname": "Simulia", "Healthblockname": "Simulia", "Healthfacilitytype": "health sub centre", "Facilityname": "Khirkona", "NIN": 1446388355, "latitude": 21.20191, "longitude": 86.70443, "facility_type_standardized": "hsc" }, "geometry": { "type": "Point", "coordinates": [ 86.7155703, 21.2087037 ] } },
{ "type": "Feature", "properties": { "Statename": "Odisha", "Districtname": "Baleshwar", "Subdistrictname": "Soro", "Blockname": "Soro", "Healthblockname": "Soro", "Healthfacilitytype": "health sub centre", "Facilityname": "Tentei", "NIN": 7334364630, "latitude": 21.20932, "longitude": 86.73543, "facility_type_standardized": "hsc" }, "geometry": { "type": "Point", "coordinates": [ 86.750434, 21.2121641 ] } },
{ "type": "Feature", "properties": { "Statename": "Odisha", "Districtname": "Baleshwar", "Subdistrictname": "Similia", "Blockname": "Simulia", "Healthblockname": "Simulia", "Healthfacilitytype": "health sub centre", "Facilityname": "Sahigaon", "NIN": 8473458126, "latitude": 21.21467, "longitude": 86.57371, "facility_type_standardized": "hsc" }, "geometry": { "type": "Point", "coordinates": [ 86.5770185, 21.2233114 ] } },
{ "type": "Feature", "properties": { "Statename": "Odisha", "Districtname": "Baleshwar", "Subdistrictname": "Soro", "Blockname": "Soro", "Healthblockname": "Soro", "Healthfacilitytype": "health sub centre", "Facilityname": "Ghasua", "NIN": 1216174167, "latitude": 21.22085, "longitude": 86.69024, "facility_type_standardized": "hsc" }, "geometry": { "type": "Point", "coordinates": [ 86.6888161, 21.2289299 ] } },
{ "type": "Feature", "properties": { "Statename": "Odisha", "Districtname": "Baleshwar", "Subdistrictname": "Soro", "Blockname": "Soro", "Healthblockname": "Soro", "Healthfacilitytype": "health sub centre", "Facilityname": "Sajanpur", "NIN": 8363363857, "latitude": 21.22233, "longitude": 86.66906, "facility_type_standardized": "hsc" }, "geometry": { "type": "Point", "coordinates": [ 86.6561469, 21.2274347 ] } },
{ "type": "Feature", "properties": { "Statename": "Odisha", "Districtname": "Baleshwar", "Subdistrictname": "Soro", "Blockname": "Soro", "Healthblockname": "Soro", "Healthfacilitytype": "health sub centre", "Facilityname": "Anatapur", "NIN": 8434452275, "latitude": 21.22564, "longitude": 86.75944, "facility_type_standardized": "hsc" }, "geometry": { "type": "Point", "coordinates": [ 86.7593872, 21.2257567 ] } },
{ "type": "Feature", "properties": { "Statename": "Odisha", "Districtname": "Baleshwar", "Subdistrictname": "Soro", "Blockname": "Soro", "Healthblockname": "Soro", "Healthfacilitytype": "health sub centre", "Facilityname": "Pakhar", "NIN": 2447814720, "latitude": 21.22695, "longitude": 86.73929, "facility_type_standardized": "hsc" }, "geometry": { "type": "Point", "coordinates": [ 86.7532772, 21.230032 ] } },
{ "type": "Feature", "properties": { "Statename": "Odisha", "Districtname": "Baleshwar", "Subdistrictname": "Similia", "Blockname": "Khaira", "Healthblockname": "Khaira", "Healthfacilitytype": "health sub centre", "Facilityname": "Dungura", "NIN": 6715445885, "latitude": 21.22883, "longitude": 86.47864, "facility_type_standardized": "hsc" }, "geometry": { "type": "Point", "coordinates": [ 86.4836784, 21.2365091 ] } },
{ "type": "Feature", "properties": { "Statename": "Odisha", "Districtname": "Baleshwar", "Subdistrictname": "Similia", "Blockname": "Simulia", "Healthblockname": "Simulia", "Healthfacilitytype": "health sub centre", "Facilityname": "Anandapur", "NIN": 1474115514, "latitude": 21.23063, "longitude": 86.57122, "facility_type_standardized": "hsc" }, "geometry": { "type": "Point", "coordinates": [ 86.5770185, 21.2233114 ] } },
{ "type": "Feature", "properties": { "Statename": "Odisha", "Districtname": "Baleshwar", "Subdistrictname": "Khaira", "Blockname": "Khaira", "Healthblockname": "Khaira", "Healthfacilitytype": "health sub centre", "Facilityname": "Bartana", "NIN": 2225264122, "latitude": 21.23316, "longitude": 86.40199, "facility_type_standardized": "hsc" }, "geometry": { "type": "Point", "coordinates": [ 86.397215, 21.2361539 ] } },
{ "type": "Feature", "properties": { "Statename": "Odisha", "Districtname": "Baleshwar", "Subdistrictname": "Khaira", "Blockname": "Khaira", "Healthblockname": "Khaira", "Healthfacilitytype": "health sub centre", "Facilityname": "Ratina", "NIN": 6788565247, "latitude": 21.23547, "longitude": 86.37771, "facility_type_standardized": "hsc" }, "geometry": { "type": "Point", "coordinates": [ 86.374917, 21.2413034 ] } },
{ "type": "Feature", "properties": { "Statename": "Odisha", "Districtname": "Baleshwar", "Subdistrictname": "Soro", "Blockname": "Bahanaga", "Healthblockname": "Bahanaga", "Healthfacilitytype": "health sub centre", "Facilityname": "Ramadha", "NIN": 1845337441, "latitude": 21.23689, "longitude": 86.79341, "facility_type_standardized": "hsc" }, "geometry": { "type": "Point", "coordinates": [ 86.7919868, 21.2359368 ] } },
{ "type": "Feature", "properties": { "Statename": "Odisha", "Districtname": "Baleshwar", "Subdistrictname": "Khaira", "Blockname": "Khaira", "Healthblockname": "Khaira", "Healthfacilitytype": "health sub centre", "Facilityname": "Saradanga", "NIN": 7632818642, "latitude": 21.24158, "longitude": 86.52069, "facility_type_standardized": "hsc" }, "geometry": { "type": "Point", "coordinates": [ 86.5215, 21.2345954 ] } },
{ "type": "Feature", "properties": { "Statename": "Odisha", "Districtname": "Baleshwar", "Subdistrictname": "Soro", "Blockname": "Soro", "Healthblockname": "Soro", "Healthfacilitytype": "health sub centre", "Facilityname": "Kedarpur", "NIN": 4474755636, "latitude": 21.2449, "longitude": 86.69362, "facility_type_standardized": "hsc" }, "geometry": { "type": "Point", "coordinates": [ 86.6888161, 21.2289299 ] } },
{ "type": "Feature", "properties": { "Statename": "Odisha", "Districtname": "Baleshwar", "Subdistrictname": "Khaira", "Blockname": "Khaira", "Healthblockname": "Khaira", "Healthfacilitytype": "health sub centre", "Facilityname": "Makhanpur", "NIN": 3174834246, "latitude": 21.24545, "longitude": 86.57516, "facility_type_standardized": "hsc" }, "geometry": { "type": "Point", "coordinates": [ 86.5770185, 21.2233114 ] } },
{ "type": "Feature", "properties": { "Statename": "Odisha", "Districtname": "Baleshwar", "Subdistrictname": "Soro", "Blockname": "Soro", "Healthblockname": "Soro", "Healthfacilitytype": "health sub centre", "Facilityname": "Sabira", "NIN": 7261548486, "latitude": 21.24643, "longitude": 86.63078, "facility_type_standardized": "hsc" }, "geometry": { "type": "Point", "coordinates": [ 86.6326828, 21.2389577 ] } },
{ "type": "Feature", "properties": { "Statename": "Odisha", "Districtname": "Baleshwar", "Subdistrictname": "Soro", "Blockname": "Bahanaga", "Healthblockname": "Bahanaga", "Healthfacilitytype": "health sub centre", "Facilityname": "Podadiha", "NIN": 5315412535, "latitude": 21.24976, "longitude": 86.77938, "facility_type_standardized": "hsc" }, "geometry": { "type": "Point", "coordinates": [ 86.7803031, 21.2533219 ] } },
{ "type": "Feature", "properties": { "Statename": "Odisha", "Districtname": "Baleshwar", "Subdistrictname": "Soro", "Blockname": "Bahanaga", "Healthblockname": "Bahanaga", "Healthfacilitytype": "health sub centre", "Facilityname": "Avana", "NIN": 2446832822, "latitude": 21.25111, "longitude": 86.82771, "facility_type_standardized": "hsc" }, "geometry": { "type": "Point", "coordinates": [ 86.8260811, 21.2522008 ] } },
{ "type": "Feature", "properties": { "Statename": "Odisha", "Districtname": "Baleshwar", "Subdistrictname": "Khaira", "Blockname": "Khaira", "Healthblockname": "Khaira", "Healthfacilitytype": "health sub centre", "Facilityname": "Kurunta", "NIN": 2342864432, "latitude": 21.2548, "longitude": 86.55598, "facility_type_standardized": "hsc" }, "geometry": { "type": "Point", "coordinates": [ 86.537924, 21.2740157 ] } },
{ "type": "Feature", "properties": { "Statename": "Odisha", "Districtname": "Baleshwar", "Subdistrictname": "Khaira", "Blockname": "Khaira", "Healthblockname": "Khaira", "Healthfacilitytype": "health sub centre", "Facilityname": "Haripur", "NIN": 3318343740, "latitude": 21.25917, "longitude": 86.38253, "facility_type_standardized": "hsc" }, "geometry": { "type": "Point", "coordinates": [ 86.3850092, 21.2562583 ] } },
{ "type": "Feature", "properties": { "Statename": "Odisha", "Districtname": "Baleshwar", "Subdistrictname": "Khaira", "Blockname": "Khaira", "Healthblockname": "Khaira", "Healthfacilitytype": "health sub centre", "Facilityname": "Palasa", "NIN": 8815881423, "latitude": 21.25935, "longitude": 86.4669, "facility_type_standardized": "hsc" }, "geometry": { "type": "Point", "coordinates": [ 86.4601203, 21.2801142 ] } },
{ "type": "Feature", "properties": { "Statename": "Odisha", "Districtname": "Baleshwar", "Subdistrictname": "Soro", "Blockname": "Bahanaga", "Healthblockname": "Bahanaga", "Healthfacilitytype": "health sub centre", "Facilityname": "Bishnupur", "NIN": 3487251849, "latitude": 21.26187, "longitude": 86.83159, "facility_type_standardized": "hsc" }, "geometry": { "type": "Point", "coordinates": [ 86.8309701, 21.26209 ] } },
{ "type": "Feature", "properties": { "Statename": "Odisha", "Districtname": "Baleshwar", "Subdistrictname": "Soro", "Blockname": "Bahanaga", "Healthblockname": "Bahanaga", "Healthfacilitytype": "health sub centre", "Facilityname": "Aruhabad", "NIN": 6284364277, "latitude": 21.26935, "longitude": 86.84833, "facility_type_standardized": "hsc" }, "geometry": { "type": "Point", "coordinates": [ 86.8497304, 21.2711191 ] } },
{ "type": "Feature", "properties": { "Statename": "Odisha", "Districtname": "Baleshwar", "Subdistrictname": "Khaira", "Blockname": "Khaira", "Healthblockname": "Khaira", "Healthfacilitytype": "health sub centre", "Facilityname": "Kupari", "NIN": 6731531213, "latitude": 21.27231, "longitude": 86.41253, "facility_type_standardized": "hsc" }, "geometry": { "type": "Point", "coordinates": [ 86.4150211, 21.2749434 ] } },
{ "type": "Feature", "properties": { "Statename": "Odisha", "Districtname": "Baleshwar", "Subdistrictname": "Khaira", "Blockname": "Khaira", "Healthblockname": "Khaira", "Healthfacilitytype": "health sub centre", "Facilityname": "Sampei", "NIN": 6761774436, "latitude": 21.27295, "longitude": 86.56267, "facility_type_standardized": "hsc" }, "geometry": { "type": "Point", "coordinates": [ 86.537924, 21.2740157 ] } },
{ "type": "Feature", "properties": { "Statename": "Odisha", "Districtname": "Baleshwar", "Subdistrictname": "Soro", "Blockname": "Bahanaga", "Healthblockname": "Bahanaga", "Healthfacilitytype": "health sub centre", "Facilityname": "Maharudrapur", "NIN": 7728317376, "latitude": 21.27586, "longitude": 86.87904, "facility_type_standardized": "hsc" }, "geometry": { "type": "Point", "coordinates": [ 86.8528569, 21.2823362 ] } },
{ "type": "Feature", "properties": { "Statename": "Odisha", "Districtname": "Baleshwar", "Subdistrictname": "Khaira", "Blockname": "Khaira", "Healthblockname": "Khaira", "Healthfacilitytype": "health sub centre", "Facilityname": "Khaira", "NIN": 6832388612, "latitude": 21.28138, "longitude": 86.47079, "facility_type_standardized": "hsc" }, "geometry": { "type": "Point", "coordinates": [ 86.464308, 21.2825183 ] } },
{ "type": "Feature", "properties": { "Statename": "Odisha", "Districtname": "Baleshwar", "Subdistrictname": "Khaira", "Blockname": "Khaira", "Healthblockname": "Khaira", "Healthfacilitytype": "health sub centre", "Facilityname": "Gandibed", "NIN": 6882813337, "latitude": 21.28426, "longitude": 86.53822, "facility_type_standardized": "hsc" }, "geometry": { "type": "Point", "coordinates": [ 86.5378997, 21.2824117 ] } },
{ "type": "Feature", "properties": { "Statename": "Odisha", "Districtname": "Baleshwar", "Subdistrictname": "Soro", "Blockname": "Soro", "Healthblockname": "Soro", "Healthfacilitytype": "health sub centre", "Facilityname": "Sarsankha", "NIN": 7575447367, "latitude": 21.28906, "longitude": 86.65423, "facility_type_standardized": "hsc" }, "geometry": { "type": "Point", "coordinates": [ 86.65382, 21.29104 ] } },
{ "type": "Feature", "properties": { "Statename": "Odisha", "Districtname": "Baleshwar", "Subdistrictname": "Soro", "Blockname": "Bahanaga", "Healthblockname": "Bahanaga", "Healthfacilitytype": "health sub centre", "Facilityname": "Saud", "NIN": 7865413772, "latitude": 21.29012, "longitude": 86.75616, "facility_type_standardized": "hsc" }, "geometry": { "type": "Point", "coordinates": [ 86.7831891, 21.2701081 ] } },
{ "type": "Feature", "properties": { "Statename": "Odisha", "Districtname": "Baleshwar", "Subdistrictname": "Soro", "Blockname": "Bahanaga", "Healthblockname": "Bahanaga", "Healthfacilitytype": "health sub centre", "Facilityname": "Bajana", "NIN": 8227665489, "latitude": 21.29278, "longitude": 86.78554, "facility_type_standardized": "hsc" }, "geometry": { "type": "Point", "coordinates": [ 86.7997976, 21.2851731 ] } },
{ "type": "Feature", "properties": { "Statename": "Odisha", "Districtname": "Baleshwar", "Subdistrictname": "Soro", "Blockname": "Soro", "Healthblockname": "Soro", "Healthfacilitytype": "health sub centre", "Facilityname": "Krushnadaspur", "NIN": 5487871419, "latitude": 21.29359, "longitude": 86.62114, "facility_type_standardized": "hsc" }, "geometry": { "type": "Point", "coordinates": [ 86.6391, 21.29465 ] } },
{ "type": "Feature", "properties": { "Statename": "Odisha", "Districtname": "Baleshwar", "Subdistrictname": "Khaira", "Blockname": "Khaira", "Healthblockname": "Khaira", "Healthfacilitytype": "health sub centre", "Facilityname": "Tudigadia", "NIN": 5118152544, "latitude": 21.29403, "longitude": 86.59663, "facility_type_standardized": "hsc" }, "geometry": { "type": "Point", "coordinates": [ 86.5942249, 21.2948604 ] } },
{ "type": "Feature", "properties": { "Statename": "Odisha", "Districtname": "Baleshwar", "Subdistrictname": "Khaira", "Blockname": "Khaira", "Healthblockname": "Khaira", "Healthfacilitytype": "health sub centre", "Facilityname": "Palaspur", "NIN": 3717867273, "latitude": 21.2998, "longitude": 86.51845, "facility_type_standardized": "hsc" }, "geometry": { "type": "Point", "coordinates": [ 86.5228454, 21.3016417 ] } },
{ "type": "Feature", "properties": { "Statename": "Odisha", "Districtname": "Baleshwar", "Subdistrictname": "Soro", "Blockname": "Bahanaga", "Healthblockname": "Bahanaga", "Healthfacilitytype": "health sub centre", "Facilityname": "Apitira", "NIN": 5565621652, "latitude": 21.30101, "longitude": 86.81913, "facility_type_standardized": "hsc" }, "geometry": { "type": "Point", "coordinates": [ 86.818131, 21.3011926 ] } },
{ "type": "Feature", "properties": { "Statename": "Odisha", "Districtname": "Baleshwar", "Subdistrictname": "Khaira", "Blockname": "Khaira", "Healthblockname": "Khaira", "Healthfacilitytype": "health sub centre", "Facilityname": "Sarugaon", "NIN": 6266587838, "latitude": 21.30232, "longitude": 86.50226, "facility_type_standardized": "hsc" }, "geometry": { "type": "Point", "coordinates": [ 86.5013915, 21.3002866 ] } },
{ "type": "Feature", "properties": { "Statename": "Odisha", "Districtname": "Baleshwar", "Subdistrictname": "Soro", "Blockname": "Bahanaga", "Healthblockname": "Bahanaga", "Healthfacilitytype": "health sub centre", "Facilityname": "Dwarika", "NIN": 8852437238, "latitude": 21.30414, "longitude": 86.87006, "facility_type_standardized": "hsc" }, "geometry": { "type": "Point", "coordinates": [ 86.8730968, 21.307922 ] } },
{ "type": "Feature", "properties": { "Statename": "Odisha", "Districtname": "Baleshwar", "Subdistrictname": "Khaira", "Blockname": "Khaira", "Healthblockname": "Khaira", "Healthfacilitytype": "health sub centre", "Facilityname": "Bada Nuagaon", "NIN": 1743248286, "latitude": 21.30566, "longitude": 86.58904, "facility_type_standardized": "hsc" }, "geometry": { "type": "Point", "coordinates": [ 86.5825792, 21.3055838 ] } },
{ "type": "Feature", "properties": { "Statename": "Odisha", "Districtname": "Baleshwar", "Subdistrictname": "Soro", "Blockname": "Bahanaga", "Healthblockname": "Bahanaga", "Healthfacilitytype": "health sub centre", "Facilityname": "Kalyani", "NIN": 1365265311, "latitude": 21.30582, "longitude": 86.84951, "facility_type_standardized": "hsc" }, "geometry": { "type": "Point", "coordinates": [ 86.8490265, 21.3067145 ] } },
{ "type": "Feature", "properties": { "Statename": "Odisha", "Districtname": "Baleshwar", "Subdistrictname": "Soro", "Blockname": "Soro", "Healthblockname": "Soro", "Healthfacilitytype": "health sub centre", "Facilityname": "Kudei", "NIN": 8133821887, "latitude": 21.30982, "longitude": 86.6426, "facility_type_standardized": "hsc" }, "geometry": { "type": "Point", "coordinates": [ 86.6391566, 21.2948504 ] } },
{ "type": "Feature", "properties": { "Statename": "Odisha", "Districtname": "Baleshwar", "Subdistrictname": "Oupada", "Blockname": "Oupada", "Healthblockname": "Oupada", "Healthfacilitytype": "health sub centre", "Facilityname": "Naranpur", "NIN": 6677428713, "latitude": 21.31683, "longitude": 86.44834, "facility_type_standardized": "hsc" }, "geometry": { "type": "Point", "coordinates": [ 86.4471465, 21.3253624 ] } },
{ "type": "Feature", "properties": { "Statename": "Odisha", "Districtname": "Baleshwar", "Subdistrictname": "Soro", "Blockname": "Soro", "Healthblockname": "Soro", "Healthfacilitytype": "health sub centre", "Facilityname": "Dahishada", "NIN": 5861875861, "latitude": 21.31784, "longitude": 86.71328, "facility_type_standardized": "hsc" }, "geometry": { "type": "Point", "coordinates": [ 86.7019702, 21.3319391 ] } },
{ "type": "Feature", "properties": { "Statename": "Odisha", "Districtname": "Baleshwar", "Subdistrictname": "Khaira", "Blockname": "Khaira", "Healthblockname": "Khaira", "Healthfacilitytype": "health sub centre", "Facilityname": "Kaithagadia", "NIN": 8435862753, "latitude": 21.31879, "longitude": 86.42092, "facility_type_standardized": "hsc" }, "geometry": { "type": "Point", "coordinates": [ 86.42291, 21.3166926 ] } },
{ "type": "Feature", "properties": { "Statename": "Odisha", "Districtname": "Baleshwar", "Subdistrictname": "Oupada", "Blockname": "Oupada", "Healthblockname": "Oupada", "Healthfacilitytype": "health sub centre", "Facilityname": "Fatepur", "NIN": 6788655360, "latitude": 21.31952, "longitude": 86.46995, "facility_type_standardized": "hsc" }, "geometry": { "type": "Point", "coordinates": [ 86.4746649, 21.3250015 ] } },
{ "type": "Feature", "properties": { "Statename": "Odisha", "Districtname": "Baleshwar", "Subdistrictname": "Soro", "Blockname": "Soro", "Healthblockname": "Soro", "Healthfacilitytype": "health sub centre", "Facilityname": "Wada", "NIN": 4273858623, "latitude": 21.32028, "longitude": 86.65146, "facility_type_standardized": "hsc" }, "geometry": { "type": "Point", "coordinates": [ 86.6421334, 21.2941839 ] } },
{ "type": "Feature", "properties": { "Statename": "Odisha", "Districtname": "Baleshwar", "Subdistrictname": "Soro", "Blockname": "Bahanaga", "Healthblockname": "Bahanaga", "Healthfacilitytype": "health sub centre", "Facilityname": "Gopalpur", "NIN": 3412522553, "latitude": 21.32202, "longitude": 86.8263, "facility_type_standardized": "hsc" }, "geometry": { "type": "Point", "coordinates": [ 86.8237925, 21.3217684 ] } },
{ "type": "Feature", "properties": { "Statename": "Odisha", "Districtname": "Baleshwar", "Subdistrictname": "Soro", "Blockname": "Soro", "Healthblockname": "Soro", "Healthfacilitytype": "health sub centre", "Facilityname": "Manatri", "NIN": 7487214632, "latitude": 21.32441, "longitude": 86.69015, "facility_type_standardized": "hsc" }, "geometry": { "type": "Point", "coordinates": [ 86.6947222, 21.3342504 ] } },
{ "type": "Feature", "properties": { "Statename": "Odisha", "Districtname": "Baleshwar", "Subdistrictname": "Baleshwar Sadar", "Blockname": "Remuna", "Healthblockname": "Remuna", "Healthfacilitytype": "health sub centre", "Facilityname": "Inchudi", "NIN": 4342865732, "latitude": 21.3311, "longitude": 86.90509, "facility_type_standardized": "hsc" }, "geometry": { "type": "Point", "coordinates": [ 86.897706, 21.319247 ] } },
{ "type": "Feature", "properties": { "Statename": "Odisha", "Districtname": "Baleshwar", "Subdistrictname": "Khaira", "Blockname": "Khaira", "Healthblockname": "Khaira", "Healthfacilitytype": "health sub centre", "Facilityname": "Dagarpada", "NIN": 5577727869, "latitude": 21.33141, "longitude": 86.54448, "facility_type_standardized": "hsc" }, "geometry": { "type": "Point", "coordinates": [ 86.549576, 21.3236752 ] } },
{ "type": "Feature", "properties": { "Statename": "Odisha", "Districtname": "Baleshwar", "Subdistrictname": "Nilagiri", "Blockname": "Oupada", "Healthblockname": "Oupada", "Healthfacilitytype": "health sub centre", "Facilityname": "Tartua", "NIN": 7484173146, "latitude": 21.33189, "longitude": 86.70779, "facility_type_standardized": "hsc" }, "geometry": { "type": "Point", "coordinates": [ 86.7019702, 21.3319391 ] } },
{ "type": "Feature", "properties": { "Statename": "Odisha", "Districtname": "Baleshwar", "Subdistrictname": "Soro", "Blockname": "Soro", "Healthblockname": "Soro", "Healthfacilitytype": "health sub centre", "Facilityname": "Manipur", "NIN": 1853876827, "latitude": 21.33226, "longitude": 86.61467, "facility_type_standardized": "hsc" }, "geometry": { "type": "Point", "coordinates": [ 86.5825792, 21.3055838 ] } },
{ "type": "Feature", "properties": { "Statename": "Odisha", "Districtname": "Baleshwar", "Subdistrictname": "Oupada", "Blockname": "Oupada", "Healthblockname": "Oupada", "Healthfacilitytype": "health sub centre", "Facilityname": "Oupada", "NIN": 4181684467, "latitude": 21.33299, "longitude": 86.50169, "facility_type_standardized": "hsc" }, "geometry": { "type": "Point", "coordinates": [ 86.5061232, 21.3294737 ] } },
{ "type": "Feature", "properties": { "Statename": "Odisha", "Districtname": "Baleshwar", "Subdistrictname": "Nilagiri", "Blockname": "Oupada", "Healthblockname": "Oupada", "Healthfacilitytype": "health sub centre", "Facilityname": "Mareigaon", "NIN": 4884884745, "latitude": 21.33843, "longitude": 86.73241, "facility_type_standardized": "hsc" }, "geometry": { "type": "Point", "coordinates": [ 86.7401313, 21.3285317 ] } },
{ "type": "Feature", "properties": { "Statename": "Odisha", "Districtname": "Baleshwar", "Subdistrictname": "Soro", "Blockname": "Soro", "Healthblockname": "Soro", "Healthfacilitytype": "health sub centre", "Facilityname": "Bagudi", "NIN": 4788535716, "latitude": 21.34149, "longitude": 86.659, "facility_type_standardized": "hsc" }, "geometry": { "type": "Point", "coordinates": [ 86.6899505, 21.3392431 ] } },
{ "type": "Feature", "properties": { "Statename": "Odisha", "Districtname": "Baleshwar", "Subdistrictname": "Oupada", "Blockname": "Oupada", "Healthblockname": "Oupada", "Healthfacilitytype": "health sub centre", "Facilityname": "Pratappur", "NIN": 6286327868, "latitude": 21.34208, "longitude": 86.50969, "facility_type_standardized": "hsc" }, "geometry": { "type": "Point", "coordinates": [ 86.5061232, 21.3294737 ] } },
{ "type": "Feature", "properties": { "Statename": "Odisha", "Districtname": "Baleshwar", "Subdistrictname": "Soro", "Blockname": "Bahanaga", "Healthblockname": "Bahanaga", "Healthfacilitytype": "health sub centre", "Facilityname": "Bahanaga", "NIN": 4236387421, "latitude": 21.34243, "longitude": 86.76483, "facility_type_standardized": "hsc" }, "geometry": { "type": "Point", "coordinates": [ 86.762812, 21.3418909 ] } },
{ "type": "Feature", "properties": { "Statename": "Odisha", "Districtname": "Baleshwar", "Subdistrictname": "Soro", "Blockname": "Bahanaga", "Healthblockname": "Bahanaga", "Healthfacilitytype": "health sub centre", "Facilityname": "Betagadia", "NIN": 1827837665, "latitude": 21.3429, "longitude": 86.80489, "facility_type_standardized": "hsc" }, "geometry": { "type": "Point", "coordinates": [ 86.8125862, 21.3364985 ] } },
{ "type": "Feature", "properties": { "Statename": "Odisha", "Districtname": "Baleshwar", "Subdistrictname": "Oupada", "Blockname": "Oupada", "Healthblockname": "Oupada", "Healthfacilitytype": "health sub centre", "Facilityname": "Badapokhari", "NIN": 4121622262, "latitude": 21.3436, "longitude": 86.57884, "facility_type_standardized": "hsc" }, "geometry": { "type": "Point", "coordinates": [ 86.5508061, 21.3388383 ] } },
{ "type": "Feature", "properties": { "Statename": "Odisha", "Districtname": "Baleshwar", "Subdistrictname": "Nilagiri", "Blockname": "Oupada", "Healthblockname": "Oupada", "Healthfacilitytype": "health sub centre", "Facilityname": "Iswarpur", "NIN": 7373723282, "latitude": 21.34673, "longitude": 86.72351, "facility_type_standardized": "hsc" }, "geometry": { "type": "Point", "coordinates": [ 86.7423852, 21.3545394 ] } },
{ "type": "Feature", "properties": { "Statename": "Odisha", "Districtname": "Baleshwar", "Subdistrictname": "Baleshwar Sadar", "Blockname": "Remuna", "Healthblockname": "Remuna", "Healthfacilitytype": "health sub centre", "Facilityname": "Srijung", "NIN": 8561748578, "latitude": 21.34902, "longitude": 86.87443, "facility_type_standardized": "hsc" }, "geometry": { "type": "Point", "coordinates": [ 86.8696136, 21.345148 ] } },
{ "type": "Feature", "properties": { "Statename": "Odisha", "Districtname": "Baleshwar", "Subdistrictname": "Soro", "Blockname": "Soro", "Healthblockname": "Soro", "Healthfacilitytype": "health sub centre", "Facilityname": "Mangalpur", "NIN": 1464766839, "latitude": 21.35315, "longitude": 86.63982, "facility_type_standardized": "hsc" }, "geometry": { "type": "Point", "coordinates": [ 86.6899505, 21.3392431 ] } },
{ "type": "Feature", "properties": { "Statename": "Odisha", "Districtname": "Baleshwar", "Subdistrictname": "Soro", "Blockname": "Bahanaga", "Healthblockname": "Bahanaga", "Healthfacilitytype": "health sub centre", "Facilityname": "Sibapura", "NIN": 4845656646, "latitude": 21.3605, "longitude": 86.77537, "facility_type_standardized": "hsc" }, "geometry": { "type": "Point", "coordinates": [ 86.7894265, 21.3644889 ] } },
{ "type": "Feature", "properties": { "Statename": "Odisha", "Districtname": "Baleshwar", "Subdistrictname": "Oupada", "Blockname": "Oupada", "Healthblockname": "Oupada", "Healthfacilitytype": "health sub centre", "Facilityname": "Gadasahi", "NIN": 1767486663, "latitude": 21.3627, "longitude": 86.48835, "facility_type_standardized": "hsc" }, "geometry": { "type": "Point", "coordinates": [ 86.4926375, 21.3544998 ] } },
{ "type": "Feature", "properties": { "Statename": "Odisha", "Districtname": "Baleshwar", "Subdistrictname": "Soro", "Blockname": "Soro", "Healthblockname": "Soro", "Healthfacilitytype": "health sub centre", "Facilityname": "Singakhunta", "NIN": 8523486184, "latitude": 21.36975, "longitude": 86.65145, "facility_type_standardized": "hsc" }, "geometry": { "type": "Point", "coordinates": [ 86.6899505, 21.3392431 ] } },
{ "type": "Feature", "properties": { "Statename": "Odisha", "Districtname": "Baleshwar", "Subdistrictname": "Nilagiri", "Blockname": "Oupada", "Healthblockname": "Oupada", "Healthfacilitytype": "health sub centre", "Facilityname": "Patapur", "NIN": 4281827438, "latitude": 21.37574, "longitude": 86.53706, "facility_type_standardized": "hsc" }, "geometry": { "type": "Point", "coordinates": [ 86.527969, 21.3440681 ] } },
{ "type": "Feature", "properties": { "Statename": "Odisha", "Districtname": "Baleshwar", "Subdistrictname": "Nilagiri", "Blockname": "Oupada", "Healthblockname": "Oupada", "Healthfacilitytype": "health sub centre", "Facilityname": "Kandagaradi", "NIN": 8841272738, "latitude": 21.37714, "longitude": 86.70688, "facility_type_standardized": "hsc" }, "geometry": { "type": "Point", "coordinates": [ 86.7119817, 21.3676067 ] } },
{ "type": "Feature", "properties": { "Statename": "Odisha", "Districtname": "Baleshwar", "Subdistrictname": "Nilagiri", "Blockname": "Oupada", "Healthblockname": "Oupada", "Healthfacilitytype": "health sub centre", "Facilityname": "Santaragadia", "NIN": 2887722664, "latitude": 21.38106, "longitude": 86.72059, "facility_type_standardized": "hsc" }, "geometry": { "type": "Point", "coordinates": [ 86.7185479, 21.3785427 ] } },
{ "type": "Feature", "properties": { "Statename": "Odisha", "Districtname": "Baleshwar", "Subdistrictname": "Baleshwar Sadar", "Blockname": "Remuna", "Healthblockname": "Remuna", "Healthfacilitytype": "health sub centre", "Facilityname": "Kuligan", "NIN": 4387675236, "latitude": 21.3857, "longitude": 86.8609, "facility_type_standardized": "hsc" }, "geometry": { "type": "Point", "coordinates": [ 86.8639892, 21.3850132 ] } },
{ "type": "Feature", "properties": { "Statename": "Odisha", "Districtname": "Baleshwar", "Subdistrictname": "Baleshwar Sadar", "Blockname": "Baleshwar", "Healthblockname": "Balasore", "Healthfacilitytype": "health sub centre", "Facilityname": "Rasalpur", "NIN": 8228558584, "latitude": 21.38587, "longitude": 86.8966, "facility_type_standardized": "hsc" }, "geometry": { "type": "Point", "coordinates": [ 86.8972528, 21.3856071 ] } },
{ "type": "Feature", "properties": { "Statename": "Odisha", "Districtname": "Baleshwar", "Subdistrictname": "Soro", "Blockname": "Bahanaga", "Healthblockname": "Bahanaga", "Healthfacilitytype": "health sub centre", "Facilityname": "Kasbajaypur", "NIN": 3758737328, "latitude": 21.38852, "longitude": 86.78118, "facility_type_standardized": "hsc" }, "geometry": { "type": "Point", "coordinates": [ 86.7727018, 21.4057913 ] } },
{ "type": "Feature", "properties": { "Statename": "Odisha", "Districtname": "Baleshwar", "Subdistrictname": "Baleshwar Sadar", "Blockname": "Baleshwar", "Healthblockname": "Balasore", "Healthfacilitytype": "health sub centre", "Facilityname": "Jaydev Kasaba", "NIN": 8635452843, "latitude": 21.38857, "longitude": 86.94953, "facility_type_standardized": "hsc" }, "geometry": { "type": "Point", "coordinates": [ 86.9505914, 21.3798566 ] } },
{ "type": "Feature", "properties": { "Statename": "Odisha", "Districtname": "Baleshwar", "Subdistrictname": "Nilagiri", "Blockname": "Oupada", "Healthblockname": "Oupada", "Healthfacilitytype": "health sub centre", "Facilityname": "Kahalia", "NIN": 5255412149, "latitude": 21.38937, "longitude": 86.50832, "facility_type_standardized": "hsc" }, "geometry": { "type": "Point", "coordinates": [ 86.4926375, 21.3544998 ] } },
{ "type": "Feature", "properties": { "Statename": "Odisha", "Districtname": "Baleshwar", "Subdistrictname": "Soro", "Blockname": "Bahanaga", "Healthblockname": "Bahanaga", "Healthfacilitytype": "health sub centre", "Facilityname": "Khantapada", "NIN": 5676343865, "latitude": 21.39915, "longitude": 86.81431, "facility_type_standardized": "hsc" }, "geometry": { "type": "Point", "coordinates": [ 86.8119401, 21.4007561 ] } },
{ "type": "Feature", "properties": { "Statename": "Odisha", "Districtname": "Baleshwar", "Subdistrictname": "Baleshwar Sadar", "Blockname": "Baleshwar", "Healthblockname": "Balasore", "Healthfacilitytype": "health sub centre", "Facilityname": "Sasang", "NIN": 8226337684, "latitude": 21.41552, "longitude": 86.89141, "facility_type_standardized": "hsc" }, "geometry": { "type": "Point", "coordinates": [ 86.9012891, 21.4159537 ] } },
{ "type": "Feature", "properties": { "Statename": "Odisha", "Districtname": "Baleshwar", "Subdistrictname": "Nilagiri", "Blockname": "Oupada", "Healthblockname": "Oupada", "Healthfacilitytype": "health sub centre", "Facilityname": "Chasakhand", "NIN": 1215261445, "latitude": 21.41629, "longitude": 86.78098, "facility_type_standardized": "hsc" }, "geometry": { "type": "Point", "coordinates": [ 86.7914253, 21.4135918 ] } },
{ "type": "Feature", "properties": { "Statename": "Odisha", "Districtname": "Baleshwar", "Subdistrictname": "Chandipur", "Blockname": "Baleshwar", "Healthblockname": "Balasore", "Healthfacilitytype": "health sub centre", "Facilityname": "Gudu", "NIN": 3811688765, "latitude": 21.41839, "longitude": 86.97761, "facility_type_standardized": "hsc" }, "geometry": { "type": "Point", "coordinates": [ 86.9730252, 21.4206121 ] } },
{ "type": "Feature", "properties": { "Statename": "Odisha", "Districtname": "Baleshwar", "Subdistrictname": "Baleshwar Sadar", "Blockname": "Remuna", "Healthblockname": "Remuna", "Healthfacilitytype": "health sub centre", "Facilityname": "Patra", "NIN": 1251283311, "latitude": 21.43377, "longitude": 86.85542, "facility_type_standardized": "hsc" }, "geometry": { "type": "Point", "coordinates": [ 86.856616, 21.4268543 ] } },
{ "type": "Feature", "properties": { "Statename": "Odisha", "Districtname": "Baleshwar", "Subdistrictname": "Baleshwar Sadar", "Blockname": "Baleshwar", "Healthblockname": "Balasore", "Healthfacilitytype": "health sub centre", "Facilityname": "Palaspur", "NIN": 6476621880, "latitude": 21.44004, "longitude": 86.89269, "facility_type_standardized": "hsc" }, "geometry": { "type": "Point", "coordinates": [ 86.8920074, 21.4427511 ] } },
{ "type": "Feature", "properties": { "Statename": "Odisha", "Districtname": "Baleshwar", "Subdistrictname": "Baleshwar Sadar", "Blockname": "Baleshwar", "Healthblockname": "Balasore", "Healthfacilitytype": "health sub centre", "Facilityname": "Sargaon", "NIN": 1343161319, "latitude": 21.44208, "longitude": 86.92978, "facility_type_standardized": "hsc" }, "geometry": { "type": "Point", "coordinates": [ 86.926478, 21.4416571 ] } },
{ "type": "Feature", "properties": { "Statename": "Odisha", "Districtname": "Baleshwar", "Subdistrictname": "Baleshwar Sadar", "Blockname": "Remuna", "Healthblockname": "Remuna", "Healthfacilitytype": "health sub centre", "Facilityname": "Bhuinpada", "NIN": 4147246476, "latitude": 21.44715, "longitude": 86.83211, "facility_type_standardized": "hsc" }, "geometry": { "type": "Point", "coordinates": [ 86.8296588, 21.4470997 ] } },
{ "type": "Feature", "properties": { "Statename": "Odisha", "Districtname": "Baleshwar", "Subdistrictname": "Chandipur", "Blockname": "Baleshwar", "Healthblockname": "Balasore", "Healthfacilitytype": "health sub centre", "Facilityname": "Hidigan", "NIN": 4816743365, "latitude": 21.45207, "longitude": 86.98449, "facility_type_standardized": "hsc" }, "geometry": { "type": "Point", "coordinates": [ 86.987822, 21.4624014 ] } },
{ "type": "Feature", "properties": { "Statename": "Odisha", "Districtname": "Baleshwar", "Subdistrictname": "Nilagiri", "Blockname": "Nilgiri", "Healthblockname": "Nilagiri", "Healthfacilitytype": "health sub centre", "Facilityname": "Siadimal", "NIN": 4786365363, "latitude": 21.4579, "longitude": 86.7284, "facility_type_standardized": "hsc" }, "geometry": { "type": "Point", "coordinates": [ 86.7297065, 21.4584453 ] } },
{ "type": "Feature", "properties": { "Statename": "Odisha", "Districtname": "Baleshwar", "Subdistrictname": "Baleshwar Sadar", "Blockname": "Remuna", "Healthblockname": "Remuna", "Healthfacilitytype": "health sub centre", "Facilityname": "Chillapada", "NIN": 3787731573, "latitude": 21.46019, "longitude": 86.8337, "facility_type_standardized": "hsc" }, "geometry": { "type": "Point", "coordinates": [ 86.8296588, 21.4470997 ] } },
{ "type": "Feature", "properties": { "Statename": "Odisha", "Districtname": "Baleshwar", "Subdistrictname": "Berhampur", "Blockname": "Nilgiri", "Healthblockname": "Nilagiri", "Healthfacilitytype": "health sub centre", "Facilityname": "Ashoknal", "NIN": 3263878260, "latitude": 21.4629, "longitude": 86.607, "facility_type_standardized": "hsc" }, "geometry": { "type": "Point", "coordinates": [ 86.5991253, 21.4526742 ] } },
{ "type": "Feature", "properties": { "Statename": "Odisha", "Districtname": "Baleshwar", "Subdistrictname": "Nilagiri", "Blockname": "Nilgiri", "Healthblockname": "Nilagiri", "Healthfacilitytype": "health sub centre", "Facilityname": "Tenda", "NIN": 5763448569, "latitude": 21.46709, "longitude": 86.71155, "facility_type_standardized": "hsc" }, "geometry": { "type": "Point", "coordinates": [ 86.7119214, 21.4670868 ] } },
{ "type": "Feature", "properties": { "Statename": "Odisha", "Districtname": "Baleshwar", "Subdistrictname": "Singla", "Blockname": "Baleshwar", "Healthblockname": "Balasore", "Healthfacilitytype": "health sub centre", "Facilityname": "Chak Sartha", "NIN": 3763338815, "latitude": 21.47143, "longitude": 86.93313, "facility_type_standardized": "hsc" }, "geometry": { "type": "Point", "coordinates": [ 86.935716, 21.4742715 ] } },
{ "type": "Feature", "properties": { "Statename": "Odisha", "Districtname": "Baleshwar", "Subdistrictname": "Nilagiri", "Blockname": "Nilgiri", "Healthblockname": "Nilagiri", "Healthfacilitytype": "health sub centre", "Facilityname": "Podasul", "NIN": 1233352317, "latitude": 21.47155, "longitude": 86.74873, "facility_type_standardized": "hsc" }, "geometry": { "type": "Point", "coordinates": [ 86.7487982, 21.4731923 ] } },
{ "type": "Feature", "properties": { "Statename": "Odisha", "Districtname": "Baleshwar", "Subdistrictname": "Baleshwar Sadar", "Blockname": "Remuna", "Healthblockname": "Remuna", "Healthfacilitytype": "health sub centre", "Facilityname": "Kuruda", "NIN": 4186817286, "latitude": 21.47173, "longitude": 86.89237, "facility_type_standardized": "hsc" }, "geometry": { "type": "Point", "coordinates": [ 86.8932038, 21.4740248 ] } },
{ "type": "Feature", "properties": { "Statename": "Odisha", "Districtname": "Baleshwar", "Subdistrictname": "Nilagiri", "Blockname": "Nilgiri", "Healthblockname": "Nilagiri", "Healthfacilitytype": "health sub centre", "Facilityname": "Jamudihi", "NIN": 6174418381, "latitude": 21.47513, "longitude": 86.73905, "facility_type_standardized": "hsc" }, "geometry": { "type": "Point", "coordinates": [ 86.7409814, 21.4740925 ] } },
{ "type": "Feature", "properties": { "Statename": "Odisha", "Districtname": "Baleshwar", "Subdistrictname": "Remuna", "Blockname": "Remuna", "Healthblockname": "Remuna", "Healthfacilitytype": "health sub centre", "Facilityname": "Somnathpur", "NIN": 8182482425, "latitude": 21.48488, "longitude": 86.85315, "facility_type_standardized": "hsc" }, "geometry": { "type": "Point", "coordinates": [ 86.8470458, 21.4830684 ] } },
{ "type": "Feature", "properties": { "Statename": "Odisha", "Districtname": "Baleshwar", "Subdistrictname": "Nilagiri", "Blockname": "Nilgiri", "Healthblockname": "Nilagiri", "Healthfacilitytype": "health sub centre", "Facilityname": "Sajanagarh", "NIN": 5685835778, "latitude": 21.48835, "longitude": 86.70518, "facility_type_standardized": "hsc" }, "geometry": { "type": "Point", "coordinates": [ 86.7026063, 21.4921574 ] } },
{ "type": "Feature", "properties": { "Statename": "Odisha", "Districtname": "Baleshwar", "Subdistrictname": "Baleshwar Sadar", "Blockname": "Baleshwar", "Healthblockname": "Balasore", "Healthfacilitytype": "health sub centre", "Facilityname": "Parikhi", "NIN": 6413763845, "latitude": 21.48953, "longitude": 87.0521, "facility_type_standardized": "hsc" }, "geometry": { "type": "Point", "coordinates": [ 87.055173, 21.488355 ] } },
{ "type": "Feature", "properties": { "Statename": "Odisha", "Districtname": "Baleshwar", "Subdistrictname": "Nilagiri", "Blockname": "Nilgiri", "Healthblockname": "Nilagiri", "Healthfacilitytype": "health sub centre", "Facilityname": "Jamudiha", "NIN": 3251614255, "latitude": 21.493, "longitude": 86.75047, "facility_type_standardized": "hsc" }, "geometry": { "type": "Point", "coordinates": [ 86.7474109, 21.4918193 ] } },
{ "type": "Feature", "properties": { "Statename": "Odisha", "Districtname": "Baleshwar", "Subdistrictname": "Nilagiri", "Blockname": "Nilgiri", "Healthblockname": "Nilagiri", "Healthfacilitytype": "health sub centre", "Facilityname": "Dhobsila", "NIN": 1641156565, "latitude": 21.49355, "longitude": 86.79997, "facility_type_standardized": "hsc" }, "geometry": { "type": "Point", "coordinates": [ 86.80555, 21.4891541 ] } },
{ "type": "Feature", "properties": { "Statename": "Odisha", "Districtname": "Baleshwar", "Subdistrictname": "Berhampur", "Blockname": "Nilgiri", "Healthblockname": "Nilagiri", "Healthfacilitytype": "health sub centre", "Facilityname": "Kalakad", "NIN": 6143338447, "latitude": 21.49482, "longitude": 86.67589, "facility_type_standardized": "hsc" }, "geometry": { "type": "Point", "coordinates": [ 86.6719031, 21.4913373 ] } },
{ "type": "Feature", "properties": { "Statename": "Odisha", "Districtname": "Baleshwar", "Subdistrictname": "Nilagiri", "Blockname": "Nilgiri", "Healthblockname": "Nilagiri", "Healthfacilitytype": "health sub centre", "Facilityname": "Banabhuin", "NIN": 4155612320, "latitude": 21.49767, "longitude": 86.58964, "facility_type_standardized": "hsc" }, "geometry": { "type": "Point", "coordinates": [ 86.5757062, 21.4951876 ] } },
{ "type": "Feature", "properties": { "Statename": "Odisha", "Districtname": "Baleshwar", "Subdistrictname": "Berhampur", "Blockname": "Nilgiri", "Healthblockname": "Nilagiri", "Healthfacilitytype": "health sub centre", "Facilityname": "Chhatrapur", "NIN": 6513162328, "latitude": 21.49816, "longitude": 86.62629, "facility_type_standardized": "hsc" }, "geometry": { "type": "Point", "coordinates": [ 86.6388088, 21.5002905 ] } },
{ "type": "Feature", "properties": { "Statename": "Odisha", "Districtname": "Baleshwar", "Subdistrictname": "Chandipur", "Blockname": "Baleshwar", "Healthblockname": "Balasore", "Healthfacilitytype": "health sub centre", "Facilityname": "Ranasahi", "NIN": 3788311839, "latitude": 21.49868, "longitude": 87.01787, "facility_type_standardized": "hsc" }, "geometry": { "type": "Point", "coordinates": [ 87.0323262, 21.5043001 ] } },
{ "type": "Feature", "properties": { "Statename": "Odisha", "Districtname": "Baleshwar", "Subdistrictname": "Basta", "Blockname": "Baleshwar", "Healthblockname": "Balasore", "Healthfacilitytype": "health sub centre", "Facilityname": "Dublagadi", "NIN": 5877254820, "latitude": 21.50305, "longitude": 87.10106, "facility_type_standardized": "hsc" }, "geometry": { "type": "Point", "coordinates": [ 87.1029479, 21.5028132 ] } },
{ "type": "Feature", "properties": { "Statename": "Odisha", "Districtname": "Baleshwar", "Subdistrictname": "Berhampur", "Blockname": "Nilgiri", "Healthblockname": "Nilagiri", "Healthfacilitytype": "health sub centre", "Facilityname": "Gohira", "NIN": 5888751426, "latitude": 21.504, "longitude": 86.64044, "facility_type_standardized": "hsc" }, "geometry": { "type": "Point", "coordinates": [ 86.6385089, 21.5041494 ] } },
{ "type": "Feature", "properties": { "Statename": "Odisha", "Districtname": "Baleshwar", "Subdistrictname": "Nilagiri", "Blockname": "Nilgiri", "Healthblockname": "Nilagiri", "Healthfacilitytype": "health sub centre", "Facilityname": "Chandipur", "NIN": 8233854721, "latitude": 21.50431, "longitude": 86.76892, "facility_type_standardized": "hsc" }, "geometry": { "type": "Point", "coordinates": [ 86.7785519, 21.4986275 ] } },
{ "type": "Feature", "properties": { "Statename": "Odisha", "Districtname": "Baleshwar", "Subdistrictname": "Baleshwar Sadar", "Blockname": "Baleshwar", "Healthblockname": "Balasore", "Healthfacilitytype": "health sub centre", "Facilityname": "Baincha", "NIN": 1887234662, "latitude": 21.50892, "longitude": 86.96872, "facility_type_standardized": "hsc" }, "geometry": { "type": "Point", "coordinates": [ 86.9650309, 21.5068537 ] } },
{ "type": "Feature", "properties": { "Statename": "Odisha", "Districtname": "Baleshwar", "Subdistrictname": "Remuna", "Blockname": "Remuna", "Healthblockname": "Remuna", "Healthfacilitytype": "health sub centre", "Facilityname": "Mukhura", "NIN": 1818537878, "latitude": 21.50964, "longitude": 86.81994, "facility_type_standardized": "hsc" }, "geometry": { "type": "Point", "coordinates": [ 86.8164355, 21.5098031 ] } },
{ "type": "Feature", "properties": { "Statename": "Odisha", "Districtname": "Baleshwar", "Subdistrictname": "Baleshwar Sadar", "Blockname": "Baleshwar", "Healthblockname": "Balasore", "Healthfacilitytype": "health sub centre", "Facilityname": "Gopinathpur", "NIN": 3767634722, "latitude": 21.51483, "longitude": 87.02242, "facility_type_standardized": "hsc" }, "geometry": { "type": "Point", "coordinates": [ 87.0110019, 21.5197401 ] } },
{ "type": "Feature", "properties": { "Statename": "Odisha", "Districtname": "Baleshwar", "Subdistrictname": "Remuna", "Blockname": "Remuna", "Healthblockname": "Remuna", "Healthfacilitytype": "health sub centre", "Facilityname": "Remuna", "NIN": 6771413884, "latitude": 21.51711, "longitude": 86.88795, "facility_type_standardized": "hsc" }, "geometry": { "type": "Point", "coordinates": [ 86.8864835, 21.5164241 ] } },
{ "type": "Feature", "properties": { "Statename": "Odisha", "Districtname": "Baleshwar", "Subdistrictname": "Berhampur", "Blockname": "Nilgiri", "Healthblockname": "Nilagiri", "Healthfacilitytype": "health sub centre", "Facilityname": "Kaduani", "NIN": 4474275544, "latitude": 21.51754, "longitude": 86.63521, "facility_type_standardized": "hsc" }, "geometry": { "type": "Point", "coordinates": [ 86.6328553, 21.5192777 ] } },
{ "type": "Feature", "properties": { "Statename": "Odisha", "Districtname": "Baleshwar", "Subdistrictname": "Nilagiri", "Blockname": "Nilgiri", "Healthblockname": "Nilagiri", "Healthfacilitytype": "health sub centre", "Facilityname": "Jadibali", "NIN": 3338378254, "latitude": 21.51807, "longitude": 86.74327, "facility_type_standardized": "hsc" }, "geometry": { "type": "Point", "coordinates": [ 86.7431617, 21.50644 ] } },
{ "type": "Feature", "properties": { "Statename": "Odisha", "Districtname": "Baleshwar", "Subdistrictname": "Berhampur", "Blockname": "Nilgiri", "Healthblockname": "Nilagiri", "Healthfacilitytype": "health sub centre", "Facilityname": "Bankisahi", "NIN": 6475355886, "latitude": 21.52094, "longitude": 86.66271, "facility_type_standardized": "hsc" }, "geometry": { "type": "Point", "coordinates": [ 86.6575974, 21.5276912 ] } },
{ "type": "Feature", "properties": { "Statename": "Odisha", "Districtname": "Baleshwar", "Subdistrictname": "Baleshwar Sadar", "Blockname": "Baleshwar", "Healthblockname": "Balasore", "Healthfacilitytype": "health sub centre", "Facilityname": "Basanti Sindhia", "NIN": 4737726630, "latitude": 21.52719, "longitude": 87.00376, "facility_type_standardized": "hsc" }, "geometry": { "type": "Point", "coordinates": [ 87.0034949, 21.5229277 ] } },
{ "type": "Feature", "properties": { "Statename": "Odisha", "Districtname": "Baleshwar", "Subdistrictname": "Remuna", "Blockname": "Remuna", "Healthblockname": "Remuna", "Healthfacilitytype": "health sub centre", "Facilityname": "Rasalpur", "NIN": 4544533831, "latitude": 21.52864, "longitude": 86.82407, "facility_type_standardized": "hsc" }, "geometry": { "type": "Point", "coordinates": [ 86.8235739, 21.5291483 ] } },
{ "type": "Feature", "properties": { "Statename": "Odisha", "Districtname": "Baleshwar", "Subdistrictname": "Nilagiri", "Blockname": "Nilgiri", "Healthblockname": "Nilagiri", "Healthfacilitytype": "health sub centre", "Facilityname": "Gujudiha", "NIN": 4717554481, "latitude": 21.52875, "longitude": 86.67472, "facility_type_standardized": "hsc" }, "geometry": { "type": "Point", "coordinates": [ 86.6741764, 21.527311 ] } },
{ "type": "Feature", "properties": { "Statename": "Odisha", "Districtname": "Baleshwar", "Subdistrictname": "Berhampur", "Blockname": "Nilgiri", "Healthblockname": "Nilagiri", "Healthfacilitytype": "health sub centre", "Facilityname": "Naranpur", "NIN": 7863636630, "latitude": 21.52884, "longitude": 86.70493, "facility_type_standardized": "hsc" }, "geometry": { "type": "Point", "coordinates": [ 86.6993836, 21.520348 ] } },
{ "type": "Feature", "properties": { "Statename": "Odisha", "Districtname": "Baleshwar", "Subdistrictname": "Balaramgadi Marine", "Blockname": "Baleshwar", "Healthblockname": "Balasore", "Healthfacilitytype": "health sub centre", "Facilityname": "Mirjapur", "NIN": 5435787543, "latitude": 21.53116, "longitude": 87.016, "facility_type_standardized": "hsc" }, "geometry": { "type": "Point", "coordinates": [ 87.0158205, 21.5296879 ] } },
{ "type": "Feature", "properties": { "Statename": "Odisha", "Districtname": "Baleshwar", "Subdistrictname": "Baleshwar Sadar", "Blockname": "Remuna", "Healthblockname": "Remuna", "Healthfacilitytype": "health sub centre", "Facilityname": "Dahapada", "NIN": 2343854648, "latitude": 21.5337, "longitude": 86.92585, "facility_type_standardized": "hsc" }, "geometry": { "type": "Point", "coordinates": [ 86.9117359, 21.5332237 ] } },
{ "type": "Feature", "properties": { "Statename": "Odisha", "Districtname": "Baleshwar", "Subdistrictname": "Nilagiri", "Blockname": "Nilgiri", "Healthblockname": "Nilagiri", "Healthfacilitytype": "health sub centre", "Facilityname": "Mahisapata", "NIN": 3567168848, "latitude": 21.53499, "longitude": 86.76631, "facility_type_standardized": "hsc" }, "geometry": { "type": "Point", "coordinates": [ 86.7508152, 21.5488858 ] } },
{ "type": "Feature", "properties": { "Statename": "Odisha", "Districtname": "Baleshwar", "Subdistrictname": "Berhampur", "Blockname": "Nilgiri", "Healthblockname": "Nilagiri", "Healthfacilitytype": "health sub centre", "Facilityname": "Darkholi", "NIN": 8768556337, "latitude": 21.5353, "longitude": 86.8048, "facility_type_standardized": "hsc" }, "geometry": { "type": "Point", "coordinates": [ 86.7986241, 21.5303054 ] } },
{ "type": "Feature", "properties": { "Statename": "Odisha", "Districtname": "Baleshwar", "Subdistrictname": "Singla", "Blockname": "Baleshwar", "Healthblockname": "Balasore", "Healthfacilitytype": "health sub centre", "Facilityname": "Kasafal", "NIN": 2434724734, "latitude": 21.53583, "longitude": 87.15275, "facility_type_standardized": "hsc" }, "geometry": { "type": "Point", "coordinates": [ 87.1544337, 21.5452756 ] } },
{ "type": "Feature", "properties": { "Statename": "Odisha", "Districtname": "Baleshwar", "Subdistrictname": "Berhampur", "Blockname": "Nilgiri", "Healthblockname": "Nilagiri", "Healthfacilitytype": "health sub centre", "Facilityname": "Berhampur", "NIN": 5834644717, "latitude": 21.53688, "longitude": 86.65505, "facility_type_standardized": "hsc" }, "geometry": { "type": "Point", "coordinates": [ 86.6550627, 21.5364637 ] } },
{ "type": "Feature", "properties": { "Statename": "Odisha", "Districtname": "Baleshwar", "Subdistrictname": "Singla", "Blockname": "Baleshwar", "Healthblockname": "Balasore", "Healthfacilitytype": "health sub centre", "Facilityname": "Sartha", "NIN": 6788413653, "latitude": 21.53989, "longitude": 87.11047, "facility_type_standardized": "hsc" }, "geometry": { "type": "Point", "coordinates": [ 87.1181059, 21.5206549 ] } },
{ "type": "Feature", "properties": { "Statename": "Odisha", "Districtname": "Baleshwar", "Subdistrictname": "Baleshwar Sadar", "Blockname": "Baleshwar", "Healthblockname": "Balasore", "Healthfacilitytype": "health sub centre", "Facilityname": "Ol Sargan", "NIN": 6526251530, "latitude": 21.54096, "longitude": 86.9922, "facility_type_standardized": "hsc" }, "geometry": { "type": "Point", "coordinates": [ 86.991527, 21.5323845 ] } },
{ "type": "Feature", "properties": { "Statename": "Odisha", "Districtname": "Baleshwar", "Subdistrictname": "Berhampur", "Blockname": "Nilgiri", "Healthblockname": "Nilagiri", "Healthfacilitytype": "health sub centre", "Facilityname": "Saldahar", "NIN": 8336247757, "latitude": 21.54818, "longitude": 86.66534, "facility_type_standardized": "hsc" }, "geometry": { "type": "Point", "coordinates": [ 86.6654241, 21.5518218 ] } },
{ "type": "Feature", "properties": { "Statename": "Odisha", "Districtname": "Baleshwar", "Subdistrictname": "Remuna", "Blockname": "Remuna", "Healthblockname": "Remuna", "Healthfacilitytype": "health sub centre", "Facilityname": "Kanarali", "NIN": 4447575426, "latitude": 21.54818, "longitude": 86.87393, "facility_type_standardized": "hsc" }, "geometry": { "type": "Point", "coordinates": [ 86.8758164, 21.5454893 ] } },
{ "type": "Feature", "properties": { "Statename": "Odisha", "Districtname": "Baleshwar", "Subdistrictname": "Basta", "Blockname": "Baleshwar", "Healthblockname": "Balasore", "Healthfacilitytype": "health sub centre", "Facilityname": "Silda", "NIN": 4288834114, "latitude": 21.54855, "longitude": 87.06552, "facility_type_standardized": "hsc" }, "geometry": { "type": "Point", "coordinates": [ 87.0670457, 21.538518 ] } },
{ "type": "Feature", "properties": { "Statename": "Odisha", "Districtname": "Baleshwar", "Subdistrictname": "Remuna", "Blockname": "Remuna", "Healthblockname": "Remuna", "Healthfacilitytype": "health sub centre", "Facilityname": "Manadarpur", "NIN": 8545227483, "latitude": 21.54868, "longitude": 86.88719, "facility_type_standardized": "hsc" }, "geometry": { "type": "Point", "coordinates": [ 86.8758164, 21.5454893 ] } },
{ "type": "Feature", "properties": { "Statename": "Odisha", "Districtname": "Baleshwar", "Subdistrictname": "Remuna", "Blockname": "Remuna", "Healthblockname": "Remuna", "Healthfacilitytype": "health sub centre", "Facilityname": "Nuaparhi", "NIN": 3628647814, "latitude": 21.54882, "longitude": 86.82474, "facility_type_standardized": "hsc" }, "geometry": { "type": "Point", "coordinates": [ 86.8199569, 21.5494381 ] } },
{ "type": "Feature", "properties": { "Statename": "Odisha", "Districtname": "Baleshwar", "Subdistrictname": "Remuna", "Blockname": "Remuna", "Healthblockname": "Remuna", "Healthfacilitytype": "health sub centre", "Facilityname": "Patripal", "NIN": 6778118460, "latitude": 21.5499, "longitude": 86.86845, "facility_type_standardized": "hsc" }, "geometry": { "type": "Point", "coordinates": [ 86.8702161, 21.5465729 ] } },
{ "type": "Feature", "properties": { "Statename": "Odisha", "Districtname": "Baleshwar", "Subdistrictname": "Baliapal", "Blockname": "Baliapal", "Healthblockname": "Baliapal", "Healthfacilitytype": "health sub centre", "Facilityname": "Jambhirai", "NIN": 7676841724, "latitude": 21.55139, "longitude": 87.19628, "facility_type_standardized": "hsc" }, "geometry": { "type": "Point", "coordinates": [ 87.1920666, 21.5473145 ] } },
{ "type": "Feature", "properties": { "Statename": "Odisha", "Districtname": "Baleshwar", "Subdistrictname": "Nilagiri", "Blockname": "Nilgiri", "Healthblockname": "Nilagiri", "Healthfacilitytype": "health sub centre", "Facilityname": "Machhua", "NIN": 3773287564, "latitude": 21.55634, "longitude": 86.78985, "facility_type_standardized": "hsc" }, "geometry": { "type": "Point", "coordinates": [ 86.7895669, 21.5554934 ] } },
{ "type": "Feature", "properties": { "Statename": "Odisha", "Districtname": "Baleshwar", "Subdistrictname": "Baleshwar Sadar", "Blockname": "Baleshwar", "Healthblockname": "Balasore", "Healthfacilitytype": "health sub centre", "Facilityname": "Fuladi", "NIN": 2685281889, "latitude": 21.55663, "longitude": 86.96758, "facility_type_standardized": "hsc" }, "geometry": { "type": "Point", "coordinates": [ 86.9851185, 21.560861 ] } },
{ "type": "Feature", "properties": { "Statename": "Odisha", "Districtname": "Baleshwar", "Subdistrictname": "Nilagiri", "Blockname": "Nilgiri", "Healthblockname": "Nilagiri", "Healthfacilitytype": "health sub centre", "Facilityname": "Ajodhya", "NIN": 8841856415, "latitude": 21.55839, "longitude": 86.761, "facility_type_standardized": "hsc" }, "geometry": { "type": "Point", "coordinates": [ 86.7518217, 21.5501817 ] } },
{ "type": "Feature", "properties": { "Statename": "Odisha", "Districtname": "Baleshwar", "Subdistrictname": "Nilagiri", "Blockname": "Nilgiri", "Healthblockname": "Nilagiri", "Healthfacilitytype": "health sub centre", "Facilityname": "Begunia", "NIN": 8653173842, "latitude": 21.56256, "longitude": 86.81063, "facility_type_standardized": "hsc" }, "geometry": { "type": "Point", "coordinates": [ 86.8156479, 21.5537352 ] } },
{ "type": "Feature", "properties": { "Statename": "Odisha", "Districtname": "Baleshwar", "Subdistrictname": "Baliapal", "Blockname": "Baliapal", "Healthblockname": "Baliapal", "Healthfacilitytype": "health sub centre", "Facilityname": "Chaumukha", "NIN": 6642685835, "latitude": 21.56563, "longitude": 87.3203, "facility_type_standardized": "hsc" }, "geometry": { "type": "Point", "coordinates": [ 87.3301235, 21.5618899 ] } },
{ "type": "Feature", "properties": { "Statename": "Odisha", "Districtname": "Baleshwar", "Subdistrictname": "Berhampur", "Blockname": "Nilgiri", "Healthblockname": "Nilagiri", "Healthfacilitytype": "health sub centre", "Facilityname": "Matiali", "NIN": 5881714389, "latitude": 21.56591, "longitude": 86.70794, "facility_type_standardized": "hsc" }, "geometry": { "type": "Point", "coordinates": [ 86.7109233, 21.56577 ] } },
{ "type": "Feature", "properties": { "Statename": "Odisha", "Districtname": "Baleshwar", "Subdistrictname": "Berhampur", "Blockname": "Nilgiri", "Healthblockname": "Nilagiri", "Healthfacilitytype": "health sub centre", "Facilityname": "Arbandha", "NIN": 4356852782, "latitude": 21.56767, "longitude": 86.66462, "facility_type_standardized": "hsc" }, "geometry": { "type": "Point", "coordinates": [ 86.6659123, 21.5682185 ] } },
{ "type": "Feature", "properties": { "Statename": "Odisha", "Districtname": "Baleshwar", "Subdistrictname": "Baliapal", "Blockname": "Baliapal", "Healthblockname": "Baliapal", "Healthfacilitytype": "health sub centre", "Facilityname": "Dagara", "NIN": 1431875887, "latitude": 21.56863, "longitude": 87.28587, "facility_type_standardized": "hsc" }, "geometry": { "type": "Point", "coordinates": [ 87.2814938, 21.56798 ] } },
{ "type": "Feature", "properties": { "Statename": "Odisha", "Districtname": "Baleshwar", "Subdistrictname": "Baliapal", "Blockname": "Baliapal", "Healthblockname": "Baliapal", "Healthfacilitytype": "health sub centre", "Facilityname": "Panchupali", "NIN": 1624758783, "latitude": 21.56879, "longitude": 87.19945, "facility_type_standardized": "hsc" }, "geometry": { "type": "Point", "coordinates": [ 87.1983075, 21.5754916 ] } },
{ "type": "Feature", "properties": { "Statename": "Odisha", "Districtname": "Baleshwar", "Subdistrictname": "Basta", "Blockname": "Baleshwar", "Healthblockname": "Balasore", "Healthfacilitytype": "health sub centre", "Facilityname": "Haldipada", "NIN": 7785655478, "latitude": 21.57064, "longitude": 87.05485, "facility_type_standardized": "hsc" }, "geometry": { "type": "Point", "coordinates": [ 87.0369936, 21.5745368 ] } },
{ "type": "Feature", "properties": { "Statename": "Odisha", "Districtname": "Baleshwar", "Subdistrictname": "Baliapal", "Blockname": "Baliapal", "Healthblockname": "Baliapal", "Healthfacilitytype": "health sub centre", "Facilityname": "Nuagan", "NIN": 1311117442, "latitude": 21.57241, "longitude": 87.21963, "facility_type_standardized": "hsc" }, "geometry": { "type": "Point", "coordinates": [ 87.2149399, 21.5766894 ] } },
{ "type": "Feature", "properties": { "Statename": "Odisha", "Districtname": "Baleshwar", "Subdistrictname": "Nilagiri", "Blockname": "Nilgiri", "Healthblockname": "Nilagiri", "Healthfacilitytype": "health sub centre", "Facilityname": "Dumodandira", "NIN": 8263582440, "latitude": 21.57441, "longitude": 86.81604, "facility_type_standardized": "hsc" }, "geometry": { "type": "Point", "coordinates": [ 86.8232924, 21.5719385 ] } },
{ "type": "Feature", "properties": { "Statename": "Odisha", "Districtname": "Baleshwar", "Subdistrictname": "Remuna", "Blockname": "Remuna", "Healthblockname": "Remuna", "Healthfacilitytype": "health sub centre", "Facilityname": "Kasimpur", "NIN": 5217622132, "latitude": 21.57483, "longitude": 86.87179, "facility_type_standardized": "hsc" }, "geometry": { "type": "Point", "coordinates": [ 86.8578375, 21.5605338 ] } },
{ "type": "Feature", "properties": { "Statename": "Odisha", "Districtname": "Baleshwar", "Subdistrictname": "Remuna", "Blockname": "Remuna", "Healthblockname": "Remuna", "Healthfacilitytype": "health sub centre", "Facilityname": "Medinipur", "NIN": 5877427533, "latitude": 21.57564, "longitude": 86.96977, "facility_type_standardized": "hsc" }, "geometry": { "type": "Point", "coordinates": [ 86.9851185, 21.560861 ] } },
{ "type": "Feature", "properties": { "Statename": "Odisha", "Districtname": "Baleshwar", "Subdistrictname": "Baliapal", "Blockname": "Baliapal", "Healthblockname": "Baliapal", "Healthfacilitytype": "health sub centre", "Facilityname": "Bhikagadia", "NIN": 8416385733, "latitude": 21.57653, "longitude": 87.23584, "facility_type_standardized": "hsc" }, "geometry": { "type": "Point", "coordinates": [ 87.2279341, 21.5835219 ] } },
{ "type": "Feature", "properties": { "Statename": "Odisha", "Districtname": "Baleshwar", "Subdistrictname": "Berhampur", "Blockname": "Nilgiri", "Healthblockname": "Nilagiri", "Healthfacilitytype": "health sub centre", "Facilityname": "Tentulia", "NIN": 6464284717, "latitude": 21.57659, "longitude": 86.69306, "facility_type_standardized": "hsc" }, "geometry": { "type": "Point", "coordinates": [ 86.6914898, 21.5757189 ] } },
{ "type": "Feature", "properties": { "Statename": "Odisha", "Districtname": "Baleshwar", "Subdistrictname": "Remuna", "Blockname": "Remuna", "Healthblockname": "Remuna", "Healthfacilitytype": "health sub centre", "Facilityname": "Makanda", "NIN": 3385356484, "latitude": 21.57707, "longitude": 86.9146, "facility_type_standardized": "hsc" }, "geometry": { "type": "Point", "coordinates": [ 86.9267517, 21.5738806 ] } },
{ "type": "Feature", "properties": { "Statename": "Odisha", "Districtname": "Baleshwar", "Subdistrictname": "Singla", "Blockname": "Baliapal", "Healthblockname": "Baliapal", "Healthfacilitytype": "health sub centre", "Facilityname": "Bolong", "NIN": 2842658466, "latitude": 21.57923, "longitude": 87.17178, "facility_type_standardized": "hsc" }, "geometry": { "type": "Point", "coordinates": [ 87.1983075, 21.5754916 ] } },
{ "type": "Feature", "properties": { "Statename": "Odisha", "Districtname": "Baleshwar", "Subdistrictname": "Remuna", "Blockname": "Remuna", "Healthblockname": "Remuna", "Healthfacilitytype": "health sub centre", "Facilityname": "Dharaganj", "NIN": 2335736886, "latitude": 21.58184, "longitude": 86.82641, "facility_type_standardized": "hsc" }, "geometry": { "type": "Point", "coordinates": [ 86.8232924, 21.5719385 ] } },
{ "type": "Feature", "properties": { "Statename": "Odisha", "Districtname": "Baleshwar", "Subdistrictname": "Basta", "Blockname": "Baleshwar", "Healthblockname": "Balasore", "Healthfacilitytype": "health sub centre", "Facilityname": "Nuasahi", "NIN": 5848168232, "latitude": 21.58189, "longitude": 87.01512, "facility_type_standardized": "hsc" }, "geometry": { "type": "Point", "coordinates": [ 87.0151155, 21.5819224 ] } },
{ "type": "Feature", "properties": { "Statename": "Odisha", "Districtname": "Baleshwar", "Subdistrictname": "Chandipur", "Blockname": "Baleshwar", "Healthblockname": "Balasore", "Healthfacilitytype": "health sub centre", "Facilityname": "Gabgaon", "NIN": 6846382627, "latitude": 21.5822, "longitude": 87.10742, "facility_type_standardized": "hsc" }, "geometry": { "type": "Point", "coordinates": [ 87.107318, 21.5757439 ] } },
{ "type": "Feature", "properties": { "Statename": "Odisha", "Districtname": "Baleshwar", "Subdistrictname": "Nilagiri", "Blockname": "Nilgiri", "Healthblockname": "Nilagiri", "Healthfacilitytype": "health sub centre", "Facilityname": "Kansa", "NIN": 6178743271, "latitude": 21.58631, "longitude": 86.75991, "facility_type_standardized": "hsc" }, "geometry": { "type": "Point", "coordinates": [ 86.7492977, 21.5800782 ] } },
{ "type": "Feature", "properties": { "Statename": "Odisha", "Districtname": "Baleshwar", "Subdistrictname": "Baliapal", "Blockname": "Baliapal", "Healthblockname": "Baliapal", "Healthfacilitytype": "health sub centre", "Facilityname": "Ratai", "NIN": 5347637828, "latitude": 21.58657, "longitude": 87.21111, "facility_type_standardized": "hsc" }, "geometry": { "type": "Point", "coordinates": [ 87.2203347, 21.5827163 ] } },
{ "type": "Feature", "properties": { "Statename": "Odisha", "Districtname": "Baleshwar", "Subdistrictname": "Baliapal", "Blockname": "Baliapal", "Healthblockname": "Baliapal", "Healthfacilitytype": "health sub centre", "Facilityname": "Betagadia", "NIN": 8165857478, "latitude": 21.58791, "longitude": 87.26028, "facility_type_standardized": "hsc" }, "geometry": { "type": "Point", "coordinates": [ 87.2653312, 21.5841528 ] } },
{ "type": "Feature", "properties": { "Statename": "Odisha", "Districtname": "Baleshwar", "Subdistrictname": "Nilagiri", "Blockname": "Nilgiri", "Healthblockname": "Nilagiri", "Healthfacilitytype": "health sub centre", "Facilityname": "Tindesh", "NIN": 4337218863, "latitude": 21.59266, "longitude": 86.73058, "facility_type_standardized": "hsc" }, "geometry": { "type": "Point", "coordinates": [ 86.7299037, 21.5826365 ] } },
{ "type": "Feature", "properties": { "Statename": "Odisha", "Districtname": "Baleshwar", "Subdistrictname": "Singla", "Blockname": "Baliapal", "Healthblockname": "Baliapal", "Healthfacilitytype": "health sub centre", "Facilityname": "Kunduli", "NIN": 4643682547, "latitude": 21.59284, "longitude": 87.12477, "facility_type_standardized": "hsc" }, "geometry": { "type": "Point", "coordinates": [ 87.1216464, 21.5767763 ] } },
{ "type": "Feature", "properties": { "Statename": "Odisha", "Districtname": "Baleshwar", "Subdistrictname": "Nilagiri", "Blockname": "Nilgiri", "Healthblockname": "Nilagiri", "Healthfacilitytype": "health sub centre", "Facilityname": "Radhakishorepur", "NIN": 8646461437, "latitude": 21.5973, "longitude": 86.78228, "facility_type_standardized": "hsc" }, "geometry": { "type": "Point", "coordinates": [ 86.8002234, 21.6102447 ] } },
{ "type": "Feature", "properties": { "Statename": "Odisha", "Districtname": "Baleshwar", "Subdistrictname": "Remuna", "Blockname": "Remuna", "Healthblockname": "Remuna", "Healthfacilitytype": "health sub centre", "Facilityname": "Balia", "NIN": 7668276368, "latitude": 21.60148, "longitude": 86.88439, "facility_type_standardized": "hsc" }, "geometry": { "type": "Point", "coordinates": [ 86.8926672, 21.6032677 ] } },
{ "type": "Feature", "properties": { "Statename": "Odisha", "Districtname": "Baleshwar", "Subdistrictname": "Bhograi", "Blockname": "Bhograi", "Healthblockname": "Bhogarai", "Healthfacilitytype": "health sub centre", "Facilityname": "Rankotha", "NIN": 7274545685, "latitude": 21.60351, "longitude": 87.38845, "facility_type_standardized": "hsc" }, "geometry": { "type": "Point", "coordinates": [ 87.3966556, 21.608541 ] } },
{ "type": "Feature", "properties": { "Statename": "Odisha", "Districtname": "Baleshwar", "Subdistrictname": "Baliapal", "Blockname": "Baliapal", "Healthblockname": "Baliapal", "Healthfacilitytype": "health sub centre", "Facilityname": "Pratapur", "NIN": 5478316382, "latitude": 21.60362, "longitude": 87.26431, "facility_type_standardized": "hsc" }, "geometry": { "type": "Point", "coordinates": [ 87.2758553, 21.6007648 ] } },
{ "type": "Feature", "properties": { "Statename": "Odisha", "Districtname": "Baleshwar", "Subdistrictname": "Remuna", "Blockname": "Remuna", "Healthblockname": "Remuna", "Healthfacilitytype": "health sub centre", "Facilityname": "Durgadevi", "NIN": 4561455116, "latitude": 21.60388, "longitude": 86.81156, "facility_type_standardized": "hsc" }, "geometry": { "type": "Point", "coordinates": [ 86.8202379, 21.6036864 ] } },
{ "type": "Feature", "properties": { "Statename": "Odisha", "Districtname": "Baleshwar", "Subdistrictname": "Remuna", "Blockname": "Remuna", "Healthblockname": "Remuna", "Healthfacilitytype": "health sub centre", "Facilityname": "Gandarda", "NIN": 2583161514, "latitude": 21.60523, "longitude": 86.89648, "facility_type_standardized": "hsc" }, "geometry": { "type": "Point", "coordinates": [ 86.8926672, 21.6032677 ] } },
{ "type": "Feature", "properties": { "Statename": "Odisha", "Districtname": "Baleshwar", "Subdistrictname": "Basta", "Blockname": "Baleshwar", "Healthblockname": "Balasore", "Healthfacilitytype": "health sub centre", "Facilityname": "Srirampur", "NIN": 4647556838, "latitude": 21.60903, "longitude": 87.08397, "facility_type_standardized": "hsc" }, "geometry": { "type": "Point", "coordinates": [ 87.0959562, 21.5755044 ] } },
{ "type": "Feature", "properties": { "Statename": "Odisha", "Districtname": "Baleshwar", "Subdistrictname": "Bhograi", "Blockname": "Bhograi", "Healthblockname": "Bhogarai", "Healthfacilitytype": "health sub centre", "Facilityname": "Sradhapur", "NIN": 8674432359, "latitude": 21.60952, "longitude": 87.42046, "facility_type_standardized": "hsc" }, "geometry": { "type": "Point", "coordinates": [ 87.4196137, 21.6099811 ] } },
{ "type": "Feature", "properties": { "Statename": "Odisha", "Districtname": "Baleshwar", "Subdistrictname": "Rupsa", "Blockname": "Baleshwar", "Healthblockname": "Balasore", "Healthfacilitytype": "health sub centre", "Facilityname": "Kasipada", "NIN": 8482664318, "latitude": 21.60965, "longitude": 87.02366, "facility_type_standardized": "hsc" }, "geometry": { "type": "Point", "coordinates": [ 87.0294929, 21.6049781 ] } },
{ "type": "Feature", "properties": { "Statename": "Odisha", "Districtname": "Baleshwar", "Subdistrictname": "Singla", "Blockname": "Baliapal", "Healthblockname": "Baliapal", "Healthfacilitytype": "health sub centre", "Facilityname": "Langaleswar", "NIN": 3561411350, "latitude": 21.61405, "longitude": 87.19076, "facility_type_standardized": "hsc" }, "geometry": { "type": "Point", "coordinates": [ 87.1906436, 21.6163948 ] } },
{ "type": "Feature", "properties": { "Statename": "Odisha", "Districtname": "Baleshwar", "Subdistrictname": "Bhograi", "Blockname": "Bhograi", "Healthblockname": "Bhogarai", "Healthfacilitytype": "health sub centre", "Facilityname": "Sankhari", "NIN": 7274377568, "latitude": 21.61636, "longitude": 87.43762, "facility_type_standardized": "hsc" }, "geometry": { "type": "Point", "coordinates": [ 87.4342904, 21.6217629 ] } },
{ "type": "Feature", "properties": { "Statename": "Odisha", "Districtname": "Baleshwar", "Subdistrictname": "Rupsa", "Blockname": "Baleshwar", "Healthblockname": "Balasore", "Healthfacilitytype": "health sub centre", "Facilityname": "Rupsa", "NIN": 2236136129, "latitude": 21.61831, "longitude": 87.01829, "facility_type_standardized": "hsc" }, "geometry": { "type": "Point", "coordinates": [ 87.0191324, 21.6222546 ] } },
{ "type": "Feature", "properties": { "Statename": "Odisha", "Districtname": "Baleshwar", "Subdistrictname": "Baliapal", "Blockname": "Baliapal", "Healthblockname": "Baliapal", "Healthfacilitytype": "health sub centre", "Facilityname": "Badas", "NIN": 3178375774, "latitude": 21.61901, "longitude": 87.31384, "facility_type_standardized": "hsc" }, "geometry": { "type": "Point", "coordinates": [ 87.3121, 21.61913 ] } },
{ "type": "Feature", "properties": { "Statename": "Odisha", "Districtname": "Baleshwar", "Subdistrictname": "Baliapal", "Blockname": "Baliapal", "Healthblockname": "Baliapal", "Healthfacilitytype": "health sub centre", "Facilityname": "Katisahi", "NIN": 3833417854, "latitude": 21.622, "longitude": 87.23966, "facility_type_standardized": "hsc" }, "geometry": { "type": "Point", "coordinates": [ 87.2314399, 21.6345704 ] } },
{ "type": "Feature", "properties": { "Statename": "Odisha", "Districtname": "Baleshwar", "Subdistrictname": "Bhograi", "Blockname": "Bhograi", "Healthblockname": "Bhogarai", "Healthfacilitytype": "health sub centre", "Facilityname": "Fulbani", "NIN": 8141736788, "latitude": 21.62321, "longitude": 87.41738, "facility_type_standardized": "hsc" }, "geometry": { "type": "Point", "coordinates": [ 87.4122211, 21.6168398 ] } },
{ "type": "Feature", "properties": { "Statename": "Odisha", "Districtname": "Baleshwar", "Subdistrictname": "Basta", "Blockname": "Baleshwar", "Healthblockname": "Balasore", "Healthfacilitytype": "health sub centre", "Facilityname": "Machhadiha", "NIN": 3382677361, "latitude": 21.6244, "longitude": 87.08322, "facility_type_standardized": "hsc" }, "geometry": { "type": "Point", "coordinates": [ 87.0636377, 21.6627093 ] } },
{ "type": "Feature", "properties": { "Statename": "Odisha", "Districtname": "Baleshwar", "Subdistrictname": "Baliapal", "Blockname": "Baliapal", "Healthblockname": "Baliapal", "Healthfacilitytype": "health sub centre", "Facilityname": "Balikuti", "NIN": 3381686769, "latitude": 21.6271, "longitude": 87.19561, "facility_type_standardized": "hsc" }, "geometry": { "type": "Point", "coordinates": [ 87.1957773, 21.6214162 ] } },
{ "type": "Feature", "properties": { "Statename": "Odisha", "Districtname": "Baleshwar", "Subdistrictname": "Bhograi", "Blockname": "Bhograi", "Healthblockname": "Bhogarai", "Healthfacilitytype": "health sub centre", "Facilityname": "Huguli", "NIN": 2612166534, "latitude": 21.62716, "longitude": 87.4637, "facility_type_standardized": "hsc" }, "geometry": { "type": "Point", "coordinates": [ 87.4605161, 21.6292876 ] } },
{ "type": "Feature", "properties": { "Statename": "Odisha", "Districtname": "Baleshwar", "Subdistrictname": "Bhograi", "Blockname": "Bhograi", "Healthblockname": "Bhogarai", "Healthfacilitytype": "health sub centre", "Facilityname": "Naskarpur", "NIN": 7481238421, "latitude": 21.63087, "longitude": 87.43958, "facility_type_standardized": "hsc" }, "geometry": { "type": "Point", "coordinates": [ 87.4315264, 21.6299972 ] } },
{ "type": "Feature", "properties": { "Statename": "Odisha", "Districtname": "Baleshwar", "Subdistrictname": "Baliapal", "Blockname": "Baliapal", "Healthblockname": "Baliapal", "Healthfacilitytype": "health sub centre", "Facilityname": "Jamkunda", "NIN": 4873333324, "latitude": 21.63102, "longitude": 87.31564, "facility_type_standardized": "hsc" }, "geometry": { "type": "Point", "coordinates": [ 87.3180175, 21.6340243 ] } },
{ "type": "Feature", "properties": { "Statename": "Odisha", "Districtname": "Baleshwar", "Subdistrictname": "Bhograi", "Blockname": "Bhograi", "Healthblockname": "Bhogarai", "Healthfacilitytype": "health sub centre", "Facilityname": "Bajitpur", "NIN": 6467754450, "latitude": 21.63427, "longitude": 87.48118, "facility_type_standardized": "hsc" }, "geometry": { "type": "Point", "coordinates": [ 87.4701546, 21.6335719 ] } },
{ "type": "Feature", "properties": { "Statename": "Odisha", "Districtname": "Baleshwar", "Subdistrictname": "Basta", "Blockname": "Basta", "Healthblockname": "Basta", "Healthfacilitytype": "health sub centre", "Facilityname": "Kusudiha", "NIN": 2412821122, "latitude": 21.63682, "longitude": 87.1342, "facility_type_standardized": "hsc" }, "geometry": { "type": "Point", "coordinates": [ 87.1321124, 21.6671401 ] } },
{ "type": "Feature", "properties": { "Statename": "Odisha", "Districtname": "Baleshwar", "Subdistrictname": "Bhograi", "Blockname": "Bhograi", "Healthblockname": "Bhogarai", "Healthfacilitytype": "health sub centre", "Facilityname": "Jayrampur", "NIN": 7762842339, "latitude": 21.6387, "longitude": 87.38719, "facility_type_standardized": "hsc" }, "geometry": { "type": "Point", "coordinates": [ 87.3902033, 21.6414883 ] } },
{ "type": "Feature", "properties": { "Statename": "Odisha", "Districtname": "Baleshwar", "Subdistrictname": "Bhograi", "Blockname": "Bhograi", "Healthblockname": "Bhogarai", "Healthfacilitytype": "health sub centre", "Facilityname": "Dihakakhara", "NIN": 7218633480, "latitude": 21.64113, "longitude": 87.42363, "facility_type_standardized": "hsc" }, "geometry": { "type": "Point", "coordinates": [ 87.4315264, 21.6299972 ] } },
{ "type": "Feature", "properties": { "Statename": "Odisha", "Districtname": "Baleshwar", "Subdistrictname": "Bhograi", "Blockname": "Bhograi", "Healthblockname": "Bhogarai", "Healthfacilitytype": "health sub centre", "Facilityname": "Rasalpur", "NIN": 3424823643, "latitude": 21.64265, "longitude": 87.35602, "facility_type_standardized": "hsc" }, "geometry": { "type": "Point", "coordinates": [ 87.3488, 21.64201 ] } },
{ "type": "Feature", "properties": { "Statename": "Odisha", "Districtname": "Baleshwar", "Subdistrictname": "Baliapal", "Blockname": "Baliapal", "Healthblockname": "Baliapal", "Healthfacilitytype": "health sub centre", "Facilityname": "Bishnupur", "NIN": 7852745855, "latitude": 21.6432, "longitude": 87.31216, "facility_type_standardized": "hsc" }, "geometry": { "type": "Point", "coordinates": [ 87.3138314, 21.6475769 ] } },
{ "type": "Feature", "properties": { "Statename": "Odisha", "Districtname": "Baleshwar", "Subdistrictname": "Basta", "Blockname": "Basta", "Healthblockname": "Basta", "Healthfacilitytype": "health sub centre", "Facilityname": "Barungadia", "NIN": 4763618677, "latitude": 21.64531, "longitude": 87.07052, "facility_type_standardized": "hsc" }, "geometry": { "type": "Point", "coordinates": [ 87.0636377, 21.6627093 ] } },
{ "type": "Feature", "properties": { "Statename": "Odisha", "Districtname": "Baleshwar", "Subdistrictname": "Singla", "Blockname": "Basta", "Healthblockname": "Basta", "Healthfacilitytype": "health sub centre", "Facilityname": "Irda", "NIN": 7381827455, "latitude": 21.64682, "longitude": 87.12868, "facility_type_standardized": "hsc" }, "geometry": { "type": "Point", "coordinates": [ 87.1321124, 21.6671401 ] } },
{ "type": "Feature", "properties": { "Statename": "Odisha", "Districtname": "Baleshwar", "Subdistrictname": "Singla", "Blockname": "Basta", "Healthblockname": "Basta", "Healthfacilitytype": "health sub centre", "Facilityname": "Naikudi", "NIN": 3858275286, "latitude": 21.64779, "longitude": 87.16526, "facility_type_standardized": "hsc" }, "geometry": { "type": "Point", "coordinates": [ 87.1795738, 21.6463157 ] } },
{ "type": "Feature", "properties": { "Statename": "Odisha", "Districtname": "Baleshwar", "Subdistrictname": "Baliapal", "Blockname": "Baliapal", "Healthblockname": "Baliapal", "Healthfacilitytype": "health sub centre", "Facilityname": "Baliapal", "NIN": 8353647632, "latitude": 21.65108, "longitude": 87.28925, "facility_type_standardized": "hsc" }, "geometry": { "type": "Point", "coordinates": [ 87.2891664, 21.6512854 ] } },
{ "type": "Feature", "properties": { "Statename": "Odisha", "Districtname": "Baleshwar", "Subdistrictname": "Rupsa", "Blockname": "Basta", "Healthblockname": "Basta", "Healthfacilitytype": "health sub centre", "Facilityname": "Routpada", "NIN": 5667247745, "latitude": 21.6515, "longitude": 87.03834, "facility_type_standardized": "hsc" }, "geometry": { "type": "Point", "coordinates": [ 87.0165896, 21.6474365 ] } },
{ "type": "Feature", "properties": { "Statename": "Odisha", "Districtname": "Baleshwar", "Subdistrictname": "Baliapal", "Blockname": "Baliapal", "Healthblockname": "Baliapal", "Healthfacilitytype": "health sub centre", "Facilityname": "Simulia", "NIN": 4668653340, "latitude": 21.65226, "longitude": 87.26764, "facility_type_standardized": "hsc" }, "geometry": { "type": "Point", "coordinates": [ 87.2718555, 21.6491093 ] } },
{ "type": "Feature", "properties": { "Statename": "Odisha", "Districtname": "Baleshwar", "Subdistrictname": "Bhograi", "Blockname": "Bhograi", "Healthblockname": "Bhogarai", "Healthfacilitytype": "health sub centre", "Facilityname": "Bhograi", "NIN": 3555374887, "latitude": 21.66001, "longitude": 87.34773, "facility_type_standardized": "hsc" }, "geometry": { "type": "Point", "coordinates": [ 87.3518336, 21.6627952 ] } },
{ "type": "Feature", "properties": { "Statename": "Odisha", "Districtname": "Baleshwar", "Subdistrictname": "Singla", "Blockname": "Basta", "Healthblockname": "Basta", "Healthfacilitytype": "health sub centre", "Facilityname": "Putura", "NIN": 1258252558, "latitude": 21.66191, "longitude": 87.15563, "facility_type_standardized": "hsc" }, "geometry": { "type": "Point", "coordinates": [ 87.15449, 21.66331 ] } },
{ "type": "Feature", "properties": { "Statename": "Odisha", "Districtname": "Baleshwar", "Subdistrictname": "Bhograi", "Blockname": "Bhograi", "Healthblockname": "Bhogarai", "Healthfacilitytype": "health sub centre", "Facilityname": "Sundrali", "NIN": 7617683730, "latitude": 21.66243, "longitude": 87.41871, "facility_type_standardized": "hsc" }, "geometry": { "type": "Point", "coordinates": [ 87.4246191, 21.6713602 ] } },
{ "type": "Feature", "properties": { "Statename": "Odisha", "Districtname": "Baleshwar", "Subdistrictname": "Singla", "Blockname": "Basta", "Healthblockname": "Basta", "Healthfacilitytype": "health sub centre", "Facilityname": "Nabara", "NIN": 4427258738, "latitude": 21.66321, "longitude": 87.2034, "facility_type_standardized": "hsc" }, "geometry": { "type": "Point", "coordinates": [ 87.1899891, 21.6745382 ] } },
{ "type": "Feature", "properties": { "Statename": "Odisha", "Districtname": "Baleshwar", "Subdistrictname": "Basta", "Blockname": "Basta", "Healthblockname": "Basta", "Healthfacilitytype": "health sub centre", "Facilityname": "Mathani", "NIN": 5566245113, "latitude": 21.66382, "longitude": 87.06863, "facility_type_standardized": "hsc" }, "geometry": { "type": "Point", "coordinates": [ 87.0636377, 21.6627093 ] } },
{ "type": "Feature", "properties": { "Statename": "Odisha", "Districtname": "Baleshwar", "Subdistrictname": "Baliapal", "Blockname": "Baliapal", "Healthblockname": "Baliapal", "Healthfacilitytype": "health sub centre", "Facilityname": "Srirampur", "NIN": 4733284352, "latitude": 21.66586, "longitude": 87.23507, "facility_type_standardized": "hsc" }, "geometry": { "type": "Point", "coordinates": [ 87.2501484, 21.6550699 ] } },
{ "type": "Feature", "properties": { "Statename": "Odisha", "Districtname": "Baleshwar", "Subdistrictname": "Baliapal", "Blockname": "Baliapal", "Healthblockname": "Baliapal", "Healthfacilitytype": "health sub centre", "Facilityname": "Nepura", "NIN": 2116721727, "latitude": 21.66608, "longitude": 87.22744, "facility_type_standardized": "hsc" }, "geometry": { "type": "Point", "coordinates": [ 87.2501484, 21.6550699 ] } },
{ "type": "Feature", "properties": { "Statename": "Odisha", "Districtname": "Baleshwar", "Subdistrictname": "Baliapal", "Blockname": "Baliapal", "Healthblockname": "Baliapal", "Healthfacilitytype": "health sub centre", "Facilityname": "Ghantua", "NIN": 2843785326, "latitude": 21.67186, "longitude": 87.25288, "facility_type_standardized": "hsc" }, "geometry": { "type": "Point", "coordinates": [ 87.2501484, 21.6550699 ] } },
{ "type": "Feature", "properties": { "Statename": "Odisha", "Districtname": "Baleshwar", "Subdistrictname": "Bhograi", "Blockname": "Bhograi", "Healthblockname": "Bhogarai", "Healthfacilitytype": "health sub centre", "Facilityname": "Sultanpur", "NIN": 4267656488, "latitude": 21.6719, "longitude": 87.39233, "facility_type_standardized": "hsc" }, "geometry": { "type": "Point", "coordinates": [ 87.3984987, 21.6774381 ] } },
{ "type": "Feature", "properties": { "Statename": "Odisha", "Districtname": "Baleshwar", "Subdistrictname": "Baliapal", "Blockname": "Baliapal", "Healthblockname": "Baliapal", "Healthfacilitytype": "health sub centre", "Facilityname": "Nikhira", "NIN": 1135222378, "latitude": 21.67508, "longitude": 87.23547, "facility_type_standardized": "hsc" }, "geometry": { "type": "Point", "coordinates": [ 87.2501484, 21.6550699 ] } },
{ "type": "Feature", "properties": { "Statename": "Odisha", "Districtname": "Baleshwar", "Subdistrictname": "Singla", "Blockname": "Basta", "Healthblockname": "Basta", "Healthfacilitytype": "health sub centre", "Facilityname": "Singla", "NIN": 3768238416, "latitude": 21.67645, "longitude": 87.1936, "facility_type_standardized": "hsc" }, "geometry": { "type": "Point", "coordinates": [ 87.1899891, 21.6745382 ] } },
{ "type": "Feature", "properties": { "Statename": "Odisha", "Districtname": "Baleshwar", "Subdistrictname": "Singla", "Blockname": "Basta", "Healthblockname": "Basta", "Healthfacilitytype": "health sub centre", "Facilityname": "Mukulisi", "NIN": 1855778583, "latitude": 21.67789, "longitude": 87.13084, "facility_type_standardized": "hsc" }, "geometry": { "type": "Point", "coordinates": [ 87.1309604, 21.6754319 ] } },
{ "type": "Feature", "properties": { "Statename": "Odisha", "Districtname": "Baleshwar", "Subdistrictname": "Bhograi", "Blockname": "Bhograi", "Healthblockname": "Bhogarai", "Healthfacilitytype": "health sub centre", "Facilityname": "Mandarsahi", "NIN": 6287258344, "latitude": 21.67817, "longitude": 87.45182, "facility_type_standardized": "hsc" }, "geometry": { "type": "Point", "coordinates": [ 87.4548531, 21.6762229 ] } },
{ "type": "Feature", "properties": { "Statename": "Odisha", "Districtname": "Baleshwar", "Subdistrictname": "Basta", "Blockname": "Basta", "Healthblockname": "Basta", "Healthfacilitytype": "health sub centre", "Facilityname": "Basta", "NIN": 4264358674, "latitude": 21.68072, "longitude": 87.07118, "facility_type_standardized": "hsc" }, "geometry": { "type": "Point", "coordinates": [ 87.073928, 21.6825646 ] } },
{ "type": "Feature", "properties": { "Statename": "Odisha", "Districtname": "Baleshwar", "Subdistrictname": "Bhograi", "Blockname": "Bhograi", "Healthblockname": "Bhogarai", "Healthfacilitytype": "health sub centre", "Facilityname": "Jaleswarpur", "NIN": 1722723119, "latitude": 21.68087, "longitude": 87.4064, "facility_type_standardized": "hsc" }, "geometry": { "type": "Point", "coordinates": [ 87.4066525, 21.6808878 ] } },
{ "type": "Feature", "properties": { "Statename": "Odisha", "Districtname": "Baleshwar", "Subdistrictname": "Baliapal", "Blockname": "Baliapal", "Healthblockname": "Baliapal", "Healthfacilitytype": "health sub centre", "Facilityname": "Asti", "NIN": 5666778427, "latitude": 21.68263, "longitude": 87.2959, "facility_type_standardized": "hsc" }, "geometry": { "type": "Point", "coordinates": [ 87.2958183, 21.6645177 ] } },
{ "type": "Feature", "properties": { "Statename": "Odisha", "Districtname": "Baleshwar", "Subdistrictname": "Bhograi", "Blockname": "Bhograi", "Healthblockname": "Bhogarai", "Healthfacilitytype": "health sub centre", "Facilityname": "Kalehi", "NIN": 6525165269, "latitude": 21.6853, "longitude": 87.45366, "facility_type_standardized": "hsc" }, "geometry": { "type": "Point", "coordinates": [ 87.4594506, 21.6813068 ] } },
{ "type": "Feature", "properties": { "Statename": "Odisha", "Districtname": "Baleshwar", "Subdistrictname": "Baliapal", "Blockname": "Baliapal", "Healthblockname": "Baliapal", "Healthfacilitytype": "health sub centre", "Facilityname": "Tapundia", "NIN": 8133384423, "latitude": 21.68537, "longitude": 87.22474, "facility_type_standardized": "hsc" }, "geometry": { "type": "Point", "coordinates": [ 87.1899891, 21.6745382 ] } },
{ "type": "Feature", "properties": { "Statename": "Odisha", "Districtname": "Baleshwar", "Subdistrictname": "Bhograi", "Blockname": "Bhograi", "Healthblockname": "Bhogarai", "Healthfacilitytype": "health sub centre", "Facilityname": "Allalbindha", "NIN": 7138586586, "latitude": 21.68595, "longitude": 87.36894, "facility_type_standardized": "hsc" }, "geometry": { "type": "Point", "coordinates": [ 87.3762472, 21.6919692 ] } },
{ "type": "Feature", "properties": { "Statename": "Odisha", "Districtname": "Baleshwar", "Subdistrictname": "Bhograi", "Blockname": "Bhograi", "Healthblockname": "Bhogarai", "Healthfacilitytype": "health sub centre", "Facilityname": "Dehurda", "NIN": 4318344571, "latitude": 21.68781, "longitude": 87.41939, "facility_type_standardized": "hsc" }, "geometry": { "type": "Point", "coordinates": [ 87.4195755, 21.6860722 ] } },
{ "type": "Feature", "properties": { "Statename": "Odisha", "Districtname": "Baleshwar", "Subdistrictname": "Kamarda", "Blockname": "Bhograi", "Healthblockname": "Bhogarai", "Healthfacilitytype": "health sub centre", "Facilityname": "Aruhabruti", "NIN": 8464722720, "latitude": 21.69055, "longitude": 87.31553, "facility_type_standardized": "hsc" }, "geometry": { "type": "Point", "coordinates": [ 87.3104906, 21.7112546 ] } },
{ "type": "Feature", "properties": { "Statename": "Odisha", "Districtname": "Baleshwar", "Subdistrictname": "Jaleswar", "Blockname": "Jaleswar", "Healthblockname": "Jaleswar", "Healthfacilitytype": "health sub centre", "Facilityname": "Patharpura", "NIN": 1676744855, "latitude": 21.69764, "longitude": 87.24749, "facility_type_standardized": "hsc" }, "geometry": { "type": "Point", "coordinates": [ 87.2679193, 21.7230295 ] } },
{ "type": "Feature", "properties": { "Statename": "Odisha", "Districtname": "Baleshwar", "Subdistrictname": "Bhograi", "Blockname": "Bhograi", "Healthblockname": "Bhogarai", "Healthfacilitytype": "health sub centre", "Facilityname": "Chauki", "NIN": 7661474762, "latitude": 21.6994, "longitude": 87.46172, "facility_type_standardized": "hsc" }, "geometry": { "type": "Point", "coordinates": [ 87.4579575, 21.7028204 ] } },
{ "type": "Feature", "properties": { "Statename": "Odisha", "Districtname": "Baleshwar", "Subdistrictname": "Bhograi", "Blockname": "Bhograi", "Healthblockname": "Bhogarai", "Healthfacilitytype": "health sub centre", "Facilityname": "Deula", "NIN": 1713552329, "latitude": 21.69954, "longitude": 87.44496, "facility_type_standardized": "hsc" }, "geometry": { "type": "Point", "coordinates": [ 87.4487549, 21.7022855 ] } },
{ "type": "Feature", "properties": { "Statename": "Odisha", "Districtname": "Baleshwar", "Subdistrictname": "Basta", "Blockname": "Basta", "Healthblockname": "Basta", "Healthfacilitytype": "health sub centre", "Facilityname": "Baharda", "NIN": 7167777817, "latitude": 21.70065, "longitude": 87.14797, "facility_type_standardized": "hsc" }, "geometry": { "type": "Point", "coordinates": [ 87.1501744, 21.6917409 ] } },
{ "type": "Feature", "properties": { "Statename": "Odisha", "Districtname": "Baleshwar", "Subdistrictname": "Jaleswar", "Blockname": "Jaleswar", "Healthblockname": "Jaleswar", "Healthfacilitytype": "health sub centre", "Facilityname": "Paschimbad", "NIN": 6768527282, "latitude": 21.70325, "longitude": 87.2732, "facility_type_standardized": "hsc" }, "geometry": { "type": "Point", "coordinates": [ 87.2679193, 21.7230295 ] } },
{ "type": "Feature", "properties": { "Statename": "Odisha", "Districtname": "Baleshwar", "Subdistrictname": "Singla", "Blockname": "Basta", "Healthblockname": "Basta", "Healthfacilitytype": "health sub centre", "Facilityname": "Sahada", "NIN": 8862443259, "latitude": 21.70474, "longitude": 87.10426, "facility_type_standardized": "hsc" }, "geometry": { "type": "Point", "coordinates": [ 87.1040939, 21.7125809 ] } },
{ "type": "Feature", "properties": { "Statename": "Odisha", "Districtname": "Baleshwar", "Subdistrictname": "Kamarda", "Blockname": "Bhograi", "Healthblockname": "Bhogarai", "Healthfacilitytype": "health sub centre", "Facilityname": "Dahamunda", "NIN": 3248733630, "latitude": 21.70762, "longitude": 87.31577, "facility_type_standardized": "hsc" }, "geometry": { "type": "Point", "coordinates": [ 87.3104906, 21.7112546 ] } },
{ "type": "Feature", "properties": { "Statename": "Odisha", "Districtname": "Baleshwar", "Subdistrictname": "Jaleswar", "Blockname": "Jaleswar", "Healthblockname": "Jaleswar", "Healthfacilitytype": "health sub centre", "Facilityname": "Baiganbadia", "NIN": 7485126788, "latitude": 21.70892, "longitude": 87.30089, "facility_type_standardized": "hsc" }, "geometry": { "type": "Point", "coordinates": [ 87.2981697, 21.7050763 ] } },
{ "type": "Feature", "properties": { "Statename": "Odisha", "Districtname": "Baleshwar", "Subdistrictname": "Singla", "Blockname": "Basta", "Healthblockname": "Basta", "Healthfacilitytype": "health sub centre", "Facilityname": "Paunskuli", "NIN": 2522822150, "latitude": 21.71174, "longitude": 87.16965, "facility_type_standardized": "hsc" }, "geometry": { "type": "Point", "coordinates": [ 87.1762615, 21.7160883 ] } },
{ "type": "Feature", "properties": { "Statename": "Odisha", "Districtname": "Baleshwar", "Subdistrictname": "Kamarda", "Blockname": "Bhograi", "Healthblockname": "Bhogarai", "Healthfacilitytype": "health sub centre", "Facilityname": "Kusuda", "NIN": 5874323289, "latitude": 21.71413, "longitude": 87.34319, "facility_type_standardized": "hsc" }, "geometry": { "type": "Point", "coordinates": [ 87.3104906, 21.7112546 ] } },
{ "type": "Feature", "properties": { "Statename": "Odisha", "Districtname": "Baleshwar", "Subdistrictname": "Jaleswar", "Blockname": "Jaleswar", "Healthblockname": "Jaleswar", "Healthfacilitytype": "health sub centre", "Facilityname": "Paikasida", "NIN": 2638865762, "latitude": 21.71844, "longitude": 87.23737, "facility_type_standardized": "hsc" }, "geometry": { "type": "Point", "coordinates": [ 87.2679193, 21.7230295 ] } },