{
"type": "FeatureCollection",
"name": "bargarh_hsc_snapped",
"crs": { "type": "name", "properties": { "name": "urn:ogc:def:crs:OGC:1.3:CRS84" } },
"features": [
{ "type": "Feature", "properties": { "Statename": "Odisha", "Districtname": "Bargarh", "Subdistrictname": "Paikamal", "Blockname": "Paikmal", "Healthblockname": "Paikamal", "Healthfacilitytype": "health sub centre", "Facilityname": "Chhindeikela", "NIN": 7871442633, "latitude": 20.79646, "longitude": 82.71651, "facility_type_standardized": "hsc" }, "geometry": { "type": "Point", "coordinates": [ 82.7153939, 20.7921965 ] } },
{ "type": "Feature", "properties": { "Statename": "Odisha", "Districtname": "Bargarh", "Subdistrictname": "Paikamal", "Blockname": "Paikmal", "Healthblockname": "Paikamal", "Healthfacilitytype": "health sub centre", "Facilityname": "Jamseth", "NIN": 3667726479, "latitude": 20.82134, "longitude": 82.72769, "facility_type_standardized": "hsc" }, "geometry": { "type": "Point", "coordinates": [ 82.7267361, 20.8221414 ] } },
{ "type": "Feature", "properties": { "Statename": "Odisha", "Districtname": "Bargarh", "Subdistrictname": "Paikamal", "Blockname": "Paikmal", "Healthblockname": "Paikamal", "Healthfacilitytype": "health sub centre", "Facilityname": "Mandosil", "NIN": 1233655255, "latitude": 20.83993, "longitude": 82.69997, "facility_type_standardized": "hsc" }, "geometry": { "type": "Point", "coordinates": [ 82.7065707, 20.8365521 ] } },
{ "type": "Feature", "properties": { "Statename": "Odisha", "Districtname": "Bargarh", "Subdistrictname": "Paikamal", "Blockname": "Paikmal", "Healthblockname": "Paikamal", "Healthfacilitytype": "health sub centre", "Facilityname": "Bartunda", "NIN": 2136128150, "latitude": 20.84228, "longitude": 82.74894, "facility_type_standardized": "hsc" }, "geometry": { "type": "Point", "coordinates": [ 82.7496148, 20.844403 ] } },
{ "type": "Feature", "properties": { "Statename": "Odisha", "Districtname": "Bargarh", "Subdistrictname": "Gaisilet", "Blockname": "Gaisilet", "Healthblockname": "Gaisilet", "Healthfacilitytype": "health sub centre", "Facilityname": "Gourenmunda", "NIN": 5786425685, "latitude": 20.87953, "longitude": 83.3201, "facility_type_standardized": "hsc" }, "geometry": { "type": "Point", "coordinates": [ 83.3201918, 20.8864037 ] } },
{ "type": "Feature", "properties": { "Statename": "Odisha", "Districtname": "Bargarh", "Subdistrictname": "Padmapur", "Blockname": "Padampur", "Healthblockname": "Padmapur (Rajbarsambar)", "Healthfacilitytype": "health sub centre", "Facilityname": "BUDEN", "NIN": 1758111650, "latitude": 20.88399, "longitude": 83.03531, "facility_type_standardized": "hsc" }, "geometry": { "type": "Point", "coordinates": [ 83.0302799, 20.8792427 ] } },
{ "type": "Feature", "properties": { "Statename": "Odisha", "Districtname": "Bargarh", "Subdistrictname": "Gaisilet", "Blockname": "Gaisilet", "Healthblockname": "Gaisilet", "Healthfacilitytype": "health sub centre", "Facilityname": "Jagalpat", "NIN": 2786453379, "latitude": 20.88968, "longitude": 83.35182, "facility_type_standardized": "hsc" }, "geometry": { "type": "Point", "coordinates": [ 83.3497229, 20.8957669 ] } },
{ "type": "Feature", "properties": { "Statename": "Odisha", "Districtname": "Bargarh", "Subdistrictname": "Paikamal", "Blockname": "Paikmal", "Healthblockname": "Paikamal", "Healthfacilitytype": "health sub centre", "Facilityname": "Mithapali", "NIN": 4785717184, "latitude": 20.9014, "longitude": 82.78648, "facility_type_standardized": "hsc" }, "geometry": { "type": "Point", "coordinates": [ 82.7878539, 20.8979977 ] } },
{ "type": "Feature", "properties": { "Statename": "Odisha", "Districtname": "Bargarh", "Subdistrictname": "Gaisilet", "Blockname": "Gaisilet", "Healthblockname": "Gaisilet", "Healthfacilitytype": "health sub centre", "Facilityname": "Kathuamal", "NIN": 7288627412, "latitude": 20.91135, "longitude": 83.32365, "facility_type_standardized": "hsc" }, "geometry": { "type": "Point", "coordinates": [ 83.3250294, 20.9173766 ] } },
{ "type": "Feature", "properties": { "Statename": "Odisha", "Districtname": "Bargarh", "Subdistrictname": "Gaisilet", "Blockname": "Gaisilet", "Healthblockname": "Gaisilet", "Healthfacilitytype": "health sub centre", "Facilityname": "Firingimal", "NIN": 2151113483, "latitude": 20.91207, "longitude": 83.29302, "facility_type_standardized": "hsc" }, "geometry": { "type": "Point", "coordinates": [ 83.2875533, 20.9113096 ] } },
{ "type": "Feature", "properties": { "Statename": "Odisha", "Districtname": "Bargarh", "Subdistrictname": "Padmapur", "Blockname": "Padampur", "Healthblockname": "Padmapur (Rajbarsambar)", "Healthfacilitytype": "health sub centre", "Facilityname": "DAHITA", "NIN": 6654482287, "latitude": 20.91263, "longitude": 83.06332, "facility_type_standardized": "hsc" }, "geometry": { "type": "Point", "coordinates": [ 83.0622147, 20.910376 ] } },
{ "type": "Feature", "properties": { "Statename": "Odisha", "Districtname": "Bargarh", "Subdistrictname": "Paikamal", "Blockname": "Paikmal", "Healthblockname": "Paikamal", "Healthfacilitytype": "health sub centre", "Facilityname": "Jhitiki", "NIN": 4853474130, "latitude": 20.91628, "longitude": 82.73898, "facility_type_standardized": "hsc" }, "geometry": { "type": "Point", "coordinates": [ 82.7343772, 20.9103863 ] } },
{ "type": "Feature", "properties": { "Statename": "Odisha", "Districtname": "Bargarh", "Subdistrictname": "Gaisilet", "Blockname": "Gaisilet", "Healthblockname": "Gaisilet", "Healthfacilitytype": "health sub centre", "Facilityname": "Sandhibahal", "NIN": 3673587428, "latitude": 20.91708, "longitude": 83.3874, "facility_type_standardized": "hsc" }, "geometry": { "type": "Point", "coordinates": [ 83.3839211, 20.9146369 ] } },
{ "type": "Feature", "properties": { "Statename": "Odisha", "Districtname": "Bargarh", "Subdistrictname": "Paikamal", "Blockname": "Paikmal", "Healthblockname": "Paikamal", "Healthfacilitytype": "health sub centre", "Facilityname": "Paikmal", "NIN": 6662153516, "latitude": 20.92817, "longitude": 82.81042, "facility_type_standardized": "hsc" }, "geometry": { "type": "Point", "coordinates": [ 82.8130478, 20.9253697 ] } },
{ "type": "Feature", "properties": { "Statename": "Odisha", "Districtname": "Bargarh", "Subdistrictname": "Padmapur", "Blockname": "Padampur", "Healthblockname": "Padmapur (Rajbarsambar)", "Healthfacilitytype": "health sub centre", "Facilityname": "DAHIGAON", "NIN": 1786822864, "latitude": 20.92973, "longitude": 83.08582, "facility_type_standardized": "hsc" }, "geometry": { "type": "Point", "coordinates": [ 83.0832567, 20.9318847 ] } },
{ "type": "Feature", "properties": { "Statename": "Odisha", "Districtname": "Bargarh", "Subdistrictname": "Gaisilet", "Blockname": "Gaisilet", "Healthblockname": "Gaisilet", "Healthfacilitytype": "health sub centre", "Facilityname": "Sansahajbahal", "NIN": 8737722812, "latitude": 20.94272, "longitude": 83.29155, "facility_type_standardized": "hsc" }, "geometry": { "type": "Point", "coordinates": [ 83.2914492, 20.9402834 ] } },
{ "type": "Feature", "properties": { "Statename": "Odisha", "Districtname": "Bargarh", "Subdistrictname": "Padmapur", "Blockname": "Padampur", "Healthblockname": "Padmapur (Rajbarsambar)", "Healthfacilitytype": "health sub centre", "Facilityname": "BUDAMAL", "NIN": 4373737651, "latitude": 20.94744, "longitude": 83.0669, "facility_type_standardized": "hsc" }, "geometry": { "type": "Point", "coordinates": [ 83.0605003, 20.9477257 ] } },
{ "type": "Feature", "properties": { "Statename": "Odisha", "Districtname": "Bargarh", "Subdistrictname": "Paikamal", "Blockname": "Paikmal", "Healthblockname": "Paikamal", "Healthfacilitytype": "health sub centre", "Facilityname": "Chhetgaon", "NIN": 2357723887, "latitude": 20.94831, "longitude": 82.75039, "facility_type_standardized": "hsc" }, "geometry": { "type": "Point", "coordinates": [ 82.75802, 20.9452862 ] } },
{ "type": "Feature", "properties": { "Statename": "Odisha", "Districtname": "Bargarh", "Subdistrictname": "Padmapur", "Blockname": "Padampur", "Healthblockname": "Padmapur (Rajbarsambar)", "Healthfacilitytype": "health sub centre", "Facilityname": "KHALIAPALI", "NIN": 2418684185, "latitude": 20.95495, "longitude": 83.04602, "facility_type_standardized": "hsc" }, "geometry": { "type": "Point", "coordinates": [ 83.0441337, 20.9567206 ] } },
{ "type": "Feature", "properties": { "Statename": "Odisha", "Districtname": "Bargarh", "Subdistrictname": "Gaisilet", "Blockname": "Gaisilet", "Healthblockname": "Gaisilet", "Healthfacilitytype": "health sub centre", "Facilityname": "Gaisilat", "NIN": 1382742482, "latitude": 20.96128, "longitude": 83.31972, "facility_type_standardized": "hsc" }, "geometry": { "type": "Point", "coordinates": [ 83.3197305, 20.9605204 ] } },
{ "type": "Feature", "properties": { "Statename": "Odisha", "Districtname": "Bargarh", "Subdistrictname": "Gaisilet", "Blockname": "Gaisilet", "Healthblockname": "Gaisilet", "Healthfacilitytype": "health sub centre", "Facilityname": "Sardhapali", "NIN": 7346352870, "latitude": 20.96221, "longitude": 83.35702, "facility_type_standardized": "hsc" }, "geometry": { "type": "Point", "coordinates": [ 83.3544353, 20.9603642 ] } },
{ "type": "Feature", "properties": { "Statename": "Odisha", "Districtname": "Bargarh", "Subdistrictname": "Paikamal", "Blockname": "Paikmal", "Healthblockname": "Paikamal", "Healthfacilitytype": "health sub centre", "Facilityname": "Mandiadhipa", "NIN": 4435342748, "latitude": 20.96684, "longitude": 82.79904, "facility_type_standardized": "hsc" }, "geometry": { "type": "Point", "coordinates": [ 82.7991861, 20.9725401 ] } },
{ "type": "Feature", "properties": { "Statename": "Odisha", "Districtname": "Bargarh", "Subdistrictname": "Paikamal", "Blockname": "Paikmal", "Healthblockname": "Paikamal", "Healthfacilitytype": "health sub centre", "Facilityname": "Bhengrajpur", "NIN": 6282866646, "latitude": 20.96727, "longitude": 82.89233, "facility_type_standardized": "hsc" }, "geometry": { "type": "Point", "coordinates": [ 82.8944263, 20.9792749 ] } },
{ "type": "Feature", "properties": { "Statename": "Odisha", "Districtname": "Bargarh", "Subdistrictname": "Gaisilet", "Blockname": "Gaisilet", "Healthblockname": "Gaisilet", "Healthfacilitytype": "health sub centre", "Facilityname": "Talpali", "NIN": 3232447445, "latitude": 20.97354, "longitude": 83.21727, "facility_type_standardized": "hsc" }, "geometry": { "type": "Point", "coordinates": [ 83.2149435, 20.9709353 ] } },
{ "type": "Feature", "properties": { "Statename": "Odisha", "Districtname": "Bargarh", "Subdistrictname": "Padmapur", "Blockname": "Padampur", "Healthblockname": "Padmapur (Rajbarsambar)", "Healthfacilitytype": "health sub centre", "Facilityname": "GODBHATI", "NIN": 8786332356, "latitude": 20.97879, "longitude": 83.09857, "facility_type_standardized": "hsc" }, "geometry": { "type": "Point", "coordinates": [ 83.1170198, 20.9617001 ] } },
{ "type": "Feature", "properties": { "Statename": "Odisha", "Districtname": "Bargarh", "Subdistrictname": "Padmapur", "Blockname": "Padampur", "Healthblockname": "Padmapur (Rajbarsambar)", "Healthfacilitytype": "health sub centre", "Facilityname": "BARIKEL", "NIN": 2781847534, "latitude": 20.9816, "longitude": 83.01688, "facility_type_standardized": "hsc" }, "geometry": { "type": "Point", "coordinates": [ 83.0169653, 20.9813889 ] } },
{ "type": "Feature", "properties": { "Statename": "Odisha", "Districtname": "Bargarh", "Subdistrictname": "Padmapur", "Blockname": "Gaisilet", "Healthblockname": "Gaisilet", "Healthfacilitytype": "health sub centre", "Facilityname": "Ainlabahal", "NIN": 8462325872, "latitude": 20.98754, "longitude": 83.17882, "facility_type_standardized": "hsc" }, "geometry": { "type": "Point", "coordinates": [ 83.1833696, 20.9911925 ] } },
{ "type": "Feature", "properties": { "Statename": "Odisha", "Districtname": "Bargarh", "Subdistrictname": "Paikamal", "Blockname": "Paikmal", "Healthblockname": "Paikamal", "Healthfacilitytype": "health sub centre", "Facilityname": "Palsada", "NIN": 2137448821, "latitude": 20.99089, "longitude": 82.95396, "facility_type_standardized": "hsc" }, "geometry": { "type": "Point", "coordinates": [ 82.9661641, 20.973041 ] } },
{ "type": "Feature", "properties": { "Statename": "Odisha", "Districtname": "Bargarh", "Subdistrictname": "Padmapur", "Blockname": "Padampur", "Healthblockname": "Padmapur (Rajbarsambar)", "Healthfacilitytype": "health sub centre", "Facilityname": "DANGAGHAT", "NIN": 7641748566, "latitude": 20.99457, "longitude": 83.13429, "facility_type_standardized": "hsc" }, "geometry": { "type": "Point", "coordinates": [ 83.1264344, 20.9737999 ] } },
{ "type": "Feature", "properties": { "Statename": "Odisha", "Districtname": "Bargarh", "Subdistrictname": "Jharbandha", "Blockname": "Jharbandh", "Healthblockname": "Jharabandha", "Healthfacilitytype": "health sub centre", "Facilityname": "Amthi", "NIN": 2678384559, "latitude": 20.99575, "longitude": 82.81175, "facility_type_standardized": "hsc" }, "geometry": { "type": "Point", "coordinates": [ 82.8049347, 20.9990482 ] } },
{ "type": "Feature", "properties": { "Statename": "Odisha", "Districtname": "Bargarh", "Subdistrictname": "Padmapur", "Blockname": "Padampur", "Healthblockname": "Padmapur (Rajbarsambar)", "Healthfacilitytype": "health sub centre", "Facilityname": "GHANAMAL", "NIN": 7826744133, "latitude": 20.99952, "longitude": 83.21217, "facility_type_standardized": "hsc" }, "geometry": { "type": "Point", "coordinates": [ 83.2125745, 21.0077295 ] } },
{ "type": "Feature", "properties": { "Statename": "Odisha", "Districtname": "Bargarh", "Subdistrictname": "Jharbandha", "Blockname": "Jharbandh", "Healthblockname": "Jharabandha", "Healthfacilitytype": "health sub centre", "Facilityname": "Saldihi", "NIN": 8836174147, "latitude": 21.00073, "longitude": 82.75185, "facility_type_standardized": "hsc" }, "geometry": { "type": "Point", "coordinates": [ 82.7512953, 21.0051053 ] } },
{ "type": "Feature", "properties": { "Statename": "Odisha", "Districtname": "Bargarh", "Subdistrictname": "Gaisilet", "Blockname": "Gaisilet", "Healthblockname": "Gaisilet", "Healthfacilitytype": "health sub centre", "Facilityname": "Ganiapali", "NIN": 2151243264, "latitude": 21.0057, "longitude": 83.24657, "facility_type_standardized": "hsc" }, "geometry": { "type": "Point", "coordinates": [ 83.2443679, 21.00842 ] } },
{ "type": "Feature", "properties": { "Statename": "Odisha", "Districtname": "Bargarh", "Subdistrictname": "Paikamal", "Blockname": "Paikmal", "Healthblockname": "Paikamal", "Healthfacilitytype": "health sub centre", "Facilityname": "Temri", "NIN": 2776886554, "latitude": 21.01242, "longitude": 82.89062, "facility_type_standardized": "hsc" }, "geometry": { "type": "Point", "coordinates": [ 82.8909042, 21.0080148 ] } },
{ "type": "Feature", "properties": { "Statename": "Odisha", "Districtname": "Bargarh", "Subdistrictname": "Padmapur", "Blockname": "Padampur", "Healthblockname": "Padmapur (Rajbarsambar)", "Healthfacilitytype": "health sub centre", "Facilityname": "JAMLA", "NIN": 5528268484, "latitude": 21.01677, "longitude": 83.1778, "facility_type_standardized": "hsc" }, "geometry": { "type": "Point", "coordinates": [ 83.1781194, 21.0135564 ] } },
{ "type": "Feature", "properties": { "Statename": "Odisha", "Districtname": "Bargarh", "Subdistrictname": "Jharbandha", "Blockname": "Jharbandh", "Healthblockname": "Jharabandha", "Healthfacilitytype": "health sub centre", "Facilityname": "Bilaspur", "NIN": 2663786461, "latitude": 21.02242, "longitude": 82.71071, "facility_type_standardized": "hsc" }, "geometry": { "type": "Point", "coordinates": [ 82.710126, 21.0247802 ] } },
{ "type": "Feature", "properties": { "Statename": "Odisha", "Districtname": "Bargarh", "Subdistrictname": "Padmapur", "Blockname": "Padampur", "Healthblockname": "Padmapur (Rajbarsambar)", "Healthfacilitytype": "health sub centre", "Facilityname": "Luharpali", "NIN": 1145461131, "latitude": 21.02414, "longitude": 82.98928, "facility_type_standardized": "hsc" }, "geometry": { "type": "Point", "coordinates": [ 82.9876354, 21.024332 ] } },
{ "type": "Feature", "properties": { "Statename": "Odisha", "Districtname": "Bargarh", "Subdistrictname": "Padmapur", "Blockname": "Padampur", "Healthblockname": "Padmapur (Rajbarsambar)", "Healthfacilitytype": "health sub centre", "Facilityname": "DEOLI", "NIN": 2612156576, "latitude": 21.02524, "longitude": 83.06402, "facility_type_standardized": "hsc" }, "geometry": { "type": "Point", "coordinates": [ 83.0628428, 21.0242321 ] } },
{ "type": "Feature", "properties": { "Statename": "Odisha", "Districtname": "Bargarh", "Subdistrictname": "Gaisilet", "Blockname": "Gaisilet", "Healthblockname": "Gaisilet", "Healthfacilitytype": "health sub centre", "Facilityname": "Malmunda", "NIN": 6227474738, "latitude": 21.02799, "longitude": 83.26839, "facility_type_standardized": "hsc" }, "geometry": { "type": "Point", "coordinates": [ 83.2650483, 21.026047 ] } },
{ "type": "Feature", "properties": { "Statename": "Odisha", "Districtname": "Bargarh", "Subdistrictname": "Paikamal", "Blockname": "Paikmal", "Healthblockname": "Paikamal", "Healthfacilitytype": "health sub centre", "Facilityname": "Bukuramunda MC", "NIN": 2823473430, "latitude": 21.03406, "longitude": 82.92654, "facility_type_standardized": "hsc" }, "geometry": { "type": "Point", "coordinates": [ 82.9334843, 21.0262523 ] } },
{ "type": "Feature", "properties": { "Statename": "Odisha", "Districtname": "Bargarh", "Subdistrictname": "Padmapur", "Blockname": "Padampur", "Healthblockname": "Padmapur (Rajbarsambar)", "Healthfacilitytype": "health sub centre", "Facilityname": "PURENA", "NIN": 7674776559, "latitude": 21.03732, "longitude": 83.03002, "facility_type_standardized": "hsc" }, "geometry": { "type": "Point", "coordinates": [ 83.0448335, 21.0450733 ] } },
{ "type": "Feature", "properties": { "Statename": "Odisha", "Districtname": "Bargarh", "Subdistrictname": "Padmapur", "Blockname": "Padampur", "Healthblockname": "Padmapur (Rajbarsambar)", "Healthfacilitytype": "health sub centre", "Facilityname": "KANSINGHA", "NIN": 2678583184, "latitude": 21.04996, "longitude": 83.12118, "facility_type_standardized": "hsc" }, "geometry": { "type": "Point", "coordinates": [ 83.1206669, 21.0525637 ] } },
{ "type": "Feature", "properties": { "Statename": "Odisha", "Districtname": "Bargarh", "Subdistrictname": "Jharbandha", "Blockname": "Jharbandh", "Healthblockname": "Jharabandha", "Healthfacilitytype": "health sub centre", "Facilityname": "Jharbandh", "NIN": 3545782686, "latitude": 21.0585, "longitude": 82.80096, "facility_type_standardized": "hsc" }, "geometry": { "type": "Point", "coordinates": [ 82.8198709, 21.0621894 ] } },
{ "type": "Feature", "properties": { "Statename": "Odisha", "Districtname": "Bargarh", "Subdistrictname": "Padmapur", "Blockname": "Padampur", "Healthblockname": "Padmapur (Rajbarsambar)", "Healthfacilitytype": "health sub centre", "Facilityname": "SARGIBAHAL", "NIN": 7876134631, "latitude": 21.06121, "longitude": 83.18747, "facility_type_standardized": "hsc" }, "geometry": { "type": "Point", "coordinates": [ 83.1801391, 21.0584457 ] } },
{ "type": "Feature", "properties": { "Statename": "Odisha", "Districtname": "Bargarh", "Subdistrictname": "Bijepur", "Blockname": "Bijepur", "Healthblockname": "Bijepur", "Healthfacilitytype": "health sub centre", "Facilityname": "Ganthiapali", "NIN": 6718716845, "latitude": 21.06286, "longitude": 83.48228, "facility_type_standardized": "hsc" }, "geometry": { "type": "Point", "coordinates": [ 83.4903418, 21.0860968 ] } },
{ "type": "Feature", "properties": { "Statename": "Odisha", "Districtname": "Bargarh", "Subdistrictname": "Jharbandha", "Blockname": "Jharbandh", "Healthblockname": "Jharabandha", "Healthfacilitytype": "health sub centre", "Facilityname": "Bijadol", "NIN": 4843745227, "latitude": 21.06885, "longitude": 82.76224, "facility_type_standardized": "hsc" }, "geometry": { "type": "Point", "coordinates": [ 82.7747995, 21.0743891 ] } },
{ "type": "Feature", "properties": { "Statename": "Odisha", "Districtname": "Bargarh", "Subdistrictname": "Barapali", "Blockname": "Barpali", "Healthblockname": "Barpali", "Healthfacilitytype": "health sub centre", "Facilityname": "Julpiapali", "NIN": 1387674813, "latitude": 21.07078, "longitude": 83.50748, "facility_type_standardized": "hsc" }, "geometry": { "type": "Point", "coordinates": [ 83.4903418, 21.0860968 ] } },
{ "type": "Feature", "properties": { "Statename": "Odisha", "Districtname": "Bargarh", "Subdistrictname": "Melchhamunda", "Blockname": "Gaisilet", "Healthblockname": "Gaisilet", "Healthfacilitytype": "health sub centre", "Facilityname": "Kundakhai", "NIN": 8584261385, "latitude": 21.0712, "longitude": 83.30297, "facility_type_standardized": "hsc" }, "geometry": { "type": "Point", "coordinates": [ 83.2985115, 21.0698189 ] } },
{ "type": "Feature", "properties": { "Statename": "Odisha", "Districtname": "Bargarh", "Subdistrictname": "Paikamal", "Blockname": "Paikmal", "Healthblockname": "Paikamal", "Healthfacilitytype": "health sub centre", "Facilityname": "Badikata", "NIN": 1463885432, "latitude": 21.07212, "longitude": 82.95321, "facility_type_standardized": "hsc" }, "geometry": { "type": "Point", "coordinates": [ 82.9482592, 21.066724 ] } },
{ "type": "Feature", "properties": { "Statename": "Odisha", "Districtname": "Bargarh", "Subdistrictname": "Jharbandha", "Blockname": "Jharbandh", "Healthblockname": "Jharabandha", "Healthfacilitytype": "health sub centre", "Facilityname": "Kumir", "NIN": 2318658842, "latitude": 21.07424, "longitude": 82.8506, "facility_type_standardized": "hsc" }, "geometry": { "type": "Point", "coordinates": [ 82.8472285, 21.0774262 ] } },
{ "type": "Feature", "properties": { "Statename": "Odisha", "Districtname": "Bargarh", "Subdistrictname": "Bijepur", "Blockname": "Bijepur", "Healthblockname": "Bijepur", "Healthfacilitytype": "health sub centre", "Facilityname": "Saipali", "NIN": 6473722830, "latitude": 21.08184, "longitude": 83.45238, "facility_type_standardized": "hsc" }, "geometry": { "type": "Point", "coordinates": [ 83.4489079, 21.0835884 ] } },
{ "type": "Feature", "properties": { "Statename": "Odisha", "Districtname": "Bargarh", "Subdistrictname": "Paikamal", "Blockname": "Paikmal", "Healthblockname": "Paikamal", "Healthfacilitytype": "health sub centre", "Facilityname": "Lakhmara", "NIN": 6548263745, "latitude": 21.08253, "longitude": 83.02609, "facility_type_standardized": "hsc" }, "geometry": { "type": "Point", "coordinates": [ 83.0255358, 21.0847997 ] } },
{ "type": "Feature", "properties": { "Statename": "Odisha", "Districtname": "Bargarh", "Subdistrictname": "Padmapur", "Blockname": "Padampur", "Healthblockname": "Padmapur (Rajbarsambar)", "Healthfacilitytype": "health sub centre", "Facilityname": "ICHHAPALI", "NIN": 3885712442, "latitude": 21.0826, "longitude": 83.18143, "facility_type_standardized": "hsc" }, "geometry": { "type": "Point", "coordinates": [ 83.1920359, 21.0741138 ] } },
{ "type": "Feature", "properties": { "Statename": "Odisha", "Districtname": "Bargarh", "Subdistrictname": "Bijepur", "Blockname": "Bijepur", "Healthblockname": "Bijepur", "Healthfacilitytype": "health sub centre", "Facilityname": "Laumunda", "NIN": 5274586741, "latitude": 21.08479, "longitude": 83.39142, "facility_type_standardized": "hsc" }, "geometry": { "type": "Point", "coordinates": [ 83.3903101, 21.0839057 ] } },
{ "type": "Feature", "properties": { "Statename": "Odisha", "Districtname": "Bargarh", "Subdistrictname": "Padmapur", "Blockname": "Padampur", "Healthblockname": "Padmapur (Rajbarsambar)", "Healthfacilitytype": "health sub centre", "Facilityname": "MELCHAMUNDA", "NIN": 2752422119, "latitude": 21.0863, "longitude": 83.24995, "facility_type_standardized": "hsc" }, "geometry": { "type": "Point", "coordinates": [ 83.2445025, 21.0876509 ] } },
{ "type": "Feature", "properties": { "Statename": "Odisha", "Districtname": "Bargarh", "Subdistrictname": "Bheden", "Blockname": "Bheden", "Healthblockname": "Bheden", "Healthfacilitytype": "health sub centre", "Facilityname": "Saharatikra", "NIN": 1462325158, "latitude": 21.09885, "longitude": 83.84584, "facility_type_standardized": "hsc" }, "geometry": { "type": "Point", "coordinates": [ 83.8463876, 21.0995827 ] } },
{ "type": "Feature", "properties": { "Statename": "Odisha", "Districtname": "Bargarh", "Subdistrictname": "Barapali", "Blockname": "Barpali", "Healthblockname": "Barpali", "Healthfacilitytype": "health sub centre", "Facilityname": "Agalpur", "NIN": 4826576466, "latitude": 21.10048, "longitude": 83.53498, "facility_type_standardized": "hsc" }, "geometry": { "type": "Point", "coordinates": [ 83.5274461, 21.106937 ] } },
{ "type": "Feature", "properties": { "Statename": "Odisha", "Districtname": "Bargarh", "Subdistrictname": "Barapali", "Blockname": "Barpali", "Healthblockname": "Barpali", "Healthfacilitytype": "health sub centre", "Facilityname": "Bandhumunda", "NIN": 1715363121, "latitude": 21.1041, "longitude": 83.50697, "facility_type_standardized": "hsc" }, "geometry": { "type": "Point", "coordinates": [ 83.5274461, 21.106937 ] } },
{ "type": "Feature", "properties": { "Statename": "Odisha", "Districtname": "Bargarh", "Subdistrictname": "Jharbandha", "Blockname": "Jharbandh", "Healthblockname": "Jharabandha", "Healthfacilitytype": "health sub centre", "Facilityname": "Dava", "NIN": 7812766777, "latitude": 21.10464, "longitude": 82.70168, "facility_type_standardized": "hsc" }, "geometry": { "type": "Point", "coordinates": [ 82.7012828, 21.1040669 ] } },
{ "type": "Feature", "properties": { "Statename": "Odisha", "Districtname": "Bargarh", "Subdistrictname": "Paikamal", "Blockname": "Paikmal", "Healthblockname": "Paikamal", "Healthfacilitytype": "health sub centre", "Facilityname": "Chardapali", "NIN": 1253211682, "latitude": 21.10488, "longitude": 83.02517, "facility_type_standardized": "hsc" }, "geometry": { "type": "Point", "coordinates": [ 83.023864, 21.0921129 ] } },
{ "type": "Feature", "properties": { "Statename": "Odisha", "Districtname": "Bargarh", "Subdistrictname": "Bheden", "Blockname": "Bheden", "Healthblockname": "Bheden", "Healthfacilitytype": "health sub centre", "Facilityname": "Gondturum", "NIN": 8772371467, "latitude": 21.10601, "longitude": 83.84085, "facility_type_standardized": "hsc" }, "geometry": { "type": "Point", "coordinates": [ 83.8400128, 21.1062801 ] } },
{ "type": "Feature", "properties": { "Statename": "Odisha", "Districtname": "Bargarh", "Subdistrictname": "Melchhamunda", "Blockname": "Gaisilet", "Healthblockname": "Gaisilet", "Healthfacilitytype": "health sub centre", "Facilityname": "Kamalpadar", "NIN": 7556437445, "latitude": 21.11964, "longitude": 83.32356, "facility_type_standardized": "hsc" }, "geometry": { "type": "Point", "coordinates": [ 83.3469334, 21.1260906 ] } },
{ "type": "Feature", "properties": { "Statename": "Odisha", "Districtname": "Bargarh", "Subdistrictname": "Barapali", "Blockname": "Barpali", "Healthblockname": "Barpali", "Healthfacilitytype": "health sub centre", "Facilityname": "Bhatigaon", "NIN": 1856867765, "latitude": 21.12455, "longitude": 83.58711, "facility_type_standardized": "hsc" }, "geometry": { "type": "Point", "coordinates": [ 83.5861261, 21.1186009 ] } },
{ "type": "Feature", "properties": { "Statename": "Odisha", "Districtname": "Bargarh", "Subdistrictname": "Melchhamunda", "Blockname": "Sohella", "Healthblockname": "Sohela", "Healthfacilitytype": "health sub centre", "Facilityname": "Salepali", "NIN": 3531523169, "latitude": 21.12585, "longitude": 83.25521, "facility_type_standardized": "hsc" }, "geometry": { "type": "Point", "coordinates": [ 83.2532004, 21.1252589 ] } },
{ "type": "Feature", "properties": { "Statename": "Odisha", "Districtname": "Bargarh", "Subdistrictname": "Jharbandha", "Blockname": "Jharbandh", "Healthblockname": "Jharabandha", "Healthfacilitytype": "health sub centre", "Facilityname": "Bhandarpuri", "NIN": 4634885224, "latitude": 21.12664, "longitude": 82.72169, "facility_type_standardized": "hsc" }, "geometry": { "type": "Point", "coordinates": [ 82.722318, 21.1274229 ] } },
{ "type": "Feature", "properties": { "Statename": "Odisha", "Districtname": "Bargarh", "Subdistrictname": "Jharbandha", "Blockname": "Jharbandh", "Healthblockname": "Jharabandha", "Healthfacilitytype": "health sub centre", "Facilityname": "Jagdalpur", "NIN": 1844773265, "latitude": 21.12881, "longitude": 82.94216, "facility_type_standardized": "hsc" }, "geometry": { "type": "Point", "coordinates": [ 82.9396118, 21.1235122 ] } },
{ "type": "Feature", "properties": { "Statename": "Odisha", "Districtname": "Bargarh", "Subdistrictname": "Bheden", "Blockname": "Bheden", "Healthblockname": "Bheden", "Healthfacilitytype": "health sub centre", "Facilityname": "Sialkhandahata", "NIN": 1347876185, "latitude": 21.13007, "longitude": 83.80708, "facility_type_standardized": "hsc" }, "geometry": { "type": "Point", "coordinates": [ 83.8056297, 21.1293869 ] } },
{ "type": "Feature", "properties": { "Statename": "Odisha", "Districtname": "Bargarh", "Subdistrictname": "Melchhamunda", "Blockname": "Sohella", "Healthblockname": "Sohela", "Healthfacilitytype": "health sub centre", "Facilityname": "Birjam", "NIN": 3215351333, "latitude": 21.13013, "longitude": 83.3011, "facility_type_standardized": "hsc" }, "geometry": { "type": "Point", "coordinates": [ 83.2985642, 21.1347799 ] } },
{ "type": "Feature", "properties": { "Statename": "Odisha", "Districtname": "Bargarh", "Subdistrictname": "Bijepur", "Blockname": "Bijepur", "Healthblockname": "Bijepur", "Healthfacilitytype": "health sub centre", "Facilityname": "Kharmunda", "NIN": 3575888312, "latitude": 21.13301, "longitude": 83.49304, "facility_type_standardized": "hsc" }, "geometry": { "type": "Point", "coordinates": [ 83.4901258, 21.134044 ] } },
{ "type": "Feature", "properties": { "Statename": "Odisha", "Districtname": "Bargarh", "Subdistrictname": "Bijepur", "Blockname": "Bijepur", "Healthblockname": "Bijepur", "Healthfacilitytype": "health sub centre", "Facilityname": "Arda", "NIN": 8435367241, "latitude": 21.13338, "longitude": 83.42865, "facility_type_standardized": "hsc" }, "geometry": { "type": "Point", "coordinates": [ 83.430908, 21.1398481 ] } },
{ "type": "Feature", "properties": { "Statename": "Odisha", "Districtname": "Bargarh", "Subdistrictname": "Bijepur", "Blockname": "Bijepur", "Healthblockname": "Bijepur", "Healthfacilitytype": "health sub centre", "Facilityname": "Badipali", "NIN": 8842673165, "latitude": 21.13402, "longitude": 83.35789, "facility_type_standardized": "hsc" }, "geometry": { "type": "Point", "coordinates": [ 83.3469334, 21.1260906 ] } },
{ "type": "Feature", "properties": { "Statename": "Odisha", "Districtname": "Bargarh", "Subdistrictname": "Jharbandha", "Blockname": "Jharbandh", "Healthblockname": "Jharabandha", "Healthfacilitytype": "health sub centre", "Facilityname": "Bhoinsadhara", "NIN": 5876771436, "latitude": 21.13936, "longitude": 82.80287, "facility_type_standardized": "hsc" }, "geometry": { "type": "Point", "coordinates": [ 82.8043225, 21.1417344 ] } },
{ "type": "Feature", "properties": { "Statename": "Odisha", "Districtname": "Bargarh", "Subdistrictname": "Jharbandha", "Blockname": "Jharbandh", "Healthblockname": "Jharabandha", "Healthfacilitytype": "health sub centre", "Facilityname": "Kuruma", "NIN": 7762457823, "latitude": 21.1406, "longitude": 82.89376, "facility_type_standardized": "hsc" }, "geometry": { "type": "Point", "coordinates": [ 82.8930692, 21.1430051 ] } },
{ "type": "Feature", "properties": { "Statename": "Odisha", "Districtname": "Bargarh", "Subdistrictname": "Bheden", "Blockname": "Bheden", "Healthblockname": "Bheden", "Healthfacilitytype": "health sub centre", "Facilityname": "Resham", "NIN": 1181775113, "latitude": 21.14146, "longitude": 83.68626, "facility_type_standardized": "hsc" }, "geometry": { "type": "Point", "coordinates": [ 83.7041688, 21.1483437 ] } },
{ "type": "Feature", "properties": { "Statename": "Odisha", "Districtname": "Bargarh", "Subdistrictname": "Barapali", "Blockname": "Barpali", "Healthblockname": "Barpali", "Healthfacilitytype": "health sub centre", "Facilityname": "Satalama", "NIN": 3656785775, "latitude": 21.14414, "longitude": 83.61922, "facility_type_standardized": "hsc" }, "geometry": { "type": "Point", "coordinates": [ 83.6053938, 21.1558481 ] } },
{ "type": "Feature", "properties": { "Statename": "Odisha", "Districtname": "Bargarh", "Subdistrictname": "Bheden", "Blockname": "Bheden", "Healthblockname": "Bheden", "Healthfacilitytype": "health sub centre", "Facilityname": "Areigudi", "NIN": 6517341118, "latitude": 21.14634, "longitude": 83.7064, "facility_type_standardized": "hsc" }, "geometry": { "type": "Point", "coordinates": [ 83.7072909, 21.1477833 ] } },
{ "type": "Feature", "properties": { "Statename": "Odisha", "Districtname": "Bargarh", "Subdistrictname": "Melchhamunda", "Blockname": "Sohella", "Healthblockname": "Sohela", "Healthfacilitytype": "health sub centre", "Facilityname": "Baideshpali", "NIN": 1235475116, "latitude": 21.14869, "longitude": 83.32134, "facility_type_standardized": "hsc" }, "geometry": { "type": "Point", "coordinates": [ 83.3172054, 21.1509242 ] } },
{ "type": "Feature", "properties": { "Statename": "Odisha", "Districtname": "Bargarh", "Subdistrictname": "Bijepur", "Blockname": "Bijepur", "Healthblockname": "Bijepur", "Healthfacilitytype": "health sub centre", "Facilityname": "Pahandi", "NIN": 6364377546, "latitude": 21.15119, "longitude": 83.41516, "facility_type_standardized": "hsc" }, "geometry": { "type": "Point", "coordinates": [ 83.4187442, 21.1534392 ] } },
{ "type": "Feature", "properties": { "Statename": "Odisha", "Districtname": "Bargarh", "Subdistrictname": "Jharbandha", "Blockname": "Jharbandh", "Healthblockname": "Jharabandha", "Healthfacilitytype": "health sub centre", "Facilityname": "Laudidhara", "NIN": 2318212616, "latitude": 21.15413, "longitude": 82.84692, "facility_type_standardized": "hsc" }, "geometry": { "type": "Point", "coordinates": [ 82.847703, 21.1526532 ] } },
{ "type": "Feature", "properties": { "Statename": "Odisha", "Districtname": "Bargarh", "Subdistrictname": "Melchhamunda", "Blockname": "Sohella", "Healthblockname": "Sohela", "Healthfacilitytype": "health sub centre", "Facilityname": "Sanimal", "NIN": 3223555131, "latitude": 21.15464, "longitude": 83.25891, "facility_type_standardized": "hsc" }, "geometry": { "type": "Point", "coordinates": [ 83.2611005, 21.1540209 ] } },
{ "type": "Feature", "properties": { "Statename": "Odisha", "Districtname": "Bargarh", "Subdistrictname": "Bijepur", "Blockname": "Bijepur", "Healthblockname": "Bijepur", "Healthfacilitytype": "health sub centre", "Facilityname": "Charpali", "NIN": 7528448223, "latitude": 21.15825, "longitude": 83.47966, "facility_type_standardized": "hsc" }, "geometry": { "type": "Point", "coordinates": [ 83.4690464, 21.1604057 ] } },
{ "type": "Feature", "properties": { "Statename": "Odisha", "Districtname": "Bargarh", "Subdistrictname": "Barapali", "Blockname": "Barpali", "Healthblockname": "Barpali", "Healthfacilitytype": "health sub centre", "Facilityname": "Khemesira", "NIN": 7467146762, "latitude": 21.16108, "longitude": 83.5975, "facility_type_standardized": "hsc" }, "geometry": { "type": "Point", "coordinates": [ 83.5964732, 21.1593367 ] } },
{ "type": "Feature", "properties": { "Statename": "Odisha", "Districtname": "Bargarh", "Subdistrictname": "Barapali", "Blockname": "Barpali", "Healthblockname": "Barpali", "Healthfacilitytype": "health sub centre", "Facilityname": "Tulandi", "NIN": 7683273754, "latitude": 21.16249, "longitude": 83.65168, "facility_type_standardized": "hsc" }, "geometry": { "type": "Point", "coordinates": [ 83.6569968, 21.1681397 ] } },
{ "type": "Feature", "properties": { "Statename": "Odisha", "Districtname": "Bargarh", "Subdistrictname": "Bijepur", "Blockname": "Bijepur", "Healthblockname": "Bijepur", "Healthfacilitytype": "health sub centre", "Facilityname": "Budapali", "NIN": 3243248378, "latitude": 21.16275, "longitude": 83.51458, "facility_type_standardized": "hsc" }, "geometry": { "type": "Point", "coordinates": [ 83.5123076, 21.1616764 ] } },
{ "type": "Feature", "properties": { "Statename": "Odisha", "Districtname": "Bargarh", "Subdistrictname": "Bheden", "Blockname": "Bheden", "Healthblockname": "Bheden", "Healthfacilitytype": "health sub centre", "Facilityname": "Barpadar", "NIN": 3424823858, "latitude": 21.16403, "longitude": 83.74965, "facility_type_standardized": "hsc" }, "geometry": { "type": "Point", "coordinates": [ 83.7491763, 21.1639075 ] } },
{ "type": "Feature", "properties": { "Statename": "Odisha", "Districtname": "Bargarh", "Subdistrictname": "Bheden", "Blockname": "Bheden", "Healthblockname": "Bheden", "Healthfacilitytype": "health sub centre", "Facilityname": "Ainlapali", "NIN": 1142662251, "latitude": 21.16556, "longitude": 83.68761, "facility_type_standardized": "hsc" }, "geometry": { "type": "Point", "coordinates": [ 83.6874023, 21.1791722 ] } },
{ "type": "Feature", "properties": { "Statename": "Odisha", "Districtname": "Bargarh", "Subdistrictname": "Bheden", "Blockname": "Bheden", "Healthblockname": "Bheden", "Healthfacilitytype": "health sub centre", "Facilityname": "Sunalarambha", "NIN": 5256233510, "latitude": 21.17069, "longitude": 83.78183, "facility_type_standardized": "hsc" }, "geometry": { "type": "Point", "coordinates": [ 83.7830794, 21.1768337 ] } },
{ "type": "Feature", "properties": { "Statename": "Odisha", "Districtname": "Bargarh", "Subdistrictname": "Bheden", "Blockname": "Bheden", "Healthblockname": "Bheden", "Healthfacilitytype": "health sub centre", "Facilityname": "Rusuda", "NIN": 5886421832, "latitude": 21.1711, "longitude": 83.85548, "facility_type_standardized": "hsc" }, "geometry": { "type": "Point", "coordinates": [ 83.8535759, 21.173032 ] } },
{ "type": "Feature", "properties": { "Statename": "Odisha", "Districtname": "Bargarh", "Subdistrictname": "Barapali", "Blockname": "Barpali", "Healthblockname": "Barpali", "Healthfacilitytype": "health sub centre", "Facilityname": "Barangpali", "NIN": 8228476266, "latitude": 21.17559, "longitude": 83.61252, "facility_type_standardized": "hsc" }, "geometry": { "type": "Point", "coordinates": [ 83.599405, 21.1864514 ] } },
{ "type": "Feature", "properties": { "Statename": "Odisha", "Districtname": "Bargarh", "Subdistrictname": "Bijepur", "Blockname": "Bijepur", "Healthblockname": "Bijepur", "Healthfacilitytype": "health sub centre", "Facilityname": "M. Sirgida", "NIN": 3617552157, "latitude": 21.17996, "longitude": 83.38771, "facility_type_standardized": "hsc" }, "geometry": { "type": "Point", "coordinates": [ 83.3945051, 21.1498271 ] } },
{ "type": "Feature", "properties": { "Statename": "Odisha", "Districtname": "Bargarh", "Subdistrictname": "Bijepur", "Blockname": "Bijepur", "Healthblockname": "Bijepur", "Healthfacilitytype": "health sub centre", "Facilityname": "Talpadar", "NIN": 1734243874, "latitude": 21.18502, "longitude": 83.36285, "facility_type_standardized": "hsc" }, "geometry": { "type": "Point", "coordinates": [ 83.3402735, 21.1928872 ] } },
{ "type": "Feature", "properties": { "Statename": "Odisha", "Districtname": "Bargarh", "Subdistrictname": "Barapali", "Blockname": "Barpali", "Healthblockname": "Barpali", "Healthfacilitytype": "health sub centre", "Facilityname": "Patkulunda", "NIN": 5234818747, "latitude": 21.18824, "longitude": 83.65854, "facility_type_standardized": "hsc" }, "geometry": { "type": "Point", "coordinates": [ 83.6671623, 21.1797549 ] } },
{ "type": "Feature", "properties": { "Statename": "Odisha", "Districtname": "Bargarh", "Subdistrictname": "Melchhamunda", "Blockname": "Sohella", "Healthblockname": "Sohela", "Healthfacilitytype": "health sub centre", "Facilityname": "Ghess", "NIN": 4244672376, "latitude": 21.1912, "longitude": 83.28496, "facility_type_standardized": "hsc" }, "geometry": { "type": "Point", "coordinates": [ 83.2851112, 21.1914218 ] } },
{ "type": "Feature", "properties": { "Statename": "Odisha", "Districtname": "Bargarh", "Subdistrictname": "Bijepur", "Blockname": "Bijepur", "Healthblockname": "Bijepur", "Healthfacilitytype": "health sub centre", "Facilityname": "Bijepur", "NIN": 3731383471, "latitude": 21.19472, "longitude": 83.46807, "facility_type_standardized": "hsc" }, "geometry": { "type": "Point", "coordinates": [ 83.4704545, 21.1930348 ] } },
{ "type": "Feature", "properties": { "Statename": "Odisha", "Districtname": "Bargarh", "Subdistrictname": "Bijepur", "Blockname": "Bijepur", "Healthblockname": "Bijepur", "Healthfacilitytype": "health sub centre", "Facilityname": "Jaring", "NIN": 6154475880, "latitude": 21.1948, "longitude": 83.49647, "facility_type_standardized": "hsc" }, "geometry": { "type": "Point", "coordinates": [ 83.4786795, 21.1876242 ] } },
{ "type": "Feature", "properties": { "Statename": "Odisha", "Districtname": "Bargarh", "Subdistrictname": "Bheden", "Blockname": "Bheden", "Healthblockname": "Bheden", "Healthfacilitytype": "health sub centre", "Facilityname": "Bheden", "NIN": 3234686735, "latitude": 21.19672, "longitude": 83.75235, "facility_type_standardized": "hsc" }, "geometry": { "type": "Point", "coordinates": [ 83.7517941, 21.1972811 ] } },
{ "type": "Feature", "properties": { "Statename": "Odisha", "Districtname": "Bargarh", "Subdistrictname": "Barapali", "Blockname": "Barpali", "Healthblockname": "Barpali", "Healthfacilitytype": "health sub centre", "Facilityname": "Remta", "NIN": 3772424374, "latitude": 21.19785, "longitude": 83.62245, "facility_type_standardized": "hsc" }, "geometry": { "type": "Point", "coordinates": [ 83.6132795, 21.198579 ] } },
{ "type": "Feature", "properties": { "Statename": "Odisha", "Districtname": "Bargarh", "Subdistrictname": "Barapali", "Blockname": "Barpali", "Healthblockname": "Barpali", "Healthfacilitytype": "health sub centre", "Facilityname": "Bandhpali", "NIN": 3258564487, "latitude": 21.20001, "longitude": 83.52639, "facility_type_standardized": "hsc" }, "geometry": { "type": "Point", "coordinates": [ 83.5256812, 21.2011222 ] } },
{ "type": "Feature", "properties": { "Statename": "Odisha", "Districtname": "Bargarh", "Subdistrictname": "Barapali", "Blockname": "Barpali", "Healthblockname": "Barpali", "Healthfacilitytype": "health sub centre", "Facilityname": "Sahutikra", "NIN": 5724468367, "latitude": 21.20406, "longitude": 83.59951, "facility_type_standardized": "hsc" }, "geometry": { "type": "Point", "coordinates": [ 83.5909885, 21.2017455 ] } },
{ "type": "Feature", "properties": { "Statename": "Odisha", "Districtname": "Bargarh", "Subdistrictname": "Bheden", "Blockname": "Bheden", "Healthblockname": "Bheden", "Healthfacilitytype": "health sub centre", "Facilityname": "Kubedega", "NIN": 4456647579, "latitude": 21.21034, "longitude": 83.72769, "facility_type_standardized": "hsc" }, "geometry": { "type": "Point", "coordinates": [ 83.7264177, 21.2110395 ] } },
{ "type": "Feature", "properties": { "Statename": "Odisha", "Districtname": "Bargarh", "Subdistrictname": "Bheden", "Blockname": "Bheden", "Healthblockname": "Bheden", "Healthfacilitytype": "health sub centre", "Facilityname": "Chichinda", "NIN": 1638686822, "latitude": 21.21095, "longitude": 83.79169, "facility_type_standardized": "hsc" }, "geometry": { "type": "Point", "coordinates": [ 83.7914774, 21.2085315 ] } },
{ "type": "Feature", "properties": { "Statename": "Odisha", "Districtname": "Bargarh", "Subdistrictname": "Bijepur", "Blockname": "Bijepur", "Healthblockname": "Bijepur", "Healthfacilitytype": "health sub centre", "Facilityname": "Manoharpali", "NIN": 2645348588, "latitude": 21.21161, "longitude": 83.49036, "facility_type_standardized": "hsc" }, "geometry": { "type": "Point", "coordinates": [ 83.4933592, 21.2324853 ] } },
{ "type": "Feature", "properties": { "Statename": "Odisha", "Districtname": "Bargarh", "Subdistrictname": "Bheden", "Blockname": "Bheden", "Healthblockname": "Bheden", "Healthfacilitytype": "health sub centre", "Facilityname": "Manpur", "NIN": 5877821586, "latitude": 21.21235, "longitude": 83.86294, "facility_type_standardized": "hsc" }, "geometry": { "type": "Point", "coordinates": [ 83.8673166, 21.2112868 ] } },
{ "type": "Feature", "properties": { "Statename": "Odisha", "Districtname": "Bargarh", "Subdistrictname": "Barapali", "Blockname": "Barpali", "Healthblockname": "Barpali", "Healthfacilitytype": "health sub centre", "Facilityname": "Kumbhari", "NIN": 2817784537, "latitude": 21.21532, "longitude": 83.65291, "facility_type_standardized": "hsc" }, "geometry": { "type": "Point", "coordinates": [ 83.672881, 21.2245803 ] } },
{ "type": "Feature", "properties": { "Statename": "Odisha", "Districtname": "Bargarh", "Subdistrictname": "Bheden", "Blockname": "Bheden", "Healthblockname": "Bheden", "Healthfacilitytype": "health sub centre", "Facilityname": "Bakti", "NIN": 5363251553, "latitude": 21.22121, "longitude": 83.76649, "facility_type_standardized": "hsc" }, "geometry": { "type": "Point", "coordinates": [ 83.7665114, 21.2216862 ] } },
{ "type": "Feature", "properties": { "Statename": "Odisha", "Districtname": "Bargarh", "Subdistrictname": "Barapali", "Blockname": "Barpali", "Healthblockname": "Barpali", "Healthfacilitytype": "health sub centre", "Facilityname": "Mahulpali", "NIN": 8864155380, "latitude": 21.22251, "longitude": 83.56021, "facility_type_standardized": "hsc" }, "geometry": { "type": "Point", "coordinates": [ 83.5593738, 21.2303583 ] } },
{ "type": "Feature", "properties": { "Statename": "Odisha", "Districtname": "Bargarh", "Subdistrictname": "Bheden", "Blockname": "Bheden", "Healthblockname": "Bheden", "Healthfacilitytype": "health sub centre", "Facilityname": "Deshbhati", "NIN": 3576723849, "latitude": 21.22272, "longitude": 83.88617, "facility_type_standardized": "hsc" }, "geometry": { "type": "Point", "coordinates": [ 83.8880566, 21.2277962 ] } },
{ "type": "Feature", "properties": { "Statename": "Odisha", "Districtname": "Bargarh", "Subdistrictname": "Barapali", "Blockname": "Barpali", "Healthblockname": "Barpali", "Healthfacilitytype": "health sub centre", "Facilityname": "Lenda", "NIN": 8426652486, "latitude": 21.22636, "longitude": 83.59233, "facility_type_standardized": "hsc" }, "geometry": { "type": "Point", "coordinates": [ 83.5828672, 21.2269547 ] } },
{ "type": "Feature", "properties": { "Statename": "Odisha", "Districtname": "Bargarh", "Subdistrictname": "Sohela", "Blockname": "Sohella", "Healthblockname": "Sohela", "Healthfacilitytype": "health sub centre", "Facilityname": "Jhar", "NIN": 3537818829, "latitude": 21.22828, "longitude": 83.28301, "facility_type_standardized": "hsc" }, "geometry": { "type": "Point", "coordinates": [ 83.2783681, 21.2274744 ] } },
{ "type": "Feature", "properties": { "Statename": "Odisha", "Districtname": "Bargarh", "Subdistrictname": "Bheden", "Blockname": "Bheden", "Healthblockname": "Bheden", "Healthfacilitytype": "health sub centre", "Facilityname": "Arjunda", "NIN": 1126256278, "latitude": 21.23524, "longitude": 83.8287, "facility_type_standardized": "hsc" }, "geometry": { "type": "Point", "coordinates": [ 83.8295522, 21.2377125 ] } },
{ "type": "Feature", "properties": { "Statename": "Odisha", "Districtname": "Bargarh", "Subdistrictname": "Bheden", "Blockname": "Bheden", "Healthblockname": "Bheden", "Healthfacilitytype": "health sub centre", "Facilityname": "Lupursingha", "NIN": 3473685364, "latitude": 21.23838, "longitude": 83.79659, "facility_type_standardized": "hsc" }, "geometry": { "type": "Point", "coordinates": [ 83.7957931, 21.2370199 ] } },
{ "type": "Feature", "properties": { "Statename": "Odisha", "Districtname": "Bargarh", "Subdistrictname": "Barapali", "Blockname": "Barpali", "Healthblockname": "Barpali", "Healthfacilitytype": "health sub centre", "Facilityname": "Katapali", "NIN": 6466676464, "latitude": 21.23888, "longitude": 83.5172, "facility_type_standardized": "hsc" }, "geometry": { "type": "Point", "coordinates": [ 83.5273415, 21.2529669 ] } },
{ "type": "Feature", "properties": { "Statename": "Odisha", "Districtname": "Bargarh", "Subdistrictname": "Bargarh", "Blockname": "Bargarh", "Healthblockname": "Bargarh", "Healthfacilitytype": "health sub centre", "Facilityname": "Launsara", "NIN": 2831647744, "latitude": 21.23897, "longitude": 83.6654, "facility_type_standardized": "hsc" }, "geometry": { "type": "Point", "coordinates": [ 83.672881, 21.2245803 ] } },
{ "type": "Feature", "properties": { "Statename": "Odisha", "Districtname": "Bargarh", "Subdistrictname": "Barapali", "Blockname": "Barpali", "Healthblockname": "Barpali", "Healthfacilitytype": "health sub centre", "Facilityname": "Baramkela", "NIN": 2367467764, "latitude": 21.23956, "longitude": 83.68678, "facility_type_standardized": "hsc" }, "geometry": { "type": "Point", "coordinates": [ 83.6911628, 21.2339973 ] } },
{ "type": "Feature", "properties": { "Statename": "Odisha", "Districtname": "Bargarh", "Subdistrictname": "Sohela", "Blockname": "Sohella", "Healthblockname": "Sohela", "Healthfacilitytype": "health sub centre", "Facilityname": "Chhuriapali", "NIN": 7874554178, "latitude": 21.24598, "longitude": 83.34085, "facility_type_standardized": "hsc" }, "geometry": { "type": "Point", "coordinates": [ 83.3379896, 21.2442612 ] } },
{ "type": "Feature", "properties": { "Statename": "Odisha", "Districtname": "Bargarh", "Subdistrictname": "Barapali", "Blockname": "Barpali", "Healthblockname": "Barpali", "Healthfacilitytype": "health sub centre", "Facilityname": "Kusanpuri", "NIN": 2487467256, "latitude": 21.247, "longitude": 83.58405, "facility_type_standardized": "hsc" }, "geometry": { "type": "Point", "coordinates": [ 83.5784989, 21.2475221 ] } },
{ "type": "Feature", "properties": { "Statename": "Odisha", "Districtname": "Bargarh", "Subdistrictname": "Bheden", "Blockname": "Bheden", "Healthblockname": "Bheden", "Healthfacilitytype": "health sub centre", "Facilityname": "Salna", "NIN": 6774165846, "latitude": 21.24743, "longitude": 83.87383, "facility_type_standardized": "hsc" }, "geometry": { "type": "Point", "coordinates": [ 83.8752488, 21.2475814 ] } },
{ "type": "Feature", "properties": { "Statename": "Odisha", "Districtname": "Bargarh", "Subdistrictname": "Barapali", "Blockname": "Barpali", "Healthblockname": "Barpali", "Healthfacilitytype": "health sub centre", "Facilityname": "Bagbadi", "NIN": 5486831430, "latitude": 21.24777, "longitude": 83.6159, "facility_type_standardized": "hsc" }, "geometry": { "type": "Point", "coordinates": [ 83.6152745, 21.247032 ] } },
{ "type": "Feature", "properties": { "Statename": "Odisha", "Districtname": "Bargarh", "Subdistrictname": "Bargarh", "Blockname": "Bargarh", "Healthblockname": "Bargarh", "Healthfacilitytype": "health sub centre", "Facilityname": "BANBASPALI", "NIN": 6851328788, "latitude": 21.24842, "longitude": 83.48973, "facility_type_standardized": "hsc" }, "geometry": { "type": "Point", "coordinates": [ 83.4837601, 21.2485123 ] } },
{ "type": "Feature", "properties": { "Statename": "Odisha", "Districtname": "Bargarh", "Subdistrictname": "Sohela", "Blockname": "Sohella", "Healthblockname": "Sohela", "Healthfacilitytype": "health sub centre", "Facilityname": "Panimora", "NIN": 6418463342, "latitude": 21.25407, "longitude": 83.45001, "facility_type_standardized": "hsc" }, "geometry": { "type": "Point", "coordinates": [ 83.4458184, 21.2478498 ] } },
{ "type": "Feature", "properties": { "Statename": "Odisha", "Districtname": "Bargarh", "Subdistrictname": "Bargarh", "Blockname": "Bargarh", "Healthblockname": "Bargarh", "Healthfacilitytype": "health sub centre", "Facilityname": "Birmal", "NIN": 1122515487, "latitude": 21.26209, "longitude": 83.54761, "facility_type_standardized": "hsc" }, "geometry": { "type": "Point", "coordinates": [ 83.5424343, 21.2450924 ] } },
{ "type": "Feature", "properties": { "Statename": "Odisha", "Districtname": "Bargarh", "Subdistrictname": "Sohela", "Blockname": "Sohella", "Healthblockname": "Sohela", "Healthfacilitytype": "health sub centre", "Facilityname": "Tabada", "NIN": 3464583180, "latitude": 21.26711, "longitude": 83.30084, "facility_type_standardized": "hsc" }, "geometry": { "type": "Point", "coordinates": [ 83.2926227, 21.2666189 ] } },
{ "type": "Feature", "properties": { "Statename": "Odisha", "Districtname": "Bargarh", "Subdistrictname": "Bheden", "Blockname": "Bheden", "Healthblockname": "Bheden", "Healthfacilitytype": "health sub centre", "Facilityname": "Dekulba", "NIN": 8628653373, "latitude": 21.26712, "longitude": 83.72493, "facility_type_standardized": "hsc" }, "geometry": { "type": "Point", "coordinates": [ 83.7301594, 21.2600237 ] } },
{ "type": "Feature", "properties": { "Statename": "Odisha", "Districtname": "Bargarh", "Subdistrictname": "Bargarh", "Blockname": "Bargarh", "Healthblockname": "Bargarh", "Healthfacilitytype": "health sub centre", "Facilityname": "Gaisima", "NIN": 4785466329, "latitude": 21.26719, "longitude": 83.65933, "facility_type_standardized": "hsc" }, "geometry": { "type": "Point", "coordinates": [ 83.6579758, 21.2866152 ] } },
{ "type": "Feature", "properties": { "Statename": "Odisha", "Districtname": "Bargarh", "Subdistrictname": "Bheden", "Blockname": "Bheden", "Healthblockname": "Bheden", "Healthfacilitytype": "health sub centre", "Facilityname": "Remunda", "NIN": 8752683246, "latitude": 21.27257, "longitude": 83.75936, "facility_type_standardized": "hsc" }, "geometry": { "type": "Point", "coordinates": [ 83.7618296, 21.2721662 ] } },
{ "type": "Feature", "properties": { "Statename": "Odisha", "Districtname": "Bargarh", "Subdistrictname": "Bheden", "Blockname": "Bheden", "Healthblockname": "Bheden", "Healthfacilitytype": "health sub centre", "Facilityname": "Jharpali", "NIN": 7173822789, "latitude": 21.2759, "longitude": 83.80775, "facility_type_standardized": "hsc" }, "geometry": { "type": "Point", "coordinates": [ 83.8091826, 21.2809094 ] } },
{ "type": "Feature", "properties": { "Statename": "Odisha", "Districtname": "Bargarh", "Subdistrictname": "Bargarh", "Blockname": "Bargarh", "Healthblockname": "Bargarh", "Healthfacilitytype": "health sub centre", "Facilityname": "Khandata", "NIN": 6647845657, "latitude": 21.27601, "longitude": 83.682, "facility_type_standardized": "hsc" }, "geometry": { "type": "Point", "coordinates": [ 83.6579758, 21.2866152 ] } },
{ "type": "Feature", "properties": { "Statename": "Odisha", "Districtname": "Bargarh", "Subdistrictname": "Bargarh", "Blockname": "Bargarh", "Healthblockname": "Bargarh", "Healthfacilitytype": "health sub centre", "Facilityname": "Khuntpali", "NIN": 3444566586, "latitude": 21.27623, "longitude": 83.61701, "facility_type_standardized": "hsc" }, "geometry": { "type": "Point", "coordinates": [ 83.6233807, 21.2757757 ] } },
{ "type": "Feature", "properties": { "Statename": "Odisha", "Districtname": "Bargarh", "Subdistrictname": "Bargarh", "Blockname": "Bargarh", "Healthblockname": "Bargarh", "Healthfacilitytype": "health sub centre", "Facilityname": "DHANGER", "NIN": 1724347446, "latitude": 21.29771, "longitude": 83.64477, "facility_type_standardized": "hsc" }, "geometry": { "type": "Point", "coordinates": [ 83.6455251, 21.3021832 ] } },
{ "type": "Feature", "properties": { "Statename": "Odisha", "Districtname": "Bargarh", "Subdistrictname": "Bargarh", "Blockname": "Bargarh", "Healthblockname": "Bargarh", "Healthfacilitytype": "health sub centre", "Facilityname": "Sarsara", "NIN": 4677564546, "latitude": 21.29827, "longitude": 83.59944, "facility_type_standardized": "hsc" }, "geometry": { "type": "Point", "coordinates": [ 83.6035095, 21.2965601 ] } },
{ "type": "Feature", "properties": { "Statename": "Odisha", "Districtname": "Bargarh", "Subdistrictname": "Bargarh", "Blockname": "Bargarh", "Healthblockname": "Bargarh", "Healthfacilitytype": "health sub centre", "Facilityname": "Adgaon", "NIN": 6566187784, "latitude": 21.29921, "longitude": 83.70326, "facility_type_standardized": "hsc" }, "geometry": { "type": "Point", "coordinates": [ 83.7209111, 21.3122387 ] } },
{ "type": "Feature", "properties": { "Statename": "Odisha", "Districtname": "Bargarh", "Subdistrictname": "Sohela", "Blockname": "Sohella", "Healthblockname": "Sohela", "Healthfacilitytype": "health sub centre", "Facilityname": "Sohela", "NIN": 6528345876, "latitude": 21.30376, "longitude": 83.39754, "facility_type_standardized": "hsc" }, "geometry": { "type": "Point", "coordinates": [ 83.3973496, 21.3006958 ] } },
{ "type": "Feature", "properties": { "Statename": "Odisha", "Districtname": "Bargarh", "Subdistrictname": "Attabira", "Blockname": "Attabira", "Healthblockname": "Attabira", "Healthfacilitytype": "health sub centre", "Facilityname": "Kultatukra", "NIN": 6836463668, "latitude": 21.30394, "longitude": 83.86414, "facility_type_standardized": "hsc" }, "geometry": { "type": "Point", "coordinates": [ 83.8621246, 21.3013889 ] } },
{ "type": "Feature", "properties": { "Statename": "Odisha", "Districtname": "Bargarh", "Subdistrictname": "Bargarh", "Blockname": "Bargarh", "Healthblockname": "Bargarh", "Healthfacilitytype": "health sub centre", "Facilityname": "Chakarkend", "NIN": 2158526158, "latitude": 21.3043, "longitude": 83.52473, "facility_type_standardized": "hsc" }, "geometry": { "type": "Point", "coordinates": [ 83.5265692, 21.3193909 ] } },
{ "type": "Feature", "properties": { "Statename": "Odisha", "Districtname": "Bargarh", "Subdistrictname": "Attabira", "Blockname": "Attabira", "Healthblockname": "Attabira", "Healthfacilitytype": "health sub centre", "Facilityname": "Jhilminda", "NIN": 6271317114, "latitude": 21.30719, "longitude": 83.81328, "facility_type_standardized": "hsc" }, "geometry": { "type": "Point", "coordinates": [ 83.8111889, 21.3030967 ] } },
{ "type": "Feature", "properties": { "Statename": "Odisha", "Districtname": "Bargarh", "Subdistrictname": "Sohela", "Blockname": "Sohella", "Healthblockname": "Sohela", "Healthfacilitytype": "health sub centre", "Facilityname": "Dumerpali", "NIN": 1551757162, "latitude": 21.30781, "longitude": 83.35752, "facility_type_standardized": "hsc" }, "geometry": { "type": "Point", "coordinates": [ 83.3558473, 21.3082722 ] } },
{ "type": "Feature", "properties": { "Statename": "Odisha", "Districtname": "Bargarh", "Subdistrictname": "Sohela", "Blockname": "Sohella", "Healthblockname": "Sohela", "Healthfacilitytype": "health sub centre", "Facilityname": "GARVANA", "NIN": 3388546651, "latitude": 21.30888, "longitude": 83.43778, "facility_type_standardized": "hsc" }, "geometry": { "type": "Point", "coordinates": [ 83.4394911, 21.3082244 ] } },
{ "type": "Feature", "properties": { "Statename": "Odisha", "Districtname": "Bargarh", "Subdistrictname": "Attabira", "Blockname": "Attabira", "Healthblockname": "Attabira", "Healthfacilitytype": "health sub centre", "Facilityname": "Kadobahal", "NIN": 2313444875, "latitude": 21.30989, "longitude": 83.84141, "facility_type_standardized": "hsc" }, "geometry": { "type": "Point", "coordinates": [ 83.8455327, 21.3104174 ] } },
{ "type": "Feature", "properties": { "Statename": "Odisha", "Districtname": "Bargarh", "Subdistrictname": "Attabira", "Blockname": "Attabira", "Healthblockname": "Attabira", "Healthfacilitytype": "health sub centre", "Facilityname": "Khairpali", "NIN": 4318853464, "latitude": 21.31098, "longitude": 83.79975, "facility_type_standardized": "hsc" }, "geometry": { "type": "Point", "coordinates": [ 83.8051674, 21.3130246 ] } },
{ "type": "Feature", "properties": { "Statename": "Odisha", "Districtname": "Bargarh", "Subdistrictname": "Attabira", "Blockname": "Attabira", "Healthblockname": "Attabira", "Healthfacilitytype": "health sub centre", "Facilityname": "Tampasara", "NIN": 1561236322, "latitude": 21.3245, "longitude": 83.8636, "facility_type_standardized": "hsc" }, "geometry": { "type": "Point", "coordinates": [ 83.8686901, 21.3273643 ] } },
{ "type": "Feature", "properties": { "Statename": "Odisha", "Districtname": "Bargarh", "Subdistrictname": "Bargarh", "Blockname": "Bargarh", "Healthblockname": "Bargarh", "Healthfacilitytype": "health sub centre", "Facilityname": "Tora", "NIN": 4273482663, "latitude": 21.32741, "longitude": 83.66551, "facility_type_standardized": "hsc" }, "geometry": { "type": "Point", "coordinates": [ 83.6525897, 21.3266692 ] } },
{ "type": "Feature", "properties": { "Statename": "Odisha", "Districtname": "Bargarh", "Subdistrictname": "Sohela", "Blockname": "Sohella", "Healthblockname": "Sohela", "Healthfacilitytype": "health sub centre", "Facilityname": "Kangaon", "NIN": 6866557389, "latitude": 21.32937, "longitude": 83.43923, "facility_type_standardized": "hsc" }, "geometry": { "type": "Point", "coordinates": [ 83.4504306, 21.3364347 ] } },
{ "type": "Feature", "properties": { "Statename": "Odisha", "Districtname": "Bargarh", "Subdistrictname": "Attabira", "Blockname": "Attabira", "Healthblockname": "Attabira", "Healthfacilitytype": "health sub centre", "Facilityname": "Patrapali", "NIN": 3642677284, "latitude": 21.33168, "longitude": 83.79696, "facility_type_standardized": "hsc" }, "geometry": { "type": "Point", "coordinates": [ 83.7994435, 21.3346211 ] } },
{ "type": "Feature", "properties": { "Statename": "Odisha", "Districtname": "Bargarh", "Subdistrictname": "Bargarh", "Blockname": "Bargarh", "Healthblockname": "Bargarh", "Healthfacilitytype": "health sub centre", "Facilityname": "Talsirgida", "NIN": 4718618673, "latitude": 21.33362, "longitude": 83.71739, "facility_type_standardized": "hsc" }, "geometry": { "type": "Point", "coordinates": [ 83.7168825, 21.3286636 ] } },
{ "type": "Feature", "properties": { "Statename": "Odisha", "Districtname": "Bargarh", "Subdistrictname": "Sohela", "Blockname": "Sohella", "Healthblockname": "Sohela", "Healthfacilitytype": "health sub centre", "Facilityname": "Rengali", "NIN": 7653675780, "latitude": 21.33412, "longitude": 83.36045, "facility_type_standardized": "hsc" }, "geometry": { "type": "Point", "coordinates": [ 83.3507287, 21.331352 ] } },
{ "type": "Feature", "properties": { "Statename": "Odisha", "Districtname": "Bargarh", "Subdistrictname": "Bargarh", "Blockname": "Bargarh", "Healthblockname": "Bargarh", "Healthfacilitytype": "health sub centre", "Facilityname": "Gobindpur", "NIN": 6738582540, "latitude": 21.33771, "longitude": 83.53605, "facility_type_standardized": "hsc" }, "geometry": { "type": "Point", "coordinates": [ 83.5341905, 21.3353931 ] } },
{ "type": "Feature", "properties": { "Statename": "Odisha", "Districtname": "Bargarh", "Subdistrictname": "Sohela", "Blockname": "Sohella", "Healthblockname": "Sohela", "Healthfacilitytype": "health sub centre", "Facilityname": "Kasipali", "NIN": 4667557740, "latitude": 21.34056, "longitude": 83.28866, "facility_type_standardized": "hsc" }, "geometry": { "type": "Point", "coordinates": [ 83.2839916, 21.3443747 ] } },
{ "type": "Feature", "properties": { "Statename": "Odisha", "Districtname": "Bargarh", "Subdistrictname": "Sohela", "Blockname": "Sohella", "Healthblockname": "Sohela", "Healthfacilitytype": "health sub centre", "Facilityname": "Beherapali", "NIN": 8377681351, "latitude": 21.34149, "longitude": 83.40823, "facility_type_standardized": "hsc" }, "geometry": { "type": "Point", "coordinates": [ 83.4079885, 21.3422498 ] } },
{ "type": "Feature", "properties": { "Statename": "Odisha", "Districtname": "Bargarh", "Subdistrictname": "Attabira", "Blockname": "Attabira", "Healthblockname": "Attabira", "Healthfacilitytype": "health sub centre", "Facilityname": "Larambha", "NIN": 4667683710, "latitude": 21.34259, "longitude": 83.83483, "facility_type_standardized": "hsc" }, "geometry": { "type": "Point", "coordinates": [ 83.8295259, 21.3442809 ] } },
{ "type": "Feature", "properties": { "Statename": "Odisha", "Districtname": "Bargarh", "Subdistrictname": "Attabira", "Blockname": "Attabira", "Healthblockname": "Attabira", "Healthfacilitytype": "health sub centre", "Facilityname": "Kulunda", "NIN": 2522222278, "latitude": 21.34398, "longitude": 83.77703, "facility_type_standardized": "hsc" }, "geometry": { "type": "Point", "coordinates": [ 83.7805212, 21.3441016 ] } },
{ "type": "Feature", "properties": { "Statename": "Odisha", "Districtname": "Bargarh", "Subdistrictname": "Attabira", "Blockname": "Attabira", "Healthblockname": "Attabira", "Healthfacilitytype": "health sub centre", "Facilityname": "Janhapada", "NIN": 1688418274, "latitude": 21.34723, "longitude": 83.73861, "facility_type_standardized": "hsc" }, "geometry": { "type": "Point", "coordinates": [ 83.7371707, 21.3435139 ] } },
{ "type": "Feature", "properties": { "Statename": "Odisha", "Districtname": "Bargarh", "Subdistrictname": "Sohela", "Blockname": "Sohella", "Healthblockname": "Sohela", "Healthfacilitytype": "health sub centre", "Facilityname": "Sirgida", "NIN": 3814867655, "latitude": 21.34733, "longitude": 83.50416, "facility_type_standardized": "hsc" }, "geometry": { "type": "Point", "coordinates": [ 83.504878, 21.3496095 ] } },
{ "type": "Feature", "properties": { "Statename": "Odisha", "Districtname": "Bargarh", "Subdistrictname": "Sohela", "Blockname": "Sohella", "Healthblockname": "Sohela", "Healthfacilitytype": "health sub centre", "Facilityname": "Luhurachati", "NIN": 8447266357, "latitude": 21.35049, "longitude": 83.33734, "facility_type_standardized": "hsc" }, "geometry": { "type": "Point", "coordinates": [ 83.323474, 21.3546769 ] } },
{ "type": "Feature", "properties": { "Statename": "Odisha", "Districtname": "Bargarh", "Subdistrictname": "Bargarh", "Blockname": "Bargarh", "Healthblockname": "Bargarh", "Healthfacilitytype": "health sub centre", "Facilityname": "Nagenpali", "NIN": 1213626326, "latitude": 21.35412, "longitude": 83.64353, "facility_type_standardized": "hsc" }, "geometry": { "type": "Point", "coordinates": [ 83.6422422, 21.3496012 ] } },
{ "type": "Feature", "properties": { "Statename": "Odisha", "Districtname": "Bargarh", "Subdistrictname": "Bargarh", "Blockname": "Bargarh", "Healthblockname": "Bargarh", "Healthfacilitytype": "health sub centre", "Facilityname": "Barhaguda", "NIN": 1178321517, "latitude": 21.35426, "longitude": 83.68124, "facility_type_standardized": "hsc" }, "geometry": { "type": "Point", "coordinates": [ 83.6800324, 21.3546923 ] } },
{ "type": "Feature", "properties": { "Statename": "Odisha", "Districtname": "Bargarh", "Subdistrictname": "Sohela", "Blockname": "Sohella", "Healthblockname": "Sohela", "Healthfacilitytype": "health sub centre", "Facilityname": "Sarkanda", "NIN": 7786225834, "latitude": 21.35626, "longitude": 83.45581, "facility_type_standardized": "hsc" }, "geometry": { "type": "Point", "coordinates": [ 83.4651879, 21.346607 ] } },
{ "type": "Feature", "properties": { "Statename": "Odisha", "Districtname": "Bargarh", "Subdistrictname": "Bargarh", "Blockname": "Bargarh", "Healthblockname": "Bargarh", "Healthfacilitytype": "health sub centre", "Facilityname": "Deogaon", "NIN": 4528885629, "latitude": 21.36066, "longitude": 83.58235, "facility_type_standardized": "hsc" }, "geometry": { "type": "Point", "coordinates": [ 83.5788359, 21.36176 ] } },
{ "type": "Feature", "properties": { "Statename": "Odisha", "Districtname": "Bargarh", "Subdistrictname": "Bargarh", "Blockname": "Bargarh", "Healthblockname": "Bargarh", "Healthfacilitytype": "health sub centre", "Facilityname": "Kalapani", "NIN": 4713151522, "latitude": 21.3667, "longitude": 83.70163, "facility_type_standardized": "hsc" }, "geometry": { "type": "Point", "coordinates": [ 83.705088, 21.3543836 ] } },
{ "type": "Feature", "properties": { "Statename": "Odisha", "Districtname": "Bargarh", "Subdistrictname": "Bargarh", "Blockname": "Bargarh", "Healthblockname": "Bargarh", "Healthfacilitytype": "health sub centre", "Facilityname": "Jamurda", "NIN": 4753386632, "latitude": 21.3691, "longitude": 83.66071, "facility_type_standardized": "hsc" }, "geometry": { "type": "Point", "coordinates": [ 83.6664006, 21.3728779 ] } },
{ "type": "Feature", "properties": { "Statename": "Odisha", "Districtname": "Bargarh", "Subdistrictname": "Bargarh", "Blockname": "Bargarh", "Healthblockname": "Bargarh", "Healthfacilitytype": "health sub centre", "Facilityname": "Goisar", "NIN": 2778628327, "latitude": 21.37261, "longitude": 83.55258, "facility_type_standardized": "hsc" }, "geometry": { "type": "Point", "coordinates": [ 83.5653135, 21.3736048 ] } },
{ "type": "Feature", "properties": { "Statename": "Odisha", "Districtname": "Bargarh", "Subdistrictname": "Attabira", "Blockname": "Attabira", "Healthblockname": "Attabira", "Healthfacilitytype": "health sub centre", "Facilityname": "Rengalpali", "NIN": 3514261167, "latitude": 21.37266, "longitude": 83.75268, "facility_type_standardized": "hsc" }, "geometry": { "type": "Point", "coordinates": [ 83.7556084, 21.3735491 ] } },
{ "type": "Feature", "properties": { "Statename": "Odisha", "Districtname": "Bargarh", "Subdistrictname": "Bhatli", "Blockname": "Bhatli", "Healthblockname": "Bhatli", "Healthfacilitytype": "health sub centre", "Facilityname": "Bhatigaon", "NIN": 8144638650, "latitude": 21.37266, "longitude": 83.5201, "facility_type_standardized": "hsc" }, "geometry": { "type": "Point", "coordinates": [ 83.5173342, 21.3708496 ] } },
{ "type": "Feature", "properties": { "Statename": "Odisha", "Districtname": "Bargarh", "Subdistrictname": "Bhatli", "Blockname": "Bhatli", "Healthblockname": "Bhatli", "Healthfacilitytype": "health sub centre", "Facilityname": "Sirapali", "NIN": 8246752474, "latitude": 21.37437, "longitude": 83.46993, "facility_type_standardized": "hsc" }, "geometry": { "type": "Point", "coordinates": [ 83.4559411, 21.3804009 ] } },
{ "type": "Feature", "properties": { "Statename": "Odisha", "Districtname": "Bargarh", "Subdistrictname": "Bargarh", "Blockname": "Bargarh", "Healthblockname": "Bargarh", "Healthfacilitytype": "health sub centre", "Facilityname": "Bardol", "NIN": 6614221551, "latitude": 21.37834, "longitude": 83.60238, "facility_type_standardized": "hsc" }, "geometry": { "type": "Point", "coordinates": [ 83.6033835, 21.374826 ] } },
{ "type": "Feature", "properties": { "Statename": "Odisha", "Districtname": "Bargarh", "Subdistrictname": "Bargarh", "Blockname": "Bargarh", "Healthblockname": "Bargarh", "Healthfacilitytype": "health sub centre", "Facilityname": "BARGAON", "NIN": 1844637189, "latitude": 21.37941, "longitude": 83.63036, "facility_type_standardized": "hsc" }, "geometry": { "type": "Point", "coordinates": [ 83.6269518, 21.3747713 ] } },
{ "type": "Feature", "properties": { "Statename": "Odisha", "Districtname": "Bargarh", "Subdistrictname": "Attabira", "Blockname": "Attabira", "Healthblockname": "Attabira", "Healthfacilitytype": "health sub centre", "Facilityname": "Attabira", "NIN": 8468577153, "latitude": 21.38035, "longitude": 83.79279, "facility_type_standardized": "hsc" }, "geometry": { "type": "Point", "coordinates": [ 83.7940472, 21.3804835 ] } },
{ "type": "Feature", "properties": { "Statename": "Odisha", "Districtname": "Bargarh", "Subdistrictname": "Attabira", "Blockname": "Attabira", "Healthblockname": "Attabira", "Healthfacilitytype": "health sub centre", "Facilityname": "Lastala", "NIN": 2122641562, "latitude": 21.38564, "longitude": 83.70128, "facility_type_standardized": "hsc" }, "geometry": { "type": "Point", "coordinates": [ 83.6966056, 21.3864861 ] } },
{ "type": "Feature", "properties": { "Statename": "Odisha", "Districtname": "Bargarh", "Subdistrictname": "Bargarh", "Blockname": "Bargarh", "Healthblockname": "Bargarh", "Healthfacilitytype": "health sub centre", "Facilityname": "N. Jampali", "NIN": 5378558851, "latitude": 21.39054, "longitude": 83.67042, "facility_type_standardized": "hsc" }, "geometry": { "type": "Point", "coordinates": [ 83.6684297, 21.3903886 ] } },
{ "type": "Feature", "properties": { "Statename": "Odisha", "Districtname": "Bargarh", "Subdistrictname": "Attabira", "Blockname": "Attabira", "Healthblockname": "Attabira", "Healthfacilitytype": "health sub centre", "Facilityname": "SINGPALI", "NIN": 1857786360, "latitude": 21.39646, "longitude": 83.76513, "facility_type_standardized": "hsc" }, "geometry": { "type": "Point", "coordinates": [ 83.7685311, 21.3947054 ] } },
{ "type": "Feature", "properties": { "Statename": "Odisha", "Districtname": "Bargarh", "Subdistrictname": "Bhatli", "Blockname": "Bhatli", "Healthblockname": "Bhatli", "Healthfacilitytype": "health sub centre", "Facilityname": "Urduna", "NIN": 2638358644, "latitude": 21.4016, "longitude": 83.45688, "facility_type_standardized": "hsc" }, "geometry": { "type": "Point", "coordinates": [ 83.4571714, 21.4005177 ] } },
{ "type": "Feature", "properties": { "Statename": "Odisha", "Districtname": "Bargarh", "Subdistrictname": "Bhatli", "Blockname": "Bhatli", "Healthblockname": "Bhatli", "Healthfacilitytype": "health sub centre", "Facilityname": "Udeipali", "NIN": 4723478618, "latitude": 21.40257, "longitude": 83.50919, "facility_type_standardized": "hsc" }, "geometry": { "type": "Point", "coordinates": [ 83.5118967, 21.3997787 ] } },
{ "type": "Feature", "properties": { "Statename": "Odisha", "Districtname": "Bargarh", "Subdistrictname": "Bargarh", "Blockname": "Bargarh", "Healthblockname": "Bargarh", "Healthfacilitytype": "health sub centre", "Facilityname": "Katapali", "NIN": 3117545214, "latitude": 21.40808, "longitude": 83.62024, "facility_type_standardized": "hsc" }, "geometry": { "type": "Point", "coordinates": [ 83.6234853, 21.4041751 ] } },
{ "type": "Feature", "properties": { "Statename": "Odisha", "Districtname": "Bargarh", "Subdistrictname": "Attabira", "Blockname": "Attabira", "Healthblockname": "Attabira", "Healthfacilitytype": "health sub centre", "Facilityname": "Hilipali", "NIN": 3644282760, "latitude": 21.41378, "longitude": 83.74835, "facility_type_standardized": "hsc" }, "geometry": { "type": "Point", "coordinates": [ 83.7401888, 21.4117617 ] } },
{ "type": "Feature", "properties": { "Statename": "Odisha", "Districtname": "Bargarh", "Subdistrictname": "Bhatli", "Blockname": "Bhatli", "Healthblockname": "Bhatli", "Healthfacilitytype": "health sub centre", "Facilityname": "Chadeigaon", "NIN": 6822745680, "latitude": 21.41806, "longitude": 83.57032, "facility_type_standardized": "hsc" }, "geometry": { "type": "Point", "coordinates": [ 83.5680433, 21.4185352 ] } },
{ "type": "Feature", "properties": { "Statename": "Odisha", "Districtname": "Bargarh", "Subdistrictname": "Attabira", "Blockname": "Attabira", "Healthblockname": "Attabira", "Healthfacilitytype": "health sub centre", "Facilityname": "Lachida", "NIN": 4442147460, "latitude": 21.42027, "longitude": 83.72076, "facility_type_standardized": "hsc" }, "geometry": { "type": "Point", "coordinates": [ 83.7201963, 21.4183636 ] } },
{ "type": "Feature", "properties": { "Statename": "Odisha", "Districtname": "Bargarh", "Subdistrictname": "Attabira", "Blockname": "Attabira", "Healthblockname": "Attabira", "Healthfacilitytype": "health sub centre", "Facilityname": "Godbhaga", "NIN": 7724442186, "latitude": 21.42248, "longitude": 83.83765, "facility_type_standardized": "hsc" }, "geometry": { "type": "Point", "coordinates": [ 83.8381506, 21.423151 ] } },
{ "type": "Feature", "properties": { "Statename": "Odisha", "Districtname": "Bargarh", "Subdistrictname": "Bhatli", "Blockname": "Bhatli", "Healthblockname": "Bhatli", "Healthfacilitytype": "health sub centre", "Facilityname": "Hatisar", "NIN": 8157841381, "latitude": 21.42837, "longitude": 83.48693, "facility_type_standardized": "hsc" }, "geometry": { "type": "Point", "coordinates": [ 83.4856477, 21.4272395 ] } },
{ "type": "Feature", "properties": { "Statename": "Odisha", "Districtname": "Bargarh", "Subdistrictname": "Bhatli", "Blockname": "Bhatli", "Healthblockname": "Bhatli", "Healthfacilitytype": "health sub centre", "Facilityname": "Kasipali", "NIN": 7466538720, "latitude": 21.42916, "longitude": 83.39337, "facility_type_standardized": "hsc" }, "geometry": { "type": "Point", "coordinates": [ 83.397985, 21.4332766 ] } },
{ "type": "Feature", "properties": { "Statename": "Odisha", "Districtname": "Bargarh", "Subdistrictname": "Bhatli", "Blockname": "Bhatli", "Healthblockname": "Bhatli", "Healthfacilitytype": "health sub centre", "Facilityname": "Niljee", "NIN": 3854217878, "latitude": 21.43016, "longitude": 83.52473, "facility_type_standardized": "hsc" }, "geometry": { "type": "Point", "coordinates": [ 83.5115866, 21.4290044 ] } },
{ "type": "Feature", "properties": { "Statename": "Odisha", "Districtname": "Bargarh", "Subdistrictname": "Bhatli", "Blockname": "Bhatli", "Healthblockname": "Bhatli", "Healthfacilitytype": "health sub centre", "Facilityname": "Talpali", "NIN": 8683457520, "latitude": 21.43601, "longitude": 83.44225, "facility_type_standardized": "hsc" }, "geometry": { "type": "Point", "coordinates": [ 83.4451392, 21.4323279 ] } },
{ "type": "Feature", "properties": { "Statename": "Odisha", "Districtname": "Bargarh", "Subdistrictname": "Attabira", "Blockname": "Attabira", "Healthblockname": "Attabira", "Healthfacilitytype": "health sub centre", "Facilityname": "Kharmunda", "NIN": 8464521874, "latitude": 21.43866, "longitude": 83.66774, "facility_type_standardized": "hsc" }, "geometry": { "type": "Point", "coordinates": [ 83.6649067, 21.4416631 ] } },
{ "type": "Feature", "properties": { "Statename": "Odisha", "Districtname": "Bargarh", "Subdistrictname": "Bhatli", "Blockname": "Bhatli", "Healthblockname": "Bhatli", "Healthfacilitytype": "health sub centre", "Facilityname": "Tejagola", "NIN": 7584453638, "latitude": 21.44195, "longitude": 83.59904, "facility_type_standardized": "hsc" }, "geometry": { "type": "Point", "coordinates": [ 83.5985667, 21.442359 ] } },
{ "type": "Feature", "properties": { "Statename": "Odisha", "Districtname": "Bargarh", "Subdistrictname": "Attabira", "Blockname": "Attabira", "Healthblockname": "Attabira", "Healthfacilitytype": "health sub centre", "Facilityname": "Janged", "NIN": 8487157359, "latitude": 21.44245, "longitude": 83.78785, "facility_type_standardized": "hsc" }, "geometry": { "type": "Point", "coordinates": [ 83.7873106, 21.4426996 ] } },
{ "type": "Feature", "properties": { "Statename": "Odisha", "Districtname": "Bargarh", "Subdistrictname": "Bhatli", "Blockname": "Bhatli", "Healthblockname": "Bhatli", "Healthfacilitytype": "health sub centre", "Facilityname": "Kamgaon", "NIN": 4444716577, "latitude": 21.44443, "longitude": 83.63757, "facility_type_standardized": "hsc" }, "geometry": { "type": "Point", "coordinates": [ 83.6355349, 21.4456834 ] } },
{ "type": "Feature", "properties": { "Statename": "Odisha", "Districtname": "Bargarh", "Subdistrictname": "Attabira", "Blockname": "Attabira", "Healthblockname": "Attabira", "Healthfacilitytype": "health sub centre", "Facilityname": "Lahanda", "NIN": 5588427335, "latitude": 21.4484, "longitude": 83.85548, "facility_type_standardized": "hsc" }, "geometry": { "type": "Point", "coordinates": [ 83.8588742, 21.4461956 ] } },
{ "type": "Feature", "properties": { "Statename": "Odisha", "Districtname": "Bargarh", "Subdistrictname": "Bhatli", "Blockname": "Bhatli", "Healthblockname": "Bhatli", "Healthfacilitytype": "health sub centre", "Facilityname": "Sulsulia", "NIN": 6444454414, "latitude": 21.4537, "longitude": 83.44802, "facility_type_standardized": "hsc" }, "geometry": { "type": "Point", "coordinates": [ 83.4434294, 21.4488871 ] } },
{ "type": "Feature", "properties": { "Statename": "Odisha", "Districtname": "Bargarh", "Subdistrictname": "Bhatli", "Blockname": "Bhatli", "Healthblockname": "Bhatli", "Healthfacilitytype": "health sub centre", "Facilityname": "Bhatli", "NIN": 5374428422, "latitude": 21.45523, "longitude": 83.53945, "facility_type_standardized": "hsc" }, "geometry": { "type": "Point", "coordinates": [ 83.5352647, 21.455575 ] } },
{ "type": "Feature", "properties": { "Statename": "Odisha", "Districtname": "Bargarh", "Subdistrictname": "Attabira", "Blockname": "Attabira", "Healthblockname": "Attabira", "Healthfacilitytype": "health sub centre", "Facilityname": "Tangarpali", "NIN": 2133537114, "latitude": 21.45922, "longitude": 83.71751, "facility_type_standardized": "hsc" }, "geometry": { "type": "Point", "coordinates": [ 83.7200582, 21.4586754 ] } },
{ "type": "Feature", "properties": { "Statename": "Odisha", "Districtname": "Bargarh", "Subdistrictname": "Attabira", "Blockname": "Attabira", "Healthblockname": "Attabira", "Healthfacilitytype": "health sub centre", "Facilityname": "Silet", "NIN": 5743373374, "latitude": 21.45977, "longitude": 83.81761, "facility_type_standardized": "hsc" }, "geometry": { "type": "Point", "coordinates": [ 83.8300556, 21.453523 ] } },
{ "type": "Feature", "properties": { "Statename": "Odisha", "Districtname": "Bargarh", "Subdistrictname": "Attabira", "Blockname": "Attabira", "Healthblockname": "Attabira", "Healthfacilitytype": "health sub centre", "Facilityname": "Paharsrigida", "NIN": 7744142642, "latitude": 21.47565, "longitude": 83.76066, "facility_type_standardized": "hsc" }, "geometry": { "type": "Point", "coordinates": [ 83.7575367, 21.4770194 ] } },
{ "type": "Feature", "properties": { "Statename": "Odisha", "Districtname": "Bargarh", "Subdistrictname": "Bhatli", "Blockname": "Bhatli", "Healthblockname": "Bhatli", "Healthfacilitytype": "health sub centre", "Facilityname": "Mulbar", "NIN": 3187486653, "latitude": 21.47574, "longitude": 83.59126, "facility_type_standardized": "hsc" }, "geometry": { "type": "Point", "coordinates": [ 83.5994046, 21.4890473 ] } },
{ "type": "Feature", "properties": { "Statename": "Odisha", "Districtname": "Bargarh", "Subdistrictname": "Bhatli", "Blockname": "Bhatli", "Healthblockname": "Bhatli", "Healthfacilitytype": "health sub centre", "Facilityname": "Kelendapali", "NIN": 4153166154, "latitude": 21.49682, "longitude": 83.4923, "facility_type_standardized": "hsc" }, "geometry": { "type": "Point", "coordinates": [ 83.4840178, 21.4962691 ] } },
{ "type": "Feature", "properties": { "Statename": "Odisha", "Districtname": "Bargarh", "Subdistrictname": "Ambabhona", "Blockname": "Ambabhona", "Healthblockname": "Ambabhona", "Healthfacilitytype": "health sub centre", "Facilityname": "Kumbho", "NIN": 5145652557, "latitude": 21.50434, "longitude": 83.36084, "facility_type_standardized": "hsc" }, "geometry": { "type": "Point", "coordinates": [ 83.3622964, 21.5101828 ] } },
{ "type": "Feature", "properties": { "Statename": "Odisha", "Districtname": "Bargarh", "Subdistrictname": "Ambabhona", "Blockname": "Ambabhona", "Healthblockname": "Ambabhona", "Healthfacilitytype": "health sub centre", "Facilityname": "Kandapala", "NIN": 8825457271, "latitude": 21.55284, "longitude": 83.39659, "facility_type_standardized": "hsc" }, "geometry": { "type": "Point", "coordinates": [ 83.397764, 21.5523045 ] } },
{ "type": "Feature", "properties": { "Statename": "Odisha", "Districtname": "Bargarh", "Subdistrictname": "Ambabhona", "Blockname": "Ambabhona", "Healthblockname": "Ambabhona", "Healthfacilitytype": "health sub centre", "Facilityname": "Jharpali", "NIN": 6273511136, "latitude": 21.57325, "longitude": 83.44931, "facility_type_standardized": "hsc" }, "geometry": { "type": "Point", "coordinates": [ 83.4468457, 21.5734142 ] } },
{ "type": "Feature", "properties": { "Statename": "Odisha", "Districtname": "Bargarh", "Subdistrictname": "Ambabhona", "Blockname": "Ambabhona", "Healthblockname": "Ambabhona", "Healthfacilitytype": "health sub centre", "Facilityname": "Ambabhona", "NIN": 8628643358, "latitude": 21.57747, "longitude": 83.47279, "facility_type_standardized": "hsc" }, "geometry": { "type": "Point", "coordinates": [ 83.4736048, 21.578076 ] } },
{ "type": "Feature", "properties": { "Statename": "Odisha", "Districtname": "Bargarh", "Subdistrictname": "Ambabhona", "Blockname": "Ambabhona", "Healthblockname": "Ambabhona", "Healthfacilitytype": "health sub centre", "Facilityname": "Bhukta", "NIN": 7481785322, "latitude": 21.58957, "longitude": 83.42518, "facility_type_standardized": "hsc" }, "geometry": { "type": "Point", "coordinates": [ 83.4260107, 21.5899363 ] } },
{ "type": "Feature", "properties": { "Statename": "Odisha", "Districtname": "Bargarh", "Subdistrictname": "Ambabhona", "Blockname": "Ambabhona", "Healthblockname": "Ambabhona", "Healthfacilitytype": "health sub centre", "Facilityname": "Ruchida", "NIN": 5456474344, "latitude": 21.60955, "longitude": 83.39369, "facility_type_standardized": "hsc" }, "geometry": { "type": "Point", "coordinates": [ 83.3941122, 21.6071402 ] } },
{ "type": "Feature", "properties": { "Statename": "Odisha", "Districtname": "Bargarh", "Subdistrictname": "Ambabhona", "Blockname": "Ambabhona", "Healthblockname": "Ambabhona", "Healthfacilitytype": "health sub centre", "Facilityname": "Bhointara", "NIN": 8445124863, "latitude": 21.62458, "longitude": 83.43371, "facility_type_standardized": "hsc" }, "geometry": { "type": "Point", "coordinates": [ 83.4341454, 21.6263114 ] } },
{ "type": "Feature", "properties": { "Statename": "Odisha", "Districtname": "Bargarh", "Subdistrictname": "Ambabhona", "Blockname": "Ambabhona", "Healthblockname": "Ambabhona", "Healthfacilitytype": "health sub centre", "Facilityname": "Banjipali", "NIN": 7446574233, "latitude": 21.63966, "longitude": 83.51447, "facility_type_standardized": "hsc" }, "geometry": { "type": "Point", "coordinates": [ 83.5169747, 21.6377993 ] } },
{ "type": "Feature", "properties": { "Statename": "Odisha", "Districtname": "Bargarh", "Subdistrictname": "Ambabhona", "Blockname": "Ambabhona", "Healthblockname": "Ambabhona", "Healthfacilitytype": "health sub centre", "Facilityname": "Lakhanpur", "NIN": 8763433235, "latitude": 21.6407, "longitude": 83.61229, "facility_type_standardized": "hsc" }, "geometry": { "type": "Point", "coordinates": [ 83.612299, 21.6409225 ] } },
{ "type": "Feature", "properties": { "Statename": "Odisha", "Districtname": "Bargarh", "Subdistrictname": "Ambabhona", "Blockname": "Ambabhona", "Healthblockname": "Ambabhona", "Healthfacilitytype": "health sub centre", "Facilityname": "Uttam", "NIN": 1654383783, "latitude": 21.68223, "longitude": 83.61564, "facility_type_standardized": "hsc" }, "geometry": { "type": "Point", "coordinates": [ 83.6134578, 21.6815534 ] } },
{ "type": "Feature", "properties": { "Statename": "Odisha", "Districtname": "Bargarh", "Subdistrictname": "Ambabhona", "Blockname": "Ambabhona", "Healthblockname": "Ambabhona", "Healthfacilitytype": "health sub centre", "Facilityname": "Lather", "NIN": 5641535124, "latitude": 21.69111, "longitude": 83.59805, "facility_type_standardized": "hsc" }, "geometry": { "type": "Point", "coordinates": [ 83.5995948, 21.6949933 ] } },
{ "type": "Feature", "properties": { "Statename": "Odisha", "Districtname": "Bargarh", "Subdistrictname": "Ambabhona", "Blockname": "Ambabhona", "Healthblockname": "Ambabhona", "Healthfacilitytype": "health sub centre", "Facilityname": "DUNGURI", "NIN": 5647765865, "latitude": 21.70099, "longitude": 83.57365, "facility_type_standardized": "hsc" }, "geometry": { "type": "Point", "coordinates": [ 83.5661813, 21.7006942 ] } }
]
}
