{
"type": "FeatureCollection",
"name": "dhenkanal_hsc_snapped",
"crs": { "type": "name", "properties": { "name": "urn:ogc:def:crs:OGC:1.3:CRS84" } },
"features": [
{ "type": "Feature", "properties": { "Statename": "Odisha", "Districtname": "Dhenkanal", "Subdistrictname": "Bhusan Steel Limited", "Blockname": "Odapada", "Healthblockname": "Odapada", "Healthfacilitytype": "health sub centre", "Facilityname": "Manapur", "NIN": 3543646479, "latitude": 20.51377, "longitude": 85.42372, "facility_type_standardized": "hsc" }, "geometry": { "type": "Point", "coordinates": [ 85.4141146, 20.524108 ] } },
{ "type": "Feature", "properties": { "Statename": "Odisha", "Districtname": "Dhenkanal", "Subdistrictname": "Dhenkanal Sadar", "Blockname": "Dhenkanal Sadar", "Healthblockname": "Dhenkanal", "Healthfacilitytype": "health sub centre", "Facilityname": "Chandrasekharprasad", "NIN": 4386545828, "latitude": 20.5335, "longitude": 85.48675, "facility_type_standardized": "hsc" }, "geometry": { "type": "Point", "coordinates": [ 85.4853918, 20.5329742 ] } },
{ "type": "Feature", "properties": { "Statename": "Odisha", "Districtname": "Dhenkanal", "Subdistrictname": "Dhenkanal Sadar", "Blockname": "Dhenkanal Sadar", "Healthblockname": "Dhenkanal", "Healthfacilitytype": "health sub centre", "Facilityname": "Dhirapatna", "NIN": 2741123125, "latitude": 20.5414, "longitude": 85.56669, "facility_type_standardized": "hsc" }, "geometry": { "type": "Point", "coordinates": [ 85.5805713, 20.5251235 ] } },
{ "type": "Feature", "properties": { "Statename": "Odisha", "Districtname": "Dhenkanal", "Subdistrictname": "Dhenkanal Sadar", "Blockname": "Odapada", "Healthblockname": "Odapada", "Healthfacilitytype": "health sub centre", "Facilityname": "Kalanga", "NIN": 3336675842, "latitude": 20.54333, "longitude": 85.40687, "facility_type_standardized": "hsc" }, "geometry": { "type": "Point", "coordinates": [ 85.3968153, 20.5370366 ] } },
{ "type": "Feature", "properties": { "Statename": "Odisha", "Districtname": "Dhenkanal", "Subdistrictname": "Dhenkanal Sadar", "Blockname": "Dhenkanal Sadar", "Healthblockname": "Dhenkanal", "Healthfacilitytype": "health sub centre", "Facilityname": "Baliamba", "NIN": 6868122489, "latitude": 20.55325, "longitude": 85.52399, "facility_type_standardized": "hsc" }, "geometry": { "type": "Point", "coordinates": [ 85.509411, 20.5469928 ] } },
{ "type": "Feature", "properties": { "Statename": "Odisha", "Districtname": "Dhenkanal", "Subdistrictname": "Rasol", "Blockname": "Hindol", "Healthblockname": "Hindol", "Healthfacilitytype": "health sub centre", "Facilityname": "Khaliborei", "NIN": 8642876315, "latitude": 20.55634, "longitude": 85.34992, "facility_type_standardized": "hsc" }, "geometry": { "type": "Point", "coordinates": [ 85.3485212, 20.557109 ] } },
{ "type": "Feature", "properties": { "Statename": "Odisha", "Districtname": "Dhenkanal", "Subdistrictname": "Dhenkanal Sadar", "Blockname": "Dhenkanal Sadar", "Healthblockname": "Dhenkanal", "Healthfacilitytype": "health sub centre", "Facilityname": "Bhapur", "NIN": 3254577780, "latitude": 20.56254, "longitude": 85.476, "facility_type_standardized": "hsc" }, "geometry": { "type": "Point", "coordinates": [ 85.4827611, 20.5667853 ] } },
{ "type": "Feature", "properties": { "Statename": "Odisha", "Districtname": "Dhenkanal", "Subdistrictname": "Dhenkanal Sadar", "Blockname": "Dhenkanal Sadar", "Healthblockname": "Dhenkanal", "Healthfacilitytype": "health sub centre", "Facilityname": "Talabarkote", "NIN": 8884762116, "latitude": 20.57382, "longitude": 85.63243, "facility_type_standardized": "hsc" }, "geometry": { "type": "Point", "coordinates": [ 85.6317276, 20.5717836 ] } },
{ "type": "Feature", "properties": { "Statename": "Odisha", "Districtname": "Dhenkanal", "Subdistrictname": "Dhenkanal Sadar", "Blockname": "Dhenkanal Sadar", "Healthblockname": "Dhenkanal", "Healthfacilitytype": "health sub centre", "Facilityname": "Patrabhaga", "NIN": 3888158619, "latitude": 20.57894, "longitude": 85.60154, "facility_type_standardized": "hsc" }, "geometry": { "type": "Point", "coordinates": [ 85.59417, 20.57974 ] } },
{ "type": "Feature", "properties": { "Statename": "Odisha", "Districtname": "Dhenkanal", "Subdistrictname": "Dhenkanal Sadar", "Blockname": "Dhenkanal Sadar", "Healthblockname": "Dhenkanal", "Healthfacilitytype": "health sub centre", "Facilityname": "Koilipangi", "NIN": 3678148358, "latitude": 20.57964, "longitude": 85.4982, "facility_type_standardized": "hsc" }, "geometry": { "type": "Point", "coordinates": [ 85.4931184, 20.5639298 ] } },
{ "type": "Feature", "properties": { "Statename": "Odisha", "Districtname": "Dhenkanal", "Subdistrictname": "Dhenkanal Sadar", "Blockname": "Dhenkanal Sadar", "Healthblockname": "Dhenkanal", "Healthfacilitytype": "health sub centre", "Facilityname": "Nadiali", "NIN": 7475425448, "latitude": 20.58202, "longitude": 85.65348, "facility_type_standardized": "hsc" }, "geometry": { "type": "Point", "coordinates": [ 85.6544942, 20.5853145 ] } },
{ "type": "Feature", "properties": { "Statename": "Odisha", "Districtname": "Dhenkanal", "Subdistrictname": "Dhenkanal Sadar", "Blockname": "Odapada", "Healthblockname": "Odapada", "Healthfacilitytype": "health sub centre", "Facilityname": "Kottam", "NIN": 6868234532, "latitude": 20.58371, "longitude": 85.41168, "facility_type_standardized": "hsc" }, "geometry": { "type": "Point", "coordinates": [ 85.4031277, 20.5878016 ] } },
{ "type": "Feature", "properties": { "Statename": "Odisha", "Districtname": "Dhenkanal", "Subdistrictname": "Rasol", "Blockname": "Hindol", "Healthblockname": "Hindol", "Healthfacilitytype": "health sub centre", "Facilityname": "Gandanali", "NIN": 3828357420, "latitude": 20.59193, "longitude": 85.36621, "facility_type_standardized": "hsc" }, "geometry": { "type": "Point", "coordinates": [ 85.3673674, 20.5896935 ] } },
{ "type": "Feature", "properties": { "Statename": "Odisha", "Districtname": "Dhenkanal", "Subdistrictname": "Dhenkanal Sadar", "Blockname": "Dhenkanal Sadar", "Healthblockname": "Dhenkanal", "Healthfacilitytype": "health sub centre", "Facilityname": "Baladiabandha", "NIN": 1357251568, "latitude": 20.59644, "longitude": 85.64822, "facility_type_standardized": "hsc" }, "geometry": { "type": "Point", "coordinates": [ 85.6486499, 20.5968128 ] } },
{ "type": "Feature", "properties": { "Statename": "Odisha", "Districtname": "Dhenkanal", "Subdistrictname": "Dhenkanal Sadar", "Blockname": "Odapada", "Healthblockname": "Odapada", "Healthfacilitytype": "health sub centre", "Facilityname": "Ghatipiri", "NIN": 3464633589, "latitude": 20.60438, "longitude": 85.45665, "facility_type_standardized": "hsc" }, "geometry": { "type": "Point", "coordinates": [ 85.4419503, 20.5754419 ] } },
{ "type": "Feature", "properties": { "Statename": "Odisha", "Districtname": "Dhenkanal", "Subdistrictname": "Rasol", "Blockname": "Hindol", "Healthblockname": "Hindol", "Healthfacilitytype": "health sub centre", "Facilityname": "Kunua", "NIN": 2831778366, "latitude": 20.60997, "longitude": 85.35782, "facility_type_standardized": "hsc" }, "geometry": { "type": "Point", "coordinates": [ 85.3492249, 20.6060209 ] } },
{ "type": "Feature", "properties": { "Statename": "Odisha", "Districtname": "Dhenkanal", "Subdistrictname": "Rasol", "Blockname": "Hindol", "Healthblockname": "Hindol", "Healthfacilitytype": "health sub centre", "Facilityname": "Naukiari", "NIN": 3217511330, "latitude": 20.61259, "longitude": 85.33296, "facility_type_standardized": "hsc" }, "geometry": { "type": "Point", "coordinates": [ 85.3320658, 20.6224246 ] } },
{ "type": "Feature", "properties": { "Statename": "Odisha", "Districtname": "Dhenkanal", "Subdistrictname": "Dhenkanal Sadar", "Blockname": "Dhenkanal Sadar", "Healthblockname": "Dhenkanal", "Healthfacilitytype": "health sub centre", "Facilityname": "Govindapur", "NIN": 8484317311, "latitude": 20.61317, "longitude": 85.64854, "facility_type_standardized": "hsc" }, "geometry": { "type": "Point", "coordinates": [ 85.64325, 20.6145282 ] } },
{ "type": "Feature", "properties": { "Statename": "Odisha", "Districtname": "Dhenkanal", "Subdistrictname": "Hindol", "Blockname": "Hindol", "Healthblockname": "Hindol", "Healthfacilitytype": "health sub centre", "Facilityname": "Madhapur", "NIN": 3868443213, "latitude": 20.61892, "longitude": 85.28839, "facility_type_standardized": "hsc" }, "geometry": { "type": "Point", "coordinates": [ 85.2941106, 20.6144412 ] } },
{ "type": "Feature", "properties": { "Statename": "Odisha", "Districtname": "Dhenkanal", "Subdistrictname": "Hindol", "Blockname": "Hindol", "Healthblockname": "Hindol", "Healthfacilitytype": "health sub centre", "Facilityname": "Rajmohanpur", "NIN": 2637387362, "latitude": 20.62476, "longitude": 85.24316, "facility_type_standardized": "hsc" }, "geometry": { "type": "Point", "coordinates": [ 85.2213573, 20.6220521 ] } },
{ "type": "Feature", "properties": { "Statename": "Odisha", "Districtname": "Dhenkanal", "Subdistrictname": "Rasol", "Blockname": "Hindol", "Healthblockname": "Hindol", "Healthfacilitytype": "health sub centre", "Facilityname": "Rasol", "NIN": 8363732283, "latitude": 20.62495, "longitude": 85.31112, "facility_type_standardized": "hsc" }, "geometry": { "type": "Point", "coordinates": [ 85.3146422, 20.6263681 ] } },
{ "type": "Feature", "properties": { "Statename": "Odisha", "Districtname": "Dhenkanal", "Subdistrictname": "Balimi", "Blockname": "Hindol", "Healthblockname": "Hindol", "Healthfacilitytype": "health sub centre", "Facilityname": "Khajurikata", "NIN": 3867417424, "latitude": 20.62587, "longitude": 85.19939, "facility_type_standardized": "hsc" }, "geometry": { "type": "Point", "coordinates": [ 85.2039389, 20.6204853 ] } },
{ "type": "Feature", "properties": { "Statename": "Odisha", "Districtname": "Dhenkanal", "Subdistrictname": "Dhenkanal Sadar", "Blockname": "Dhenkanal Sadar", "Healthblockname": "Dhenkanal", "Healthfacilitytype": "health sub centre", "Facilityname": "Bhaliabol kateni", "NIN": 4218827584, "latitude": 20.63175, "longitude": 85.52761, "facility_type_standardized": "hsc" }, "geometry": { "type": "Point", "coordinates": [ 85.5273896, 20.6320941 ] } },
{ "type": "Feature", "properties": { "Statename": "Odisha", "Districtname": "Dhenkanal", "Subdistrictname": "Hindol", "Blockname": "Hindol", "Healthblockname": "Hindol", "Healthfacilitytype": "health sub centre", "Facilityname": "Nuakote", "NIN": 2814767287, "latitude": 20.6347, "longitude": 85.15723, "facility_type_standardized": "hsc" }, "geometry": { "type": "Point", "coordinates": [ 85.15499, 20.6316661 ] } },
{ "type": "Feature", "properties": { "Statename": "Odisha", "Districtname": "Dhenkanal", "Subdistrictname": "Dhenkanal Sadar", "Blockname": "Dhenkanal Sadar", "Healthblockname": "Dhenkanal", "Healthfacilitytype": "health sub centre", "Facilityname": "Kankadahad", "NIN": 2834436632, "latitude": 20.63491, "longitude": 85.54981, "facility_type_standardized": "hsc" }, "geometry": { "type": "Point", "coordinates": [ 85.5476194, 20.632887 ] } },
{ "type": "Feature", "properties": { "Statename": "Odisha", "Districtname": "Dhenkanal", "Subdistrictname": "Hindol", "Blockname": "Hindol", "Healthblockname": "Hindol", "Healthfacilitytype": "health sub centre", "Facilityname": "Baunsapokhari", "NIN": 4628358667, "latitude": 20.64147, "longitude": 85.17103, "facility_type_standardized": "hsc" }, "geometry": { "type": "Point", "coordinates": [ 85.167875, 20.6398083 ] } },
{ "type": "Feature", "properties": { "Statename": "Odisha", "Districtname": "Dhenkanal", "Subdistrictname": "Dhenkanal Sadar", "Blockname": "Odapada", "Healthblockname": "Odapada", "Healthfacilitytype": "health sub centre", "Facilityname": "Kandabindha", "NIN": 4267778522, "latitude": 20.65423, "longitude": 85.49294, "facility_type_standardized": "hsc" }, "geometry": { "type": "Point", "coordinates": [ 85.52438, 20.66572 ] } },
{ "type": "Feature", "properties": { "Statename": "Odisha", "Districtname": "Dhenkanal", "Subdistrictname": "Rasol", "Blockname": "Hindol", "Healthblockname": "Hindol", "Healthfacilitytype": "health sub centre", "Facilityname": "Chitalpur", "NIN": 4235873462, "latitude": 20.66214, "longitude": 85.32243, "facility_type_standardized": "hsc" }, "geometry": { "type": "Point", "coordinates": [ 85.3295148, 20.6598262 ] } },
{ "type": "Feature", "properties": { "Statename": "Odisha", "Districtname": "Dhenkanal", "Subdistrictname": "Rasol", "Blockname": "Hindol", "Healthblockname": "Hindol", "Healthfacilitytype": "health sub centre", "Facilityname": "Brahmanipal", "NIN": 8435681823, "latitude": 20.66364, "longitude": 85.43506, "facility_type_standardized": "hsc" }, "geometry": { "type": "Point", "coordinates": [ 85.446859, 20.6993606 ] } },
{ "type": "Feature", "properties": { "Statename": "Odisha", "Districtname": "Dhenkanal", "Subdistrictname": "Dhenkanal Sadar", "Blockname": "Odapada", "Healthblockname": "Odapada", "Healthfacilitytype": "health sub centre", "Facilityname": "Indipur", "NIN": 4876851181, "latitude": 20.66505, "longitude": 85.53319, "facility_type_standardized": "hsc" }, "geometry": { "type": "Point", "coordinates": [ 85.52859, 20.66693 ] } },
{ "type": "Feature", "properties": { "Statename": "Odisha", "Districtname": "Dhenkanal", "Subdistrictname": "Dhenkanal Sadar", "Blockname": "Odapada", "Healthblockname": "Odapada", "Healthfacilitytype": "health sub centre", "Facilityname": "Balarampur", "NIN": 4728666365, "latitude": 20.67007, "longitude": 85.47966, "facility_type_standardized": "hsc" }, "geometry": { "type": "Point", "coordinates": [ 85.52438, 20.66572 ] } },
{ "type": "Feature", "properties": { "Statename": "Odisha", "Districtname": "Dhenkanal", "Subdistrictname": "Dhenkanal Sadar", "Blockname": "Odapada", "Healthblockname": "Odapada", "Healthfacilitytype": "health sub centre", "Facilityname": "Besalia", "NIN": 8137768415, "latitude": 20.67181, "longitude": 85.55367, "facility_type_standardized": "hsc" }, "geometry": { "type": "Point", "coordinates": [ 85.5528956, 20.6873167 ] } },
{ "type": "Feature", "properties": { "Statename": "Odisha", "Districtname": "Dhenkanal", "Subdistrictname": "Dhenkanal Sadar", "Blockname": "Dhenkanal Sadar", "Healthblockname": "Dhenkanal", "Healthfacilitytype": "health sub centre", "Facilityname": "Kaimati", "NIN": 6872385544, "latitude": 20.67484, "longitude": 85.66995, "facility_type_standardized": "hsc" }, "geometry": { "type": "Point", "coordinates": [ 85.6708954, 20.6718327 ] } },
{ "type": "Feature", "properties": { "Statename": "Odisha", "Districtname": "Dhenkanal", "Subdistrictname": "Rasol", "Blockname": "Hindol", "Healthblockname": "Hindol", "Healthfacilitytype": "health sub centre", "Facilityname": "Chhotapada", "NIN": 1343876767, "latitude": 20.67719, "longitude": 85.12451, "facility_type_standardized": "hsc" }, "geometry": { "type": "Point", "coordinates": [ 85.1279578, 20.6791927 ] } },
{ "type": "Feature", "properties": { "Statename": "Odisha", "Districtname": "Dhenkanal", "Subdistrictname": "Balimi", "Blockname": "Hindol", "Healthblockname": "Hindol", "Healthfacilitytype": "health sub centre", "Facilityname": "Dudurkote", "NIN": 5617828685, "latitude": 20.68319, "longitude": 85.26159, "facility_type_standardized": "hsc" }, "geometry": { "type": "Point", "coordinates": [ 85.2830725, 20.6698599 ] } },
{ "type": "Feature", "properties": { "Statename": "Odisha", "Districtname": "Dhenkanal", "Subdistrictname": "Dhenkanal Sadar", "Blockname": "Dhenkanal Sadar", "Healthblockname": "Dhenkanal", "Healthfacilitytype": "health sub centre", "Facilityname": "Kankadapal", "NIN": 4678723141, "latitude": 20.69119, "longitude": 85.6177, "facility_type_standardized": "hsc" }, "geometry": { "type": "Point", "coordinates": [ 85.6143604, 20.6974892 ] } },
{ "type": "Feature", "properties": { "Statename": "Odisha", "Districtname": "Dhenkanal", "Subdistrictname": "Dhenkanal Sadar", "Blockname": "Dhenkanal Sadar", "Healthblockname": "Dhenkanal", "Healthfacilitytype": "health sub centre", "Facilityname": "Beltikiri", "NIN": 5788556677, "latitude": 20.69328, "longitude": 85.6908, "facility_type_standardized": "hsc" }, "geometry": { "type": "Point", "coordinates": [ 85.6900858, 20.6946158 ] } },
{ "type": "Feature", "properties": { "Statename": "Odisha", "Districtname": "Dhenkanal", "Subdistrictname": "Hindol", "Blockname": "Hindol", "Healthblockname": "Hindol", "Healthfacilitytype": "health sub centre", "Facilityname": "Hatura", "NIN": 7683485317, "latitude": 20.69426, "longitude": 85.2142, "facility_type_standardized": "hsc" }, "geometry": { "type": "Point", "coordinates": [ 85.1805191, 20.6924296 ] } },
{ "type": "Feature", "properties": { "Statename": "Odisha", "Districtname": "Dhenkanal", "Subdistrictname": "Balimi", "Blockname": "Hindol", "Healthblockname": "Hindol", "Healthfacilitytype": "health sub centre", "Facilityname": "Gulehi", "NIN": 6753638730, "latitude": 20.69455, "longitude": 85.23377, "facility_type_standardized": "hsc" }, "geometry": { "type": "Point", "coordinates": [ 85.2353646, 20.7286259 ] } },
{ "type": "Feature", "properties": { "Statename": "Odisha", "Districtname": "Dhenkanal", "Subdistrictname": "Dhenkanal Sadar", "Blockname": "Dhenkanal Sadar", "Healthblockname": "Dhenkanal", "Healthfacilitytype": "health sub centre", "Facilityname": "Balabhadrapur", "NIN": 1512722271, "latitude": 20.69709, "longitude": 85.58218, "facility_type_standardized": "hsc" }, "geometry": { "type": "Point", "coordinates": [ 85.5783828, 20.6878414 ] } },
{ "type": "Feature", "properties": { "Statename": "Odisha", "Districtname": "Dhenkanal", "Subdistrictname": "Gandia", "Blockname": "Gondia", "Healthblockname": "Gandia", "Healthfacilitytype": "health sub centre", "Facilityname": "Deogaon", "NIN": 3673843326, "latitude": 20.70036, "longitude": 85.74968, "facility_type_standardized": "hsc" }, "geometry": { "type": "Point", "coordinates": [ 85.7487781, 20.6995184 ] } },
{ "type": "Feature", "properties": { "Statename": "Odisha", "Districtname": "Dhenkanal", "Subdistrictname": "Dhenkanal Sadar", "Blockname": "Dhenkanal Sadar", "Healthblockname": "Dhenkanal", "Healthfacilitytype": "health sub centre", "Facilityname": "Derasingh", "NIN": 6382521117, "latitude": 20.7004, "longitude": 85.62582, "facility_type_standardized": "hsc" }, "geometry": { "type": "Point", "coordinates": [ 85.6143604, 20.6974892 ] } },
{ "type": "Feature", "properties": { "Statename": "Odisha", "Districtname": "Dhenkanal", "Subdistrictname": "Motunga", "Blockname": "Odapada", "Healthblockname": "Odapada", "Healthfacilitytype": "health sub centre", "Facilityname": "Dhalapur", "NIN": 1113661431, "latitude": 20.70206, "longitude": 85.52476, "facility_type_standardized": "hsc" }, "geometry": { "type": "Point", "coordinates": [ 85.5241012, 20.7014457 ] } },
{ "type": "Feature", "properties": { "Statename": "Odisha", "Districtname": "Dhenkanal", "Subdistrictname": "Gandia", "Blockname": "Gondia", "Healthblockname": "Gandia", "Healthfacilitytype": "health sub centre", "Facilityname": "Sorisiapada", "NIN": 2763443765, "latitude": 20.70287, "longitude": 85.85391, "facility_type_standardized": "hsc" }, "geometry": { "type": "Point", "coordinates": [ 85.9130859, 20.6644533 ] } },
{ "type": "Feature", "properties": { "Statename": "Odisha", "Districtname": "Dhenkanal", "Subdistrictname": "Rasol", "Blockname": "Hindol", "Healthblockname": "Hindol", "Healthfacilitytype": "health sub centre", "Facilityname": "Khanditiri", "NIN": 7267657869, "latitude": 20.7035, "longitude": 85.37077, "facility_type_standardized": "hsc" }, "geometry": { "type": "Point", "coordinates": [ 85.3568722, 20.6931945 ] } },
{ "type": "Feature", "properties": { "Statename": "Odisha", "Districtname": "Dhenkanal", "Subdistrictname": "Hindol", "Blockname": "Hindol", "Healthblockname": "Hindol", "Healthfacilitytype": "health sub centre", "Facilityname": "Kansara", "NIN": 6767771857, "latitude": 20.71661, "longitude": 85.14803, "facility_type_standardized": "hsc" }, "geometry": { "type": "Point", "coordinates": [ 85.1482674, 20.7241683 ] } },
{ "type": "Feature", "properties": { "Statename": "Odisha", "Districtname": "Dhenkanal", "Subdistrictname": "Rasol", "Blockname": "Hindol", "Healthblockname": "Hindol", "Healthfacilitytype": "health sub centre", "Facilityname": "Karanda", "NIN": 6116176618, "latitude": 20.71747, "longitude": 85.3479, "facility_type_standardized": "hsc" }, "geometry": { "type": "Point", "coordinates": [ 85.3359781, 20.7156725 ] } },
{ "type": "Feature", "properties": { "Statename": "Odisha", "Districtname": "Dhenkanal", "Subdistrictname": "Rasol", "Blockname": "Hindol", "Healthblockname": "Hindol", "Healthfacilitytype": "health sub centre", "Facilityname": "Babandha", "NIN": 4454785140, "latitude": 20.7224, "longitude": 85.42966, "facility_type_standardized": "hsc" }, "geometry": { "type": "Point", "coordinates": [ 85.4266459, 20.7230105 ] } },
{ "type": "Feature", "properties": { "Statename": "Odisha", "Districtname": "Dhenkanal", "Subdistrictname": "Rasol", "Blockname": "Hindol", "Healthblockname": "Hindol", "Healthfacilitytype": "health sub centre", "Facilityname": "Bedapada", "NIN": 1653214310, "latitude": 20.72283, "longitude": 85.40488, "facility_type_standardized": "hsc" }, "geometry": { "type": "Point", "coordinates": [ 85.4058339, 20.7243156 ] } },
{ "type": "Feature", "properties": { "Statename": "Odisha", "Districtname": "Dhenkanal", "Subdistrictname": "Balimi", "Blockname": "Hindol", "Healthblockname": "Hindol", "Healthfacilitytype": "health sub centre", "Facilityname": "Patala", "NIN": 8243223487, "latitude": 20.72589, "longitude": 85.23057, "facility_type_standardized": "hsc" }, "geometry": { "type": "Point", "coordinates": [ 85.2353646, 20.7286259 ] } },
{ "type": "Feature", "properties": { "Statename": "Odisha", "Districtname": "Dhenkanal", "Subdistrictname": "Gandia", "Blockname": "Gondia", "Healthblockname": "Gandia", "Healthfacilitytype": "health sub centre", "Facilityname": "Bidharpur", "NIN": 7884614558, "latitude": 20.72597, "longitude": 85.78565, "facility_type_standardized": "hsc" }, "geometry": { "type": "Point", "coordinates": [ 85.7712422, 20.7335164 ] } },
{ "type": "Feature", "properties": { "Statename": "Odisha", "Districtname": "Dhenkanal", "Subdistrictname": "Balimi", "Blockname": "Hindol", "Healthblockname": "Hindol", "Healthfacilitytype": "health sub centre", "Facilityname": "Barasinga", "NIN": 7111654138, "latitude": 20.72817, "longitude": 85.31141, "facility_type_standardized": "hsc" }, "geometry": { "type": "Point", "coordinates": [ 85.3167971, 20.7035362 ] } },
{ "type": "Feature", "properties": { "Statename": "Odisha", "Districtname": "Dhenkanal", "Subdistrictname": "Dhenkanal Sadar", "Blockname": "Dhenkanal Sadar", "Healthblockname": "Dhenkanal", "Healthfacilitytype": "health sub centre", "Facilityname": "Gengutia", "NIN": 7858576650, "latitude": 20.72826, "longitude": 85.55997, "facility_type_standardized": "hsc" }, "geometry": { "type": "Point", "coordinates": [ 85.5589456, 20.7213843 ] } },
{ "type": "Feature", "properties": { "Statename": "Odisha", "Districtname": "Dhenkanal", "Subdistrictname": "Dhenkanal Sadar", "Blockname": "Odapada", "Healthblockname": "Odapada", "Healthfacilitytype": "health sub centre", "Facilityname": "Sadasivpur", "NIN": 6724662876, "latitude": 20.73178, "longitude": 85.5317, "facility_type_standardized": "hsc" }, "geometry": { "type": "Point", "coordinates": [ 85.5392638, 20.7284743 ] } },
{ "type": "Feature", "properties": { "Statename": "Odisha", "Districtname": "Dhenkanal", "Subdistrictname": "Gandia", "Blockname": "Gondia", "Healthblockname": "Gandia", "Healthfacilitytype": "health sub centre", "Facilityname": "Neulapoi", "NIN": 1836864544, "latitude": 20.73263, "longitude": 85.70921, "facility_type_standardized": "hsc" }, "geometry": { "type": "Point", "coordinates": [ 85.7124465, 20.7335318 ] } },
{ "type": "Feature", "properties": { "Statename": "Odisha", "Districtname": "Dhenkanal", "Subdistrictname": "Dhenkanal Sadar", "Blockname": "Dhenkanal Sadar", "Healthblockname": "Dhenkanal", "Healthfacilitytype": "health sub centre", "Facilityname": "Tarava", "NIN": 1823734775, "latitude": 20.73667, "longitude": 85.60619, "facility_type_standardized": "hsc" }, "geometry": { "type": "Point", "coordinates": [ 85.6115762, 20.7419717 ] } },
{ "type": "Feature", "properties": { "Statename": "Odisha", "Districtname": "Dhenkanal", "Subdistrictname": "Nihalprasad", "Blockname": "Gondia", "Healthblockname": "Gandia", "Healthfacilitytype": "health sub centre", "Facilityname": "Ratanpur", "NIN": 6238528746, "latitude": 20.73935, "longitude": 86.01647, "facility_type_standardized": "hsc" }, "geometry": { "type": "Point", "coordinates": [ 86.0121498, 20.7388246 ] } },
{ "type": "Feature", "properties": { "Statename": "Odisha", "Districtname": "Dhenkanal", "Subdistrictname": "Dhenkanal Sadar", "Blockname": "Odapada", "Healthblockname": "Odapada", "Healthfacilitytype": "health sub centre", "Facilityname": "Baulpur", "NIN": 8281717838, "latitude": 20.74162, "longitude": 85.5153, "facility_type_standardized": "hsc" }, "geometry": { "type": "Point", "coordinates": [ 85.5114752, 20.7309421 ] } },
{ "type": "Feature", "properties": { "Statename": "Odisha", "Districtname": "Dhenkanal", "Subdistrictname": "Balimi", "Blockname": "Hindol", "Healthblockname": "Hindol", "Healthfacilitytype": "health sub centre", "Facilityname": "Nua", "NIN": 5671587870, "latitude": 20.74241, "longitude": 85.3353, "facility_type_standardized": "hsc" }, "geometry": { "type": "Point", "coordinates": [ 85.3359781, 20.7156725 ] } },
{ "type": "Feature", "properties": { "Statename": "Odisha", "Districtname": "Dhenkanal", "Subdistrictname": "Motunga", "Blockname": "Odapada", "Healthblockname": "Odapada", "Healthfacilitytype": "health sub centre", "Facilityname": "Badalo", "NIN": 3567611151, "latitude": 20.74383, "longitude": 85.36919, "facility_type_standardized": "hsc" }, "geometry": { "type": "Point", "coordinates": [ 85.3730023, 20.7761959 ] } },
{ "type": "Feature", "properties": { "Statename": "Odisha", "Districtname": "Dhenkanal", "Subdistrictname": "Nihalprasad", "Blockname": "Gondia", "Healthblockname": "Gandia", "Healthfacilitytype": "health sub centre", "Facilityname": "Laulei", "NIN": 2321132660, "latitude": 20.7514, "longitude": 85.95246, "facility_type_standardized": "hsc" }, "geometry": { "type": "Point", "coordinates": [ 85.9516902, 20.7335192 ] } },
{ "type": "Feature", "properties": { "Statename": "Odisha", "Districtname": "Dhenkanal", "Subdistrictname": "Dhenkanal Sadar", "Blockname": "Dhenkanal Sadar", "Healthblockname": "Dhenkanal", "Healthfacilitytype": "health sub centre", "Facilityname": "Chaulia", "NIN": 4458462548, "latitude": 20.75164, "longitude": 85.64833, "facility_type_standardized": "hsc" }, "geometry": { "type": "Point", "coordinates": [ 85.6469014, 20.7459977 ] } },
{ "type": "Feature", "properties": { "Statename": "Odisha", "Districtname": "Dhenkanal", "Subdistrictname": "Dhenkanal Sadar", "Blockname": "Dhenkanal Sadar", "Healthblockname": "Dhenkanal", "Healthfacilitytype": "health sub centre", "Facilityname": "Tilapada", "NIN": 8188365574, "latitude": 20.75174, "longitude": 85.62591, "facility_type_standardized": "hsc" }, "geometry": { "type": "Point", "coordinates": [ 85.6206134, 20.7453678 ] } },
{ "type": "Feature", "properties": { "Statename": "Odisha", "Districtname": "Dhenkanal", "Subdistrictname": "Bhusan Steel Limited", "Blockname": "Hindol", "Healthblockname": "Hindol", "Healthfacilitytype": "health sub centre", "Facilityname": "Paikapurunakote", "NIN": 5643346777, "latitude": 20.75372, "longitude": 85.24511, "facility_type_standardized": "hsc" }, "geometry": { "type": "Point", "coordinates": [ 85.261214, 20.7437497 ] } },
{ "type": "Feature", "properties": { "Statename": "Odisha", "Districtname": "Dhenkanal", "Subdistrictname": "Nihalprasad", "Blockname": "Gondia", "Healthblockname": "Gandia", "Healthfacilitytype": "health sub centre", "Facilityname": "Bega", "NIN": 4443234812, "latitude": 20.75524, "longitude": 85.96515, "facility_type_standardized": "hsc" }, "geometry": { "type": "Point", "coordinates": [ 85.9516902, 20.7335192 ] } },
{ "type": "Feature", "properties": { "Statename": "Odisha", "Districtname": "Dhenkanal", "Subdistrictname": "Motunga", "Blockname": "Odapada", "Healthblockname": "Odapada", "Healthfacilitytype": "health sub centre", "Facilityname": "Gunadei", "NIN": 5427486633, "latitude": 20.75909, "longitude": 85.46793, "facility_type_standardized": "hsc" }, "geometry": { "type": "Point", "coordinates": [ 85.4640294, 20.7470367 ] } },
{ "type": "Feature", "properties": { "Statename": "Odisha", "Districtname": "Dhenkanal", "Subdistrictname": "Tumusingha", "Blockname": "Kamakhyanagar", "Healthblockname": "Kamakhyanagar", "Healthfacilitytype": "health sub centre", "Facilityname": "Rai Narsingh Pur", "NIN": 6387681270, "latitude": 20.76069, "longitude": 85.54993, "facility_type_standardized": "hsc" }, "geometry": { "type": "Point", "coordinates": [ 85.5527636, 20.756102 ] } },
{ "type": "Feature", "properties": { "Statename": "Odisha", "Districtname": "Dhenkanal", "Subdistrictname": "Gandia", "Blockname": "Gondia", "Healthblockname": "Gandia", "Healthfacilitytype": "health sub centre", "Facilityname": "Sriram Chandra Pur", "NIN": 8487162276, "latitude": 20.76414, "longitude": 85.79497, "facility_type_standardized": "hsc" }, "geometry": { "type": "Point", "coordinates": [ 85.8045547, 20.7765851 ] } },
{ "type": "Feature", "properties": { "Statename": "Odisha", "Districtname": "Dhenkanal", "Subdistrictname": "Tumusingha", "Blockname": "Kamakhyanagar", "Healthblockname": "Kamakhyanagar", "Healthfacilitytype": "health sub centre", "Facilityname": "Kotagara", "NIN": 7128186876, "latitude": 20.76611, "longitude": 85.52914, "facility_type_standardized": "hsc" }, "geometry": { "type": "Point", "coordinates": [ 85.531431, 20.7659249 ] } },
{ "type": "Feature", "properties": { "Statename": "Odisha", "Districtname": "Dhenkanal", "Subdistrictname": "Tumusingha", "Blockname": "Kamakhyanagar", "Healthblockname": "Kamakhyanagar", "Healthfacilitytype": "health sub centre", "Facilityname": "Sogar", "NIN": 1622571261, "latitude": 20.76676, "longitude": 85.59835, "facility_type_standardized": "hsc" }, "geometry": { "type": "Point", "coordinates": [ 85.5978858, 20.7640623 ] } },
{ "type": "Feature", "properties": { "Statename": "Odisha", "Districtname": "Dhenkanal", "Subdistrictname": "Motunga", "Blockname": "Odapada", "Healthblockname": "Odapada", "Healthfacilitytype": "health sub centre", "Facilityname": "Nimidha", "NIN": 2478736560, "latitude": 20.76756, "longitude": 85.33527, "facility_type_standardized": "hsc" }, "geometry": { "type": "Point", "coordinates": [ 85.3401775, 20.772921 ] } },
{ "type": "Feature", "properties": { "Statename": "Odisha", "Districtname": "Dhenkanal", "Subdistrictname": "Motunga", "Blockname": "Odapada", "Healthblockname": "Odapada", "Healthfacilitytype": "health sub centre", "Facilityname": "Odapada", "NIN": 4211165339, "latitude": 20.77076, "longitude": 85.43615, "facility_type_standardized": "hsc" }, "geometry": { "type": "Point", "coordinates": [ 85.4325907, 20.7596002 ] } },
{ "type": "Feature", "properties": { "Statename": "Odisha", "Districtname": "Dhenkanal", "Subdistrictname": "Gandia", "Blockname": "Gondia", "Healthblockname": "Gandia", "Healthfacilitytype": "health sub centre", "Facilityname": "Mathatentulia", "NIN": 8245642742, "latitude": 20.77233, "longitude": 85.83957, "facility_type_standardized": "hsc" }, "geometry": { "type": "Point", "coordinates": [ 85.8045547, 20.7765851 ] } },
{ "type": "Feature", "properties": { "Statename": "Odisha", "Districtname": "Dhenkanal", "Subdistrictname": "Tumusingha", "Blockname": "Kamakhyanagar", "Healthblockname": "Kamakhyanagar", "Healthfacilitytype": "health sub centre", "Facilityname": "Kantioputasahi", "NIN": 8457723420, "latitude": 20.7747, "longitude": 85.51009, "facility_type_standardized": "hsc" }, "geometry": { "type": "Point", "coordinates": [ 85.5095552, 20.7779924 ] } },
{ "type": "Feature", "properties": { "Statename": "Odisha", "Districtname": "Dhenkanal", "Subdistrictname": "Tumusingha", "Blockname": "Kamakhyanagar", "Healthblockname": "Kamakhyanagar", "Healthfacilitytype": "health sub centre", "Facilityname": "Guneibili", "NIN": 4677336424, "latitude": 20.77686, "longitude": 85.54887, "facility_type_standardized": "hsc" }, "geometry": { "type": "Point", "coordinates": [ 85.546529, 20.777512 ] } },
{ "type": "Feature", "properties": { "Statename": "Odisha", "Districtname": "Dhenkanal", "Subdistrictname": "Motunga", "Blockname": "Odapada", "Healthblockname": "Odapada", "Healthfacilitytype": "health sub centre", "Facilityname": "Bangurisingh", "NIN": 1773713886, "latitude": 20.77697, "longitude": 85.42433, "facility_type_standardized": "hsc" }, "geometry": { "type": "Point", "coordinates": [ 85.4184323, 20.7657149 ] } },
{ "type": "Feature", "properties": { "Statename": "Odisha", "Districtname": "Dhenkanal", "Subdistrictname": "Balimi", "Blockname": "Hindol", "Healthblockname": "Hindol", "Healthfacilitytype": "health sub centre", "Facilityname": "Galpada", "NIN": 7215773883, "latitude": 20.77733, "longitude": 85.29289, "facility_type_standardized": "hsc" }, "geometry": { "type": "Point", "coordinates": [ 85.3121379, 20.7854178 ] } },
{ "type": "Feature", "properties": { "Statename": "Odisha", "Districtname": "Dhenkanal", "Subdistrictname": "Bhusan Steel Limited", "Blockname": "Hindol", "Healthblockname": "Hindol", "Healthfacilitytype": "health sub centre", "Facilityname": "Khaliberana", "NIN": 8633852671, "latitude": 20.77942, "longitude": 85.23763, "facility_type_standardized": "hsc" }, "geometry": { "type": "Point", "coordinates": [ 85.2388886, 20.7835653 ] } },
{ "type": "Feature", "properties": { "Statename": "Odisha", "Districtname": "Dhenkanal", "Subdistrictname": "Motunga", "Blockname": "Odapada", "Healthblockname": "Odapada", "Healthfacilitytype": "health sub centre", "Facilityname": "Balaramprasad", "NIN": 3822757740, "latitude": 20.78276, "longitude": 85.39959, "facility_type_standardized": "hsc" }, "geometry": { "type": "Point", "coordinates": [ 85.3907237, 20.7729412 ] } },
{ "type": "Feature", "properties": { "Statename": "Odisha", "Districtname": "Dhenkanal", "Subdistrictname": "Gandia", "Blockname": "Gondia", "Healthblockname": "Gandia", "Healthfacilitytype": "health sub centre", "Facilityname": "Santhapur", "NIN": 8657843226, "latitude": 20.78896, "longitude": 85.76043, "facility_type_standardized": "hsc" }, "geometry": { "type": "Point", "coordinates": [ 85.7618093, 20.790025 ] } },
{ "type": "Feature", "properties": { "Statename": "Odisha", "Districtname": "Dhenkanal", "Subdistrictname": "Gandia", "Blockname": "Gondia", "Healthblockname": "Gandia", "Healthfacilitytype": "health sub centre", "Facilityname": "Kabera Madhapur", "NIN": 1533114235, "latitude": 20.79059, "longitude": 85.73854, "facility_type_standardized": "hsc" }, "geometry": { "type": "Point", "coordinates": [ 85.7255512, 20.791038 ] } },
{ "type": "Feature", "properties": { "Statename": "Odisha", "Districtname": "Dhenkanal", "Subdistrictname": "Gandia", "Blockname": "Gondia", "Healthblockname": "Gandia", "Healthfacilitytype": "health sub centre", "Facilityname": "Joranda", "NIN": 4486666656, "latitude": 20.79332, "longitude": 85.72895, "facility_type_standardized": "hsc" }, "geometry": { "type": "Point", "coordinates": [ 85.7255512, 20.791038 ] } },
{ "type": "Feature", "properties": { "Statename": "Odisha", "Districtname": "Dhenkanal", "Subdistrictname": "Tumusingha", "Blockname": "Kamakhyanagar", "Healthblockname": "Kamakhyanagar", "Healthfacilitytype": "health sub centre", "Facilityname": "Tumusinga", "NIN": 5825486284, "latitude": 20.79436, "longitude": 85.48196, "facility_type_standardized": "hsc" }, "geometry": { "type": "Point", "coordinates": [ 85.502613, 20.7810487 ] } },
{ "type": "Feature", "properties": { "Statename": "Odisha", "Districtname": "Dhenkanal", "Subdistrictname": "Dhenkanal Sadar", "Blockname": "Dhenkanal Sadar", "Healthblockname": "Dhenkanal", "Healthfacilitytype": "health sub centre", "Facilityname": "Ratnapur", "NIN": 3875478210, "latitude": 20.79575, "longitude": 85.63549, "facility_type_standardized": "hsc" }, "geometry": { "type": "Point", "coordinates": [ 85.6338869, 20.7933072 ] } },
{ "type": "Feature", "properties": { "Statename": "Odisha", "Districtname": "Dhenkanal", "Subdistrictname": "Tumusingha", "Blockname": "Kamakhyanagar", "Healthblockname": "Kamakhyanagar", "Healthfacilitytype": "health sub centre", "Facilityname": "Kantapal", "NIN": 4328836657, "latitude": 20.799, "longitude": 85.45522, "facility_type_standardized": "hsc" }, "geometry": { "type": "Point", "coordinates": [ 85.4195084, 20.8135037 ] } },
{ "type": "Feature", "properties": { "Statename": "Odisha", "Districtname": "Dhenkanal", "Subdistrictname": "Nihalprasad", "Blockname": "Gondia", "Healthblockname": "Gandia", "Healthfacilitytype": "health sub centre", "Facilityname": "Nihalprasad", "NIN": 2132415569, "latitude": 20.79901, "longitude": 85.9898, "facility_type_standardized": "hsc" }, "geometry": { "type": "Point", "coordinates": [ 85.9897347, 20.7972042 ] } },
{ "type": "Feature", "properties": { "Statename": "Odisha", "Districtname": "Dhenkanal", "Subdistrictname": "Dhenkanal Sadar", "Blockname": "Dhenkanal Sadar", "Healthblockname": "Dhenkanal", "Healthfacilitytype": "health sub centre", "Facilityname": "Banasingha", "NIN": 5258652113, "latitude": 20.80213, "longitude": 85.64317, "facility_type_standardized": "hsc" }, "geometry": { "type": "Point", "coordinates": [ 85.6515386, 20.8032203 ] } },
{ "type": "Feature", "properties": { "Statename": "Odisha", "Districtname": "Dhenkanal", "Subdistrictname": "Tumusingha", "Blockname": "Kamakhyanagar", "Healthblockname": "Kamakhyanagar", "Healthfacilitytype": "health sub centre", "Facilityname": "Kantiokateni", "NIN": 4427452380, "latitude": 20.8022, "longitude": 85.50458, "facility_type_standardized": "hsc" }, "geometry": { "type": "Point", "coordinates": [ 85.5132813, 20.7866164 ] } },
{ "type": "Feature", "properties": { "Statename": "Odisha", "Districtname": "Dhenkanal", "Subdistrictname": "Gandia", "Blockname": "Gondia", "Healthblockname": "Gandia", "Healthfacilitytype": "health sub centre", "Facilityname": "Sadangi", "NIN": 8452366688, "latitude": 20.80602, "longitude": 85.84277, "facility_type_standardized": "hsc" }, "geometry": { "type": "Point", "coordinates": [ 85.8400101, 20.8134251 ] } },
{ "type": "Feature", "properties": { "Statename": "Odisha", "Districtname": "Dhenkanal", "Subdistrictname": "Motunga", "Blockname": "Odapada", "Healthblockname": "Odapada", "Healthfacilitytype": "health sub centre", "Facilityname": "Bido", "NIN": 6218238787, "latitude": 20.80612, "longitude": 85.34296, "facility_type_standardized": "hsc" }, "geometry": { "type": "Point", "coordinates": [ 85.3406213, 20.819538 ] } },
{ "type": "Feature", "properties": { "Statename": "Odisha", "Districtname": "Dhenkanal", "Subdistrictname": "Nihalprasad", "Blockname": "Gondia", "Healthblockname": "Gandia", "Healthfacilitytype": "health sub centre", "Facilityname": "Khandabandha", "NIN": 5546474379, "latitude": 20.8084, "longitude": 85.92537, "facility_type_standardized": "hsc" }, "geometry": { "type": "Point", "coordinates": [ 85.942785, 20.8005218 ] } },
{ "type": "Feature", "properties": { "Statename": "Odisha", "Districtname": "Dhenkanal", "Subdistrictname": "Gandia", "Blockname": "Gondia", "Healthblockname": "Gandia", "Healthfacilitytype": "health sub centre", "Facilityname": "Kaluria", "NIN": 3223161419, "latitude": 20.80973, "longitude": 85.6777, "facility_type_standardized": "hsc" }, "geometry": { "type": "Point", "coordinates": [ 85.6515386, 20.8032203 ] } },
{ "type": "Feature", "properties": { "Statename": "Odisha", "Districtname": "Dhenkanal", "Subdistrictname": "Nihalprasad", "Blockname": "Gondia", "Healthblockname": "Gandia", "Healthfacilitytype": "health sub centre", "Facilityname": "Karanda", "NIN": 3433382821, "latitude": 20.81007, "longitude": 85.95667, "facility_type_standardized": "hsc" }, "geometry": { "type": "Point", "coordinates": [ 85.9460127, 20.8178463 ] } },
{ "type": "Feature", "properties": { "Statename": "Odisha", "Districtname": "Dhenkanal", "Subdistrictname": "Gandia", "Blockname": "Gondia", "Healthblockname": "Gandia", "Healthfacilitytype": "health sub centre", "Facilityname": "Khankira", "NIN": 7278671347, "latitude": 20.81015, "longitude": 85.72417, "facility_type_standardized": "hsc" }, "geometry": { "type": "Point", "coordinates": [ 85.7200286, 20.8126381 ] } },
{ "type": "Feature", "properties": { "Statename": "Odisha", "Districtname": "Dhenkanal", "Subdistrictname": "Tumusingha", "Blockname": "Kamakhyanagar", "Healthblockname": "Kamakhyanagar", "Healthfacilitytype": "health sub centre", "Facilityname": "Ichhabatipur", "NIN": 1548833340, "latitude": 20.81306, "longitude": 85.59793, "facility_type_standardized": "hsc" }, "geometry": { "type": "Point", "coordinates": [ 85.5922152, 20.8086576 ] } },
{ "type": "Feature", "properties": { "Statename": "Odisha", "Districtname": "Dhenkanal", "Subdistrictname": "Gandia", "Blockname": "Gondia", "Healthblockname": "Gandia", "Healthfacilitytype": "health sub centre", "Facilityname": "Raitala", "NIN": 3334443367, "latitude": 20.81546, "longitude": 85.77826, "facility_type_standardized": "hsc" }, "geometry": { "type": "Point", "coordinates": [ 85.7636652, 20.8051078 ] } },
{ "type": "Feature", "properties": { "Statename": "Odisha", "Districtname": "Dhenkanal", "Subdistrictname": "Gandia", "Blockname": "Gondia", "Healthblockname": "Gandia", "Healthfacilitytype": "health sub centre", "Facilityname": "Karamul", "NIN": 5344584759, "latitude": 20.8171, "longitude": 85.6926, "facility_type_standardized": "hsc" }, "geometry": { "type": "Point", "coordinates": [ 85.7179499, 20.8101894 ] } },
{ "type": "Feature", "properties": { "Statename": "Odisha", "Districtname": "Dhenkanal", "Subdistrictname": "Motunga", "Blockname": "Odapada", "Healthblockname": "Odapada", "Healthfacilitytype": "health sub centre", "Facilityname": "Khadagprasad", "NIN": 1814858377, "latitude": 20.81743, "longitude": 85.30532, "facility_type_standardized": "hsc" }, "geometry": { "type": "Point", "coordinates": [ 85.3127425, 20.8234787 ] } },
{ "type": "Feature", "properties": { "Statename": "Odisha", "Districtname": "Dhenkanal", "Subdistrictname": "Parajang", "Blockname": "Parjang", "Healthblockname": "Parajanga", "Healthfacilitytype": "health sub centre", "Facilityname": "Roda", "NIN": 4172745483, "latitude": 20.8204, "longitude": 85.35328, "facility_type_standardized": "hsc" }, "geometry": { "type": "Point", "coordinates": [ 85.3540265, 20.8186105 ] } },
{ "type": "Feature", "properties": { "Statename": "Odisha", "Districtname": "Dhenkanal", "Subdistrictname": "Tumusingha", "Blockname": "Kamakhyanagar", "Healthblockname": "Kamakhyanagar", "Healthfacilitytype": "health sub centre", "Facilityname": "Analaberini", "NIN": 8734163853, "latitude": 20.82171, "longitude": 85.54907, "facility_type_standardized": "hsc" }, "geometry": { "type": "Point", "coordinates": [ 85.5464092, 20.8242456 ] } },
{ "type": "Feature", "properties": { "Statename": "Odisha", "Districtname": "Dhenkanal", "Subdistrictname": "Motunga", "Blockname": "Odapada", "Healthblockname": "Odapada", "Healthfacilitytype": "health sub centre", "Facilityname": "Kurunti", "NIN": 6187368367, "latitude": 20.83063, "longitude": 85.28768, "facility_type_standardized": "hsc" }, "geometry": { "type": "Point", "coordinates": [ 85.2909521, 20.8328843 ] } },
{ "type": "Feature", "properties": { "Statename": "Odisha", "Districtname": "Dhenkanal", "Subdistrictname": "Nihalprasad", "Blockname": "Gondia", "Healthblockname": "Gandia", "Healthfacilitytype": "health sub centre", "Facilityname": "Pingua", "NIN": 4275584730, "latitude": 20.8323, "longitude": 85.95083, "facility_type_standardized": "hsc" }, "geometry": { "type": "Point", "coordinates": [ 85.9540548, 20.8408422 ] } },
{ "type": "Feature", "properties": { "Statename": "Odisha", "Districtname": "Dhenkanal", "Subdistrictname": "Kamakshyanagar", "Blockname": "Bhuban", "Healthblockname": "Bhuban", "Healthfacilitytype": "health sub centre", "Facilityname": "Goradia", "NIN": 8738625188, "latitude": 20.83499, "longitude": 85.66757, "facility_type_standardized": "hsc" }, "geometry": { "type": "Point", "coordinates": [ 85.675474, 20.8600736 ] } },
{ "type": "Feature", "properties": { "Statename": "Odisha", "Districtname": "Dhenkanal", "Subdistrictname": "Nihalprasad", "Blockname": "Gondia", "Healthblockname": "Gandia", "Healthfacilitytype": "health sub centre", "Facilityname": "Kasipur", "NIN": 3236872861, "latitude": 20.83548, "longitude": 85.90788, "facility_type_standardized": "hsc" }, "geometry": { "type": "Point", "coordinates": [ 85.8919823, 20.8660201 ] } },
{ "type": "Feature", "properties": { "Statename": "Odisha", "Districtname": "Dhenkanal", "Subdistrictname": "Tumusingha", "Blockname": "Kamakhyanagar", "Healthblockname": "Kamakhyanagar", "Healthfacilitytype": "health sub centre", "Facilityname": "Tangar", "NIN": 7816483627, "latitude": 20.83951, "longitude": 85.46031, "facility_type_standardized": "hsc" }, "geometry": { "type": "Point", "coordinates": [ 85.4186112, 20.8169827 ] } },
{ "type": "Feature", "properties": { "Statename": "Odisha", "Districtname": "Dhenkanal", "Subdistrictname": "Parajang", "Blockname": "Parjang", "Healthblockname": "Parajanga", "Healthfacilitytype": "health sub centre", "Facilityname": "Sanda", "NIN": 1218112827, "latitude": 20.83984, "longitude": 85.40063, "facility_type_standardized": "hsc" }, "geometry": { "type": "Point", "coordinates": [ 85.4033515, 20.8380956 ] } },
{ "type": "Feature", "properties": { "Statename": "Odisha", "Districtname": "Dhenkanal", "Subdistrictname": "Gandia", "Blockname": "Gondia", "Healthblockname": "Gandia", "Healthfacilitytype": "health sub centre", "Facilityname": "Mandar", "NIN": 7716883355, "latitude": 20.84494, "longitude": 85.85958, "facility_type_standardized": "hsc" }, "geometry": { "type": "Point", "coordinates": [ 85.8559926, 20.8466369 ] } },
{ "type": "Feature", "properties": { "Statename": "Odisha", "Districtname": "Dhenkanal", "Subdistrictname": "Parajang", "Blockname": "Parjang", "Healthblockname": "Parajanga", "Healthfacilitytype": "health sub centre", "Facilityname": "Kumusi", "NIN": 3318817834, "latitude": 20.84654, "longitude": 85.37602, "facility_type_standardized": "hsc" }, "geometry": { "type": "Point", "coordinates": [ 85.375325, 20.8437216 ] } },
{ "type": "Feature", "properties": { "Statename": "Odisha", "Districtname": "Dhenkanal", "Subdistrictname": "Parajang", "Blockname": "Parjang", "Healthblockname": "Parajanga", "Healthfacilitytype": "health sub centre", "Facilityname": "Patrapada", "NIN": 2837533443, "latitude": 20.8492, "longitude": 85.34196, "facility_type_standardized": "hsc" }, "geometry": { "type": "Point", "coordinates": [ 85.3346093, 20.8507036 ] } },
{ "type": "Feature", "properties": { "Statename": "Odisha", "Districtname": "Dhenkanal", "Subdistrictname": "Kamakshyanagar", "Blockname": "Bhuban", "Healthblockname": "Bhuban", "Healthfacilitytype": "health sub centre", "Facilityname": "Jiral", "NIN": 7344223867, "latitude": 20.85957, "longitude": 85.67385, "facility_type_standardized": "hsc" }, "geometry": { "type": "Point", "coordinates": [ 85.675474, 20.8600736 ] } },
{ "type": "Feature", "properties": { "Statename": "Odisha", "Districtname": "Dhenkanal", "Subdistrictname": "Bhuban", "Blockname": "Bhuban", "Healthblockname": "Bhuban", "Healthfacilitytype": "health sub centre", "Facilityname": "Mahulapal", "NIN": 8722845180, "latitude": 20.86651, "longitude": 85.89273, "facility_type_standardized": "hsc" }, "geometry": { "type": "Point", "coordinates": [ 85.8919823, 20.8660201 ] } },
{ "type": "Feature", "properties": { "Statename": "Odisha", "Districtname": "Dhenkanal", "Subdistrictname": "Parajang", "Blockname": "Parjang", "Healthblockname": "Parajanga", "Healthfacilitytype": "health sub centre", "Facilityname": "Lodhani", "NIN": 3525223164, "latitude": 20.87124, "longitude": 85.31812, "facility_type_standardized": "hsc" }, "geometry": { "type": "Point", "coordinates": [ 85.3154774, 20.8561721 ] } },
{ "type": "Feature", "properties": { "Statename": "Odisha", "Districtname": "Dhenkanal", "Subdistrictname": "Kamakshyanagar", "Blockname": "Bhuban", "Healthblockname": "Bhuban", "Healthfacilitytype": "health sub centre", "Facilityname": "Arakhapal", "NIN": 4676276738, "latitude": 20.87335, "longitude": 85.68935, "facility_type_standardized": "hsc" }, "geometry": { "type": "Point", "coordinates": [ 85.675474, 20.8600736 ] } },
{ "type": "Feature", "properties": { "Statename": "Odisha", "Districtname": "Dhenkanal", "Subdistrictname": "Kamakshyanagar", "Blockname": "Kamakhyanagar", "Healthblockname": "Kamakhyanagar", "Healthfacilitytype": "health sub centre", "Facilityname": "Bankual", "NIN": 8264584262, "latitude": 20.87424, "longitude": 85.66141, "facility_type_standardized": "hsc" }, "geometry": { "type": "Point", "coordinates": [ 85.675474, 20.8600736 ] } },
{ "type": "Feature", "properties": { "Statename": "Odisha", "Districtname": "Dhenkanal", "Subdistrictname": "Bhuban", "Blockname": "Bhuban", "Healthblockname": "Bhuban", "Healthfacilitytype": "health sub centre", "Facilityname": "Marthapur", "NIN": 5674686729, "latitude": 20.87429, "longitude": 85.72629, "facility_type_standardized": "hsc" }, "geometry": { "type": "Point", "coordinates": [ 85.7221904, 20.8415666 ] } },
{ "type": "Feature", "properties": { "Statename": "Odisha", "Districtname": "Dhenkanal", "Subdistrictname": "Bhusan Steel Limited", "Blockname": "Odapada", "Healthblockname": "Odapada", "Healthfacilitytype": "health sub centre", "Facilityname": "Kamalanga", "NIN": 4275148478, "latitude": 20.87768, "longitude": 85.27575, "facility_type_standardized": "hsc" }, "geometry": { "type": "Point", "coordinates": [ 85.2731968, 20.8719291 ] } },
{ "type": "Feature", "properties": { "Statename": "Odisha", "Districtname": "Dhenkanal", "Subdistrictname": "Bhuban", "Blockname": "Bhuban", "Healthblockname": "Bhuban", "Healthfacilitytype": "health sub centre", "Facilityname": "Kingol", "NIN": 3378854222, "latitude": 20.88078, "longitude": 85.79231, "facility_type_standardized": "hsc" }, "geometry": { "type": "Point", "coordinates": [ 85.7991568, 20.8815814 ] } },
{ "type": "Feature", "properties": { "Statename": "Odisha", "Districtname": "Dhenkanal", "Subdistrictname": "Bhuban", "Blockname": "Bhuban", "Healthblockname": "Bhuban", "Healthfacilitytype": "health sub centre", "Facilityname": "Ektaali", "NIN": 8528813432, "latitude": 20.8813, "longitude": 85.87571, "facility_type_standardized": "hsc" }, "geometry": { "type": "Point", "coordinates": [ 85.8807593, 20.8859711 ] } },
{ "type": "Feature", "properties": { "Statename": "Odisha", "Districtname": "Dhenkanal", "Subdistrictname": "Parajang", "Blockname": "Parjang", "Healthblockname": "Parajanga", "Healthfacilitytype": "health sub centre", "Facilityname": "Kandarasingh", "NIN": 8753446320, "latitude": 20.8859, "longitude": 85.3056, "facility_type_standardized": "hsc" }, "geometry": { "type": "Point", "coordinates": [ 85.3167366, 20.8913255 ] } },
{ "type": "Feature", "properties": { "Statename": "Odisha", "Districtname": "Dhenkanal", "Subdistrictname": "Kamakshyanagar", "Blockname": "Kamakhyanagar", "Healthblockname": "Kamakhyanagar", "Healthfacilitytype": "health sub centre", "Facilityname": "Mahulpal", "NIN": 6727268465, "latitude": 20.88658, "longitude": 85.53543, "facility_type_standardized": "hsc" }, "geometry": { "type": "Point", "coordinates": [ 85.5442131, 20.8890487 ] } },
{ "type": "Feature", "properties": { "Statename": "Odisha", "Districtname": "Dhenkanal", "Subdistrictname": "Kamakshyanagar", "Blockname": "Kamakhyanagar", "Healthblockname": "Kamakhyanagar", "Healthfacilitytype": "health sub centre", "Facilityname": "Jagannathpur", "NIN": 2865237842, "latitude": 20.89013, "longitude": 85.63742, "facility_type_standardized": "hsc" }, "geometry": { "type": "Point", "coordinates": [ 85.6348657, 20.9010326 ] } },
{ "type": "Feature", "properties": { "Statename": "Odisha", "Districtname": "Dhenkanal", "Subdistrictname": "Kamakshyanagar", "Blockname": "Kamakhyanagar", "Healthblockname": "Kamakhyanagar", "Healthfacilitytype": "health sub centre", "Facilityname": "Kangeilo", "NIN": 1747241881, "latitude": 20.89159, "longitude": 85.61056, "facility_type_standardized": "hsc" }, "geometry": { "type": "Point", "coordinates": [ 85.5948924, 20.8863332 ] } },
{ "type": "Feature", "properties": { "Statename": "Odisha", "Districtname": "Dhenkanal", "Subdistrictname": "Bhuban", "Blockname": "Bhuban", "Healthblockname": "Bhuban", "Healthfacilitytype": "health sub centre", "Facilityname": "Jamunakote", "NIN": 1774742462, "latitude": 20.89592, "longitude": 85.71666, "facility_type_standardized": "hsc" }, "geometry": { "type": "Point", "coordinates": [ 85.706797, 20.9120358 ] } },
{ "type": "Feature", "properties": { "Statename": "Odisha", "Districtname": "Dhenkanal", "Subdistrictname": "Kamakshyanagar", "Blockname": "Bhuban", "Healthblockname": "Bhuban", "Healthfacilitytype": "health sub centre", "Facilityname": "Mathakargola", "NIN": 3683873610, "latitude": 20.89597, "longitude": 85.68794, "facility_type_standardized": "hsc" }, "geometry": { "type": "Point", "coordinates": [ 85.6856404, 20.9023389 ] } },
{ "type": "Feature", "properties": { "Statename": "Odisha", "Districtname": "Dhenkanal", "Subdistrictname": "Bhuban", "Blockname": "Bhuban", "Healthblockname": "Bhuban", "Healthfacilitytype": "health sub centre", "Facilityname": "Surapratapapur", "NIN": 4574146470, "latitude": 20.9014, "longitude": 85.74257, "facility_type_standardized": "hsc" }, "geometry": { "type": "Point", "coordinates": [ 85.7389079, 20.9214442 ] } },
{ "type": "Feature", "properties": { "Statename": "Odisha", "Districtname": "Dhenkanal", "Subdistrictname": "Parajang", "Blockname": "Parjang", "Healthblockname": "Parajanga", "Healthfacilitytype": "health sub centre", "Facilityname": "Basoi", "NIN": 5424733771, "latitude": 20.90686, "longitude": 85.39024, "facility_type_standardized": "hsc" }, "geometry": { "type": "Point", "coordinates": [ 85.3706497, 20.9361605 ] } },
{ "type": "Feature", "properties": { "Statename": "Odisha", "Districtname": "Dhenkanal", "Subdistrictname": "Kamakshyanagar", "Blockname": "Kamakhyanagar", "Healthblockname": "Kamakhyanagar", "Healthfacilitytype": "health sub centre", "Facilityname": "Kadua", "NIN": 4776854137, "latitude": 20.91112, "longitude": 85.51753, "facility_type_standardized": "hsc" }, "geometry": { "type": "Point", "coordinates": [ 85.5175781, 20.9134159 ] } },
{ "type": "Feature", "properties": { "Statename": "Odisha", "Districtname": "Dhenkanal", "Subdistrictname": "Kamakshyanagar", "Blockname": "Kamakhyanagar", "Healthblockname": "Kamakhyanagar", "Healthfacilitytype": "health sub centre", "Facilityname": "Baisinga", "NIN": 4885261778, "latitude": 20.91595, "longitude": 85.5913, "facility_type_standardized": "hsc" }, "geometry": { "type": "Point", "coordinates": [ 85.5933784, 20.9225265 ] } },
{ "type": "Feature", "properties": { "Statename": "Odisha", "Districtname": "Dhenkanal", "Subdistrictname": "Bhuban", "Blockname": "Bhuban", "Healthblockname": "Bhuban", "Healthfacilitytype": "health sub centre", "Facilityname": "G.N. Prasad", "NIN": 4281717480, "latitude": 20.91862, "longitude": 85.7679, "facility_type_standardized": "hsc" }, "geometry": { "type": "Point", "coordinates": [ 85.7622943, 20.9222378 ] } },
{ "type": "Feature", "properties": { "Statename": "Odisha", "Districtname": "Dhenkanal", "Subdistrictname": "Parajang", "Blockname": "Parjang", "Healthblockname": "Parajanga", "Healthfacilitytype": "health sub centre", "Facilityname": "Parjanga", "NIN": 1586667485, "latitude": 20.91959, "longitude": 85.32557, "facility_type_standardized": "hsc" }, "geometry": { "type": "Point", "coordinates": [ 85.3260966, 20.9245585 ] } },
{ "type": "Feature", "properties": { "Statename": "Odisha", "Districtname": "Dhenkanal", "Subdistrictname": "Bhuban", "Blockname": "Bhuban", "Healthblockname": "Bhuban", "Healthfacilitytype": "health sub centre", "Facilityname": "Balibo", "NIN": 6517222169, "latitude": 20.92033, "longitude": 85.87823, "facility_type_standardized": "hsc" }, "geometry": { "type": "Point", "coordinates": [ 85.8754446, 20.9193561 ] } },
{ "type": "Feature", "properties": { "Statename": "Odisha", "Districtname": "Dhenkanal", "Subdistrictname": "Kamakshyanagar", "Blockname": "Kamakhyanagar", "Healthblockname": "Kamakhyanagar", "Healthfacilitytype": "health sub centre", "Facilityname": "Badasuanlo", "NIN": 4736466360, "latitude": 20.92272, "longitude": 85.63257, "facility_type_standardized": "hsc" }, "geometry": { "type": "Point", "coordinates": [ 85.6331706, 20.9186379 ] } },
{ "type": "Feature", "properties": { "Statename": "Odisha", "Districtname": "Dhenkanal", "Subdistrictname": "Parajang", "Blockname": "Parjang", "Healthblockname": "Parajanga", "Healthfacilitytype": "health sub centre", "Facilityname": "Barihapur", "NIN": 3386475630, "latitude": 20.92487, "longitude": 85.35091, "facility_type_standardized": "hsc" }, "geometry": { "type": "Point", "coordinates": [ 85.3421326, 20.9288773 ] } },
{ "type": "Feature", "properties": { "Statename": "Odisha", "Districtname": "Dhenkanal", "Subdistrictname": "Bhuban", "Blockname": "Bhuban", "Healthblockname": "Bhuban", "Healthfacilitytype": "health sub centre", "Facilityname": "Dayanbil", "NIN": 1322113372, "latitude": 20.92549, "longitude": 85.74174, "facility_type_standardized": "hsc" }, "geometry": { "type": "Point", "coordinates": [ 85.7388946, 20.9215885 ] } },
{ "type": "Feature", "properties": { "Statename": "Odisha", "Districtname": "Dhenkanal", "Subdistrictname": "Parajang", "Blockname": "Parjang", "Healthblockname": "Parajanga", "Healthfacilitytype": "health sub centre", "Facilityname": "Saranga", "NIN": 1817515552, "latitude": 20.92737, "longitude": 85.26231, "facility_type_standardized": "hsc" }, "geometry": { "type": "Point", "coordinates": [ 85.2616387, 20.9288664 ] } },
{ "type": "Feature", "properties": { "Statename": "Odisha", "Districtname": "Dhenkanal", "Subdistrictname": "Kamakshyanagar", "Blockname": "Kamakhyanagar", "Healthblockname": "Kamakhyanagar", "Healthfacilitytype": "health sub centre", "Facilityname": "Kanapura", "NIN": 7738154678, "latitude": 20.9428, "longitude": 85.55064, "facility_type_standardized": "hsc" }, "geometry": { "type": "Point", "coordinates": [ 85.5482841, 20.9448441 ] } },
{ "type": "Feature", "properties": { "Statename": "Odisha", "Districtname": "Dhenkanal", "Subdistrictname": "Bhuban", "Blockname": "Bhuban", "Healthblockname": "Bhuban", "Healthfacilitytype": "health sub centre", "Facilityname": "Baruan", "NIN": 4573263847, "latitude": 20.94364, "longitude": 85.76663, "facility_type_standardized": "hsc" }, "geometry": { "type": "Point", "coordinates": [ 85.7622874, 20.9223556 ] } },
{ "type": "Feature", "properties": { "Statename": "Odisha", "Districtname": "Dhenkanal", "Subdistrictname": "Parajang", "Blockname": "Parjang", "Healthblockname": "Parajanga", "Healthfacilitytype": "health sub centre", "Facilityname": "Chandapur", "NIN": 4355131311, "latitude": 20.94509, "longitude": 85.3609, "facility_type_standardized": "hsc" }, "geometry": { "type": "Point", "coordinates": [ 85.3705099, 20.9362126 ] } },
{ "type": "Feature", "properties": { "Statename": "Odisha", "Districtname": "Dhenkanal", "Subdistrictname": "Kamakshyanagar", "Blockname": "Kamakhyanagar", "Healthblockname": "Kamakhyanagar", "Healthfacilitytype": "health sub centre", "Facilityname": "Khatakhura", "NIN": 7548145684, "latitude": 20.94558, "longitude": 85.61899, "facility_type_standardized": "hsc" }, "geometry": { "type": "Point", "coordinates": [ 85.6082958, 20.9331727 ] } },
{ "type": "Feature", "properties": { "Statename": "Odisha", "Districtname": "Dhenkanal", "Subdistrictname": "Parajang", "Blockname": "Parjang", "Healthblockname": "Parajanga", "Healthfacilitytype": "health sub centre", "Facilityname": "Badajhara", "NIN": 8787484842, "latitude": 20.946, "longitude": 85.38637, "facility_type_standardized": "hsc" }, "geometry": { "type": "Point", "coordinates": [ 85.3871645, 20.9417505 ] } },
{ "type": "Feature", "properties": { "Statename": "Odisha", "Districtname": "Dhenkanal", "Subdistrictname": "Bhuban", "Blockname": "Bhuban", "Healthblockname": "Bhuban", "Healthfacilitytype": "health sub centre", "Facilityname": "Dhalapada", "NIN": 3528637477, "latitude": 20.94769, "longitude": 85.78133, "facility_type_standardized": "hsc" }, "geometry": { "type": "Point", "coordinates": [ 85.7880384, 20.9236977 ] } },
{ "type": "Feature", "properties": { "Statename": "Odisha", "Districtname": "Dhenkanal", "Subdistrictname": "Kamakshyanagar", "Blockname": "Kamakhyanagar", "Healthblockname": "Kamakhyanagar", "Healthfacilitytype": "health sub centre", "Facilityname": "Sibalaposi", "NIN": 6857536749, "latitude": 20.95019, "longitude": 85.48571, "facility_type_standardized": "hsc" }, "geometry": { "type": "Point", "coordinates": [ 85.4988925, 20.9362721 ] } },
{ "type": "Feature", "properties": { "Statename": "Odisha", "Districtname": "Dhenkanal", "Subdistrictname": "Kamakshyanagar", "Blockname": "Parjang", "Healthblockname": "Parajanga", "Healthfacilitytype": "health sub centre", "Facilityname": "Muktaposi", "NIN": 7764577321, "latitude": 20.95195, "longitude": 85.42134, "facility_type_standardized": "hsc" }, "geometry": { "type": "Point", "coordinates": [ 85.4165257, 20.9438517 ] } },
{ "type": "Feature", "properties": { "Statename": "Odisha", "Districtname": "Dhenkanal", "Subdistrictname": "Parajang", "Blockname": "Parjang", "Healthblockname": "Parajanga", "Healthfacilitytype": "health sub centre", "Facilityname": "Kantor", "NIN": 4832267340, "latitude": 20.95252, "longitude": 85.33891, "facility_type_standardized": "hsc" }, "geometry": { "type": "Point", "coordinates": [ 85.3408474, 20.9492863 ] } },
{ "type": "Feature", "properties": { "Statename": "Odisha", "Districtname": "Dhenkanal", "Subdistrictname": "Parajang", "Blockname": "Parjang", "Healthblockname": "Parajanga", "Healthfacilitytype": "health sub centre", "Facilityname": "Kualo", "NIN": 5843753285, "latitude": 20.95897, "longitude": 85.29834, "facility_type_standardized": "hsc" }, "geometry": { "type": "Point", "coordinates": [ 85.3108357, 20.954601 ] } },
{ "type": "Feature", "properties": { "Statename": "Odisha", "Districtname": "Dhenkanal", "Subdistrictname": "Kankadahad", "Blockname": "Kankada Had", "Healthblockname": "Kankadahada", "Healthfacilitytype": "health sub centre", "Facilityname": "Makuakateni", "NIN": 8258766636, "latitude": 20.96505, "longitude": 85.63848, "facility_type_standardized": "hsc" }, "geometry": { "type": "Point", "coordinates": [ 85.6680679, 20.9926975 ] } },
{ "type": "Feature", "properties": { "Statename": "Odisha", "Districtname": "Dhenkanal", "Subdistrictname": "Parajang", "Blockname": "Parjang", "Healthblockname": "Parajanga", "Healthfacilitytype": "health sub centre", "Facilityname": "Kankadasoda", "NIN": 4486224548, "latitude": 20.97777, "longitude": 85.36946, "facility_type_standardized": "hsc" }, "geometry": { "type": "Point", "coordinates": [ 85.4071318, 20.9776844 ] } },
{ "type": "Feature", "properties": { "Statename": "Odisha", "Districtname": "Dhenkanal", "Subdistrictname": "Kankadahad", "Blockname": "Kankada Had", "Healthblockname": "Kankadahada", "Healthfacilitytype": "health sub centre", "Facilityname": "Birasal", "NIN": 8351548477, "latitude": 20.99036, "longitude": 85.68143, "facility_type_standardized": "hsc" }, "geometry": { "type": "Point", "coordinates": [ 85.674327, 20.989359 ] } },
{ "type": "Feature", "properties": { "Statename": "Odisha", "Districtname": "Dhenkanal", "Subdistrictname": "Parajang", "Blockname": "Parjang", "Healthblockname": "Parajanga", "Healthfacilitytype": "health sub centre", "Facilityname": "Kulei", "NIN": 2647277645, "latitude": 20.99089, "longitude": 85.28018, "facility_type_standardized": "hsc" }, "geometry": { "type": "Point", "coordinates": [ 85.2824995, 20.9869333 ] } },
{ "type": "Feature", "properties": { "Statename": "Odisha", "Districtname": "Dhenkanal", "Subdistrictname": "Parajang", "Blockname": "Parjang", "Healthblockname": "Parajanga", "Healthfacilitytype": "health sub centre", "Facilityname": "Khairamunda", "NIN": 8338356184, "latitude": 20.99642, "longitude": 85.34429, "facility_type_standardized": "hsc" }, "geometry": { "type": "Point", "coordinates": [ 85.3086448, 21.0111798 ] } },
{ "type": "Feature", "properties": { "Statename": "Odisha", "Districtname": "Dhenkanal", "Subdistrictname": "Kankadahad", "Blockname": "Kankada Had", "Healthblockname": "Kankadahada", "Healthfacilitytype": "health sub centre", "Facilityname": "Batagaon", "NIN": 5181121731, "latitude": 21.00113, "longitude": 85.58819, "facility_type_standardized": "hsc" }, "geometry": { "type": "Point", "coordinates": [ 85.5820314, 20.9499164 ] } },
{ "type": "Feature", "properties": { "Statename": "Odisha", "Districtname": "Dhenkanal", "Subdistrictname": "Parajang", "Blockname": "Parjang", "Healthblockname": "Parajanga", "Healthfacilitytype": "health sub centre", "Facilityname": "Rangathali", "NIN": 1555617321, "latitude": 21.02747, "longitude": 85.2867, "facility_type_standardized": "hsc" }, "geometry": { "type": "Point", "coordinates": [ 85.2912526, 21.0101328 ] } },
{ "type": "Feature", "properties": { "Statename": "Odisha", "Districtname": "Dhenkanal", "Subdistrictname": "Kankadahad", "Blockname": "Kankada Had", "Healthblockname": "Kankadahada", "Healthfacilitytype": "health sub centre", "Facilityname": "Maruabili", "NIN": 7637725685, "latitude": 21.03346, "longitude": 85.72371, "facility_type_standardized": "hsc" }, "geometry": { "type": "Point", "coordinates": [ 85.7304371, 21.0178823 ] } },
{ "type": "Feature", "properties": { "Statename": "Odisha", "Districtname": "Dhenkanal", "Subdistrictname": "Parajang", "Blockname": "Parjang", "Healthblockname": "Parajanga", "Healthfacilitytype": "health sub centre", "Facilityname": "Kadapada", "NIN": 7177813776, "latitude": 21.0344, "longitude": 85.22525, "facility_type_standardized": "hsc" }, "geometry": { "type": "Point", "coordinates": [ 85.2284169, 21.034053 ] } },
{ "type": "Feature", "properties": { "Statename": "Odisha", "Districtname": "Dhenkanal", "Subdistrictname": "Parajang", "Blockname": "Parjang", "Healthblockname": "Parajanga", "Healthfacilitytype": "health sub centre", "Facilityname": "Manikamara", "NIN": 7224864574, "latitude": 21.048, "longitude": 85.2108, "facility_type_standardized": "hsc" }, "geometry": { "type": "Point", "coordinates": [ 85.2284169, 21.034053 ] } },
{ "type": "Feature", "properties": { "Statename": "Odisha", "Districtname": "Dhenkanal", "Subdistrictname": "Parajang", "Blockname": "Kankada Had", "Healthblockname": "Kankadahada", "Healthfacilitytype": "health sub centre", "Facilityname": "Chandapur", "NIN": 6424638754, "latitude": 21.07371, "longitude": 85.33178, "facility_type_standardized": "hsc" }, "geometry": { "type": "Point", "coordinates": [ 85.3319907, 21.0893351 ] } },
{ "type": "Feature", "properties": { "Statename": "Odisha", "Districtname": "Dhenkanal", "Subdistrictname": "Kankadahad", "Blockname": "Kankada Had", "Healthblockname": "Kankadahada", "Healthfacilitytype": "health sub centre", "Facilityname": "Kanakadahad", "NIN": 8441741587, "latitude": 21.07738, "longitude": 85.56776, "facility_type_standardized": "hsc" }, "geometry": { "type": "Point", "coordinates": [ 85.572617, 21.0682621 ] } },
{ "type": "Feature", "properties": { "Statename": "Odisha", "Districtname": "Dhenkanal", "Subdistrictname": "Parajang", "Blockname": "Kankada Had", "Healthblockname": "Kankadahada", "Healthfacilitytype": "health sub centre", "Facilityname": "Mahabiroad", "NIN": 3677643540, "latitude": 21.08075, "longitude": 85.37154, "facility_type_standardized": "hsc" }, "geometry": { "type": "Point", "coordinates": [ 85.3714514, 21.0789642 ] } },
{ "type": "Feature", "properties": { "Statename": "Odisha", "Districtname": "Dhenkanal", "Subdistrictname": "Kankadahad", "Blockname": "Kankada Had", "Healthblockname": "Kankadahada", "Healthfacilitytype": "health sub centre", "Facilityname": "Karagola", "NIN": 7515124134, "latitude": 21.08451, "longitude": 85.61573, "facility_type_standardized": "hsc" }, "geometry": { "type": "Point", "coordinates": [ 85.6200439, 21.0789541 ] } },
{ "type": "Feature", "properties": { "Statename": "Odisha", "Districtname": "Dhenkanal", "Subdistrictname": "Kankadahad", "Blockname": "Kankada Had", "Healthblockname": "Kankadahada", "Healthfacilitytype": "health sub centre", "Facilityname": "Bam", "NIN": 4442638328, "latitude": 21.08647, "longitude": 85.46989, "facility_type_standardized": "hsc" }, "geometry": { "type": "Point", "coordinates": [ 85.4543209, 21.1179916 ] } },
{ "type": "Feature", "properties": { "Statename": "Odisha", "Districtname": "Dhenkanal", "Subdistrictname": "Kankadahad", "Blockname": "Kankada Had", "Healthblockname": "Kankadahada", "Healthfacilitytype": "health sub centre", "Facilityname": "Kantapal", "NIN": 1836557882, "latitude": 21.08846, "longitude": 85.52571, "facility_type_standardized": "hsc" }, "geometry": { "type": "Point", "coordinates": [ 85.5732393, 21.0879036 ] } },
{ "type": "Feature", "properties": { "Statename": "Odisha", "Districtname": "Dhenkanal", "Subdistrictname": "Parajang", "Blockname": "Kankada Had", "Healthblockname": "Kankadahada", "Healthfacilitytype": "health sub centre", "Facilityname": "Jhili", "NIN": 6467817182, "latitude": 21.09174, "longitude": 85.39402, "facility_type_standardized": "hsc" }, "geometry": { "type": "Point", "coordinates": [ 85.3847551, 21.0763513 ] } },
{ "type": "Feature", "properties": { "Statename": "Odisha", "Districtname": "Dhenkanal", "Subdistrictname": "Parajang", "Blockname": "Kankada Had", "Healthblockname": "Kankadahada", "Healthfacilitytype": "health sub centre", "Facilityname": "Biribolei", "NIN": 2885845657, "latitude": 21.10884, "longitude": 85.31003, "facility_type_standardized": "hsc" }, "geometry": { "type": "Point", "coordinates": [ 85.310018, 21.1041195 ] } },
{ "type": "Feature", "properties": { "Statename": "Odisha", "Districtname": "Dhenkanal", "Subdistrictname": "Kankadahad", "Blockname": "Kankada Had", "Healthblockname": "Kankadahada", "Healthfacilitytype": "health sub centre", "Facilityname": "Kerjoli", "NIN": 3887522641, "latitude": 21.12029, "longitude": 85.54939, "facility_type_standardized": "hsc" }, "geometry": { "type": "Point", "coordinates": [ 85.5732393, 21.0879036 ] } },
{ "type": "Feature", "properties": { "Statename": "Odisha", "Districtname": "Dhenkanal", "Subdistrictname": "Parajang", "Blockname": "Kankada Had", "Healthblockname": "Kankadahada", "Healthfacilitytype": "health sub centre", "Facilityname": "Ghagara Munda", "NIN": 4836542854, "latitude": 21.12182, "longitude": 85.26809, "facility_type_standardized": "hsc" }, "geometry": { "type": "Point", "coordinates": [ 85.2498776, 21.1228255 ] } },
{ "type": "Feature", "properties": { "Statename": "Odisha", "Districtname": "Dhenkanal", "Subdistrictname": "Parajang", "Blockname": "Kankada Had", "Healthblockname": "Kankadahada", "Healthfacilitytype": "health sub centre", "Facilityname": "Gadapalasuni", "NIN": 3271848180, "latitude": 21.14089, "longitude": 85.39958, "facility_type_standardized": "hsc" }, "geometry": { "type": "Point", "coordinates": [ 85.3532043, 21.1331109 ] } },
{ "type": "Feature", "properties": { "Statename": "Odisha", "Districtname": "Dhenkanal", "Subdistrictname": "Parajang", "Blockname": "Kankada Had", "Healthblockname": "Kankadahada", "Healthfacilitytype": "health sub centre", "Facilityname": "Pangatira", "NIN": 8138632743, "latitude": 21.15706, "longitude": 85.35889, "facility_type_standardized": "hsc" }, "geometry": { "type": "Point", "coordinates": [ 85.3532043, 21.1331109 ] } }
]
}
