{
"type": "FeatureCollection",
"name": "gajapati_hsc_snapped",
"crs": { "type": "name", "properties": { "name": "urn:ogc:def:crs:OGC:1.3:CRS84" } },
"features": [
{ "type": "Feature", "properties": { "Statename": "Odisha", "Districtname": "Gajapati", "Subdistrictname": "Paralakhemundi", "Blockname": "Gosani", "Healthblockname": "Gosani", "Healthfacilitytype": "health sub centre", "Facilityname": "Kerandi", "NIN": 4872258274, "latitude": 18.77147, "longitude": 84.12156, "facility_type_standardized": "hsc" }, "geometry": { "type": "Point", "coordinates": [ 84.1224914, 18.7722743 ] } },
{ "type": "Feature", "properties": { "Statename": "Odisha", "Districtname": "Gajapati", "Subdistrictname": "Gurandi", "Blockname": "Gosani", "Healthblockname": "Gosani", "Healthfacilitytype": "health sub centre", "Facilityname": "Vinala", "NIN": 4776671432, "latitude": 18.78668, "longitude": 84.17716, "facility_type_standardized": "hsc" }, "geometry": { "type": "Point", "coordinates": [ 84.1833401, 18.7906824 ] } },
{ "type": "Feature", "properties": { "Statename": "Odisha", "Districtname": "Gajapati", "Subdistrictname": "Gurandi", "Blockname": "Gosani", "Healthblockname": "Gosani", "Healthfacilitytype": "health sub centre", "Facilityname": "Jangalpadu", "NIN": 8675617388, "latitude": 18.79641, "longitude": 84.20631, "facility_type_standardized": "hsc" }, "geometry": { "type": "Point", "coordinates": [ 84.2138544, 18.7931594 ] } },
{ "type": "Feature", "properties": { "Statename": "Odisha", "Districtname": "Gajapati", "Subdistrictname": "Paralakhemundi", "Blockname": "Gumma", "Healthblockname": "Gumma", "Healthfacilitytype": "health sub centre", "Facilityname": "Jhami", "NIN": 3723274449, "latitude": 18.79808, "longitude": 84.08516, "facility_type_standardized": "hsc" }, "geometry": { "type": "Point", "coordinates": [ 84.0862893, 18.7912671 ] } },
{ "type": "Feature", "properties": { "Statename": "Odisha", "Districtname": "Gajapati", "Subdistrictname": "Paralakhemundi", "Blockname": "Gosani", "Healthblockname": "Gosani", "Healthfacilitytype": "health sub centre", "Facilityname": "Katalakaitha", "NIN": 7185682445, "latitude": 18.80074, "longitude": 84.12824, "facility_type_standardized": "hsc" }, "geometry": { "type": "Point", "coordinates": [ 84.128095, 18.7994281 ] } },
{ "type": "Feature", "properties": { "Statename": "Odisha", "Districtname": "Gajapati", "Subdistrictname": "Gurandi", "Blockname": "Gosani", "Healthblockname": "Gosani", "Healthfacilitytype": "health sub centre", "Facilityname": "Baghasala", "NIN": 2178186876, "latitude": 18.80833, "longitude": 84.17558, "facility_type_standardized": "hsc" }, "geometry": { "type": "Point", "coordinates": [ 84.1775626, 18.8091633 ] } },
{ "type": "Feature", "properties": { "Statename": "Odisha", "Districtname": "Gajapati", "Subdistrictname": "Paralakhemundi", "Blockname": "Kasinagar", "Healthblockname": "Kashinagar", "Healthfacilitytype": "health sub centre", "Facilityname": "Ranipentha", "NIN": 4182383465, "latitude": 18.80843, "longitude": 84.06679, "facility_type_standardized": "hsc" }, "geometry": { "type": "Point", "coordinates": [ 84.0732566, 18.8013059 ] } },
{ "type": "Feature", "properties": { "Statename": "Odisha", "Districtname": "Gajapati", "Subdistrictname": "Gurandi", "Blockname": "Gosani", "Healthblockname": "Gosani", "Healthfacilitytype": "health sub centre", "Facilityname": "Gosani", "NIN": 1788613774, "latitude": 18.81252, "longitude": 84.14052, "facility_type_standardized": "hsc" }, "geometry": { "type": "Point", "coordinates": [ 84.1437855, 18.8096433 ] } },
{ "type": "Feature", "properties": { "Statename": "Odisha", "Districtname": "Gajapati", "Subdistrictname": "Gurandi", "Blockname": "Gosani", "Healthblockname": "Gosani", "Healthfacilitytype": "health sub centre", "Facilityname": "Gurandi", "NIN": 7181685780, "latitude": 18.81406, "longitude": 84.2207, "facility_type_standardized": "hsc" }, "geometry": { "type": "Point", "coordinates": [ 84.2235654, 18.8162464 ] } },
{ "type": "Feature", "properties": { "Statename": "Odisha", "Districtname": "Gajapati", "Subdistrictname": "Paralakhemundi", "Blockname": "Kasinagar", "Healthblockname": "Kashinagar", "Healthfacilitytype": "health sub centre", "Facilityname": "Sidhamadanga", "NIN": 4373766817, "latitude": 18.81415, "longitude": 84.05029, "facility_type_standardized": "hsc" }, "geometry": { "type": "Point", "coordinates": [ 84.0524117, 18.8128924 ] } },
{ "type": "Feature", "properties": { "Statename": "Odisha", "Districtname": "Gajapati", "Subdistrictname": "Garabandha", "Blockname": "Gosani", "Healthblockname": "Gosani", "Healthfacilitytype": "health sub centre", "Facilityname": "Labnyagada", "NIN": 8166873664, "latitude": 18.81586, "longitude": 84.32349, "facility_type_standardized": "hsc" }, "geometry": { "type": "Point", "coordinates": [ 84.2948277, 18.8306892 ] } },
{ "type": "Feature", "properties": { "Statename": "Odisha", "Districtname": "Gajapati", "Subdistrictname": "Kasinagar", "Blockname": "Kasinagar", "Healthblockname": "Kashinagar", "Healthfacilitytype": "health sub centre", "Facilityname": "K Sitapur", "NIN": 8587821722, "latitude": 18.81694, "longitude": 83.99217, "facility_type_standardized": "hsc" }, "geometry": { "type": "Point", "coordinates": [ 83.9957837, 18.8161004 ] } },
{ "type": "Feature", "properties": { "Statename": "Odisha", "Districtname": "Gajapati", "Subdistrictname": "Kasinagar", "Blockname": "Kasinagar", "Healthblockname": "Kashinagar", "Healthfacilitytype": "health sub centre", "Facilityname": "Hadhubhangi", "NIN": 6647428355, "latitude": 18.81948, "longitude": 83.94217, "facility_type_standardized": "hsc" }, "geometry": { "type": "Point", "coordinates": [ 83.9435149, 18.8178301 ] } },
{ "type": "Feature", "properties": { "Statename": "Odisha", "Districtname": "Gajapati", "Subdistrictname": "Kasinagar", "Blockname": "Kasinagar", "Healthblockname": "Kashinagar", "Healthfacilitytype": "health sub centre", "Facilityname": "Kharada", "NIN": 8228726462, "latitude": 18.82015, "longitude": 83.97039, "facility_type_standardized": "hsc" }, "geometry": { "type": "Point", "coordinates": [ 83.9684823, 18.8241992 ] } },
{ "type": "Feature", "properties": { "Statename": "Odisha", "Districtname": "Gajapati", "Subdistrictname": "Gurandi", "Blockname": "Gosani", "Healthblockname": "Gosani", "Healthfacilitytype": "health sub centre", "Facilityname": "Uppalada", "NIN": 4278242823, "latitude": 18.82723, "longitude": 84.17077, "facility_type_standardized": "hsc" }, "geometry": { "type": "Point", "coordinates": [ 84.1645103, 18.8285046 ] } },
{ "type": "Feature", "properties": { "Statename": "Odisha", "Districtname": "Gajapati", "Subdistrictname": "Kasinagar", "Blockname": "Kasinagar", "Healthblockname": "Kashinagar", "Healthfacilitytype": "health sub centre", "Facilityname": "Kidigam", "NIN": 1316631173, "latitude": 18.82742, "longitude": 83.89953, "facility_type_standardized": "hsc" }, "geometry": { "type": "Point", "coordinates": [ 83.8994415, 18.8252771 ] } },
{ "type": "Feature", "properties": { "Statename": "Odisha", "Districtname": "Gajapati", "Subdistrictname": "Gurandi", "Blockname": "Gosani", "Healthblockname": "Gosani", "Healthfacilitytype": "health sub centre", "Facilityname": "Badakoturu", "NIN": 5285884564, "latitude": 18.83098, "longitude": 84.24287, "facility_type_standardized": "hsc" }, "geometry": { "type": "Point", "coordinates": [ 84.256097, 18.8267519 ] } },
{ "type": "Feature", "properties": { "Statename": "Odisha", "Districtname": "Gajapati", "Subdistrictname": "Garabandha", "Blockname": "Gosani", "Healthblockname": "Gosani", "Healthfacilitytype": "health sub centre", "Facilityname": "Garabandha", "NIN": 2125311833, "latitude": 18.8319, "longitude": 84.27233, "facility_type_standardized": "hsc" }, "geometry": { "type": "Point", "coordinates": [ 84.2712078, 18.8308771 ] } },
{ "type": "Feature", "properties": { "Statename": "Odisha", "Districtname": "Gajapati", "Subdistrictname": "Gurandi", "Blockname": "Gosani", "Healthblockname": "Gosani", "Healthfacilitytype": "health sub centre", "Facilityname": "Kharasanda", "NIN": 5458238341, "latitude": 18.8332, "longitude": 84.15408, "facility_type_standardized": "hsc" }, "geometry": { "type": "Point", "coordinates": [ 84.1645103, 18.8285046 ] } },
{ "type": "Feature", "properties": { "Statename": "Odisha", "Districtname": "Gajapati", "Subdistrictname": "Gurandi", "Blockname": "Gosani", "Healthblockname": "Gosani", "Healthfacilitytype": "health sub centre", "Facilityname": "Bhuskudi", "NIN": 4274855859, "latitude": 18.83564, "longitude": 84.20422, "facility_type_standardized": "hsc" }, "geometry": { "type": "Point", "coordinates": [ 84.2175189, 18.827903 ] } },
{ "type": "Feature", "properties": { "Statename": "Odisha", "Districtname": "Gajapati", "Subdistrictname": "Gurandi", "Blockname": "Gosani", "Healthblockname": "Gosani", "Healthfacilitytype": "health sub centre", "Facilityname": "Machamara", "NIN": 8435648616, "latitude": 18.83933, "longitude": 84.18821, "facility_type_standardized": "hsc" }, "geometry": { "type": "Point", "coordinates": [ 84.1824347, 18.8450643 ] } },
{ "type": "Feature", "properties": { "Statename": "Odisha", "Districtname": "Gajapati", "Subdistrictname": "Paralakhemundi", "Blockname": "Gumma", "Healthblockname": "Gumma", "Healthfacilitytype": "health sub centre", "Facilityname": "Jeeba", "NIN": 4674722378, "latitude": 18.84075, "longitude": 84.08265, "facility_type_standardized": "hsc" }, "geometry": { "type": "Point", "coordinates": [ 84.0572116, 18.8249891 ] } },
{ "type": "Feature", "properties": { "Statename": "Odisha", "Districtname": "Gajapati", "Subdistrictname": "Kasinagar", "Blockname": "Kasinagar", "Healthblockname": "Kashinagar", "Healthfacilitytype": "health sub centre", "Facilityname": "Kortam", "NIN": 6662818449, "latitude": 18.84444, "longitude": 83.91069, "facility_type_standardized": "hsc" }, "geometry": { "type": "Point", "coordinates": [ 83.9066409, 18.8452649 ] } },
{ "type": "Feature", "properties": { "Statename": "Odisha", "Districtname": "Gajapati", "Subdistrictname": "Garabandha", "Blockname": "Gosani", "Healthblockname": "Gosani", "Healthfacilitytype": "health sub centre", "Facilityname": "Talasingh", "NIN": 4612874430, "latitude": 18.85359, "longitude": 84.30311, "facility_type_standardized": "hsc" }, "geometry": { "type": "Point", "coordinates": [ 84.29481, 18.8484886 ] } },
{ "type": "Feature", "properties": { "Statename": "Odisha", "Districtname": "Gajapati", "Subdistrictname": "Paralakhemundi", "Blockname": "Gumma", "Healthblockname": "Gumma", "Healthfacilitytype": "health sub centre", "Facilityname": "Tarangada", "NIN": 4842765366, "latitude": 18.85586, "longitude": 84.06561, "facility_type_standardized": "hsc" }, "geometry": { "type": "Point", "coordinates": [ 84.0572116, 18.8249891 ] } },
{ "type": "Feature", "properties": { "Statename": "Odisha", "Districtname": "Gajapati", "Subdistrictname": "Kasinagar", "Blockname": "Kashinagar", "Healthblockname": "Kashinagar", "Healthfacilitytype": "health sub centre", "Facilityname": "Kashinagar", "NIN": 6437771345, "latitude": 18.86097, "longitude": 83.8619, "facility_type_standardized": "hsc" }, "geometry": { "type": "Point", "coordinates": [ 83.8689637, 18.8569604 ] } },
{ "type": "Feature", "properties": { "Statename": "Odisha", "Districtname": "Gajapati", "Subdistrictname": "Kasinagar", "Blockname": "Kasinagar", "Healthblockname": "Kashinagar", "Healthfacilitytype": "health sub centre", "Facilityname": "Haripur", "NIN": 3781176783, "latitude": 18.86113, "longitude": 83.88784, "facility_type_standardized": "hsc" }, "geometry": { "type": "Point", "coordinates": [ 83.8870097, 18.862849 ] } },
{ "type": "Feature", "properties": { "Statename": "Odisha", "Districtname": "Gajapati", "Subdistrictname": "Gurandi", "Blockname": "Gosani", "Healthblockname": "Gosani", "Healthfacilitytype": "health sub centre", "Facilityname": "Kantaragada", "NIN": 6158547783, "latitude": 18.86168, "longitude": 84.19424, "facility_type_standardized": "hsc" }, "geometry": { "type": "Point", "coordinates": [ 84.1973832, 18.8731225 ] } },
{ "type": "Feature", "properties": { "Statename": "Odisha", "Districtname": "Gajapati", "Subdistrictname": "Garabandha", "Blockname": "Rayagada", "Healthblockname": "Rayagada", "Healthfacilitytype": "health sub centre", "Facilityname": "Gandahati", "NIN": 1458376686, "latitude": 18.87259, "longitude": 84.26621, "facility_type_standardized": "hsc" }, "geometry": { "type": "Point", "coordinates": [ 84.2657036, 18.8769843 ] } },
{ "type": "Feature", "properties": { "Statename": "Odisha", "Districtname": "Gajapati", "Subdistrictname": "Gurandi", "Blockname": "Gosani", "Healthblockname": "Gosani", "Healthfacilitytype": "health sub centre", "Facilityname": "Bomika", "NIN": 7874514180, "latitude": 18.87292, "longitude": 84.17749, "facility_type_standardized": "hsc" }, "geometry": { "type": "Point", "coordinates": [ 84.1973832, 18.8731225 ] } },
{ "type": "Feature", "properties": { "Statename": "Odisha", "Districtname": "Gajapati", "Subdistrictname": "Serango", "Blockname": "Gumma", "Healthblockname": "Gumma", "Healthfacilitytype": "health sub centre", "Facilityname": "Namanguda", "NIN": 7344245589, "latitude": 18.87956, "longitude": 84.10702, "facility_type_standardized": "hsc" }, "geometry": { "type": "Point", "coordinates": [ 84.153746, 18.8877425 ] } },
{ "type": "Feature", "properties": { "Statename": "Odisha", "Districtname": "Gajapati", "Subdistrictname": "Rayagada", "Blockname": "Rayagada", "Healthblockname": "Rayagada", "Healthfacilitytype": "health sub centre", "Facilityname": "Narayanapur", "NIN": 6161716524, "latitude": 18.88037, "longitude": 84.18538, "facility_type_standardized": "hsc" }, "geometry": { "type": "Point", "coordinates": [ 84.1973832, 18.8731225 ] } },
{ "type": "Feature", "properties": { "Statename": "Odisha", "Districtname": "Gajapati", "Subdistrictname": "Garabandha", "Blockname": "Rayagada", "Healthblockname": "Rayagada", "Healthfacilitytype": "health sub centre", "Facilityname": "Mulligimma", "NIN": 1538847722, "latitude": 18.8836, "longitude": 84.28692, "facility_type_standardized": "hsc" }, "geometry": { "type": "Point", "coordinates": [ 84.2853789, 18.8833478 ] } },
{ "type": "Feature", "properties": { "Statename": "Odisha", "Districtname": "Gajapati", "Subdistrictname": "Serango", "Blockname": "Gumma", "Healthblockname": "Gumma", "Healthfacilitytype": "health sub centre", "Facilityname": "Parida", "NIN": 8538375331, "latitude": 18.8865, "longitude": 83.95034, "facility_type_standardized": "hsc" }, "geometry": { "type": "Point", "coordinates": [ 83.9533123, 18.8870929 ] } },
{ "type": "Feature", "properties": { "Statename": "Odisha", "Districtname": "Gajapati", "Subdistrictname": "Rayagada", "Blockname": "Rayagada", "Healthblockname": "Rayagada", "Healthfacilitytype": "health sub centre", "Facilityname": "Talamunda", "NIN": 7412338837, "latitude": 18.89455, "longitude": 84.28579, "facility_type_standardized": "hsc" }, "geometry": { "type": "Point", "coordinates": [ 84.2849283, 18.8907277 ] } },
{ "type": "Feature", "properties": { "Statename": "Odisha", "Districtname": "Gajapati", "Subdistrictname": "Garabandha", "Blockname": "Rayagada", "Healthblockname": "Rayagada", "Healthfacilitytype": "health sub centre", "Facilityname": "Sankorada", "NIN": 5768784125, "latitude": 18.90161, "longitude": 84.22084, "facility_type_standardized": "hsc" }, "geometry": { "type": "Point", "coordinates": [ 84.2091438, 18.9022416 ] } },
{ "type": "Feature", "properties": { "Statename": "Odisha", "Districtname": "Gajapati", "Subdistrictname": "Rayagada", "Blockname": "Rayagada", "Healthblockname": "Rayagada", "Healthfacilitytype": "health sub centre", "Facilityname": "Karadasingh", "NIN": 7558574674, "latitude": 18.91019, "longitude": 84.19464, "facility_type_standardized": "hsc" }, "geometry": { "type": "Point", "coordinates": [ 84.2003203, 18.9133928 ] } },
{ "type": "Feature", "properties": { "Statename": "Odisha", "Districtname": "Gajapati", "Subdistrictname": "Kasinagar", "Blockname": "Kasinagar", "Healthblockname": "Kashinagar", "Healthfacilitytype": "health sub centre", "Facilityname": "Kitingi", "NIN": 8548376139, "latitude": 18.91026, "longitude": 83.85224, "facility_type_standardized": "hsc" }, "geometry": { "type": "Point", "coordinates": [ 83.8504215, 18.9133139 ] } },
{ "type": "Feature", "properties": { "Statename": "Odisha", "Districtname": "Gajapati", "Subdistrictname": "Serango", "Blockname": "Gumma", "Healthblockname": "Gumma", "Healthfacilitytype": "health sub centre", "Facilityname": "Kujasingh", "NIN": 8386626819, "latitude": 18.91565, "longitude": 84.13541, "facility_type_standardized": "hsc" }, "geometry": { "type": "Point", "coordinates": [ 84.1502577, 18.9198432 ] } },
{ "type": "Feature", "properties": { "Statename": "Odisha", "Districtname": "Gajapati", "Subdistrictname": "Serango", "Blockname": "Gumma", "Healthblockname": "Gumma", "Healthfacilitytype": "health sub centre", "Facilityname": "Gaiba", "NIN": 6775262881, "latitude": 18.91581, "longitude": 83.94733, "facility_type_standardized": "hsc" }, "geometry": { "type": "Point", "coordinates": [ 83.9477724, 18.9237566 ] } },
{ "type": "Feature", "properties": { "Statename": "Odisha", "Districtname": "Gajapati", "Subdistrictname": "Garabandha", "Blockname": "Rayagada", "Healthblockname": "Rayagada", "Healthfacilitytype": "health sub centre", "Facilityname": "Kerandi", "NIN": 5153883789, "latitude": 18.91726, "longitude": 84.33445, "facility_type_standardized": "hsc" }, "geometry": { "type": "Point", "coordinates": [ 84.3442327, 18.9049247 ] } },
{ "type": "Feature", "properties": { "Statename": "Odisha", "Districtname": "Gajapati", "Subdistrictname": "Rayagada", "Blockname": "Rayagada", "Healthblockname": "Rayagada", "Healthfacilitytype": "health sub centre", "Facilityname": "Krushnapur", "NIN": 4472613787, "latitude": 18.92166, "longitude": 84.15635, "facility_type_standardized": "hsc" }, "geometry": { "type": "Point", "coordinates": [ 84.1502577, 18.9198432 ] } },
{ "type": "Feature", "properties": { "Statename": "Odisha", "Districtname": "Gajapati", "Subdistrictname": "Garabandha", "Blockname": "Rayagada", "Healthblockname": "Rayagada", "Healthfacilitytype": "health sub centre", "Facilityname": "Gangabada", "NIN": 8725625886, "latitude": 18.92658, "longitude": 84.37732, "facility_type_standardized": "hsc" }, "geometry": { "type": "Point", "coordinates": [ 84.372723, 18.9269108 ] } },
{ "type": "Feature", "properties": { "Statename": "Odisha", "Districtname": "Gajapati", "Subdistrictname": "Serango", "Blockname": "Gumma", "Healthblockname": "Gumma", "Healthfacilitytype": "health sub centre", "Facilityname": "Ajayagada", "NIN": 2747447163, "latitude": 18.92682, "longitude": 84.08387, "facility_type_standardized": "hsc" }, "geometry": { "type": "Point", "coordinates": [ 84.0561966, 18.9715624 ] } },
{ "type": "Feature", "properties": { "Statename": "Odisha", "Districtname": "Gajapati", "Subdistrictname": "Serango", "Blockname": "Gumma", "Healthblockname": "Gumma", "Healthfacilitytype": "health sub centre", "Facilityname": "Munisingh", "NIN": 8448133358, "latitude": 18.92928, "longitude": 84.02559, "facility_type_standardized": "hsc" }, "geometry": { "type": "Point", "coordinates": [ 83.9949214, 18.917369 ] } },
{ "type": "Feature", "properties": { "Statename": "Odisha", "Districtname": "Gajapati", "Subdistrictname": "Garabandha", "Blockname": "Rayagada", "Healthblockname": "Rayagada", "Healthfacilitytype": "health sub centre", "Facilityname": "Tumbo", "NIN": 3146421114, "latitude": 18.93027, "longitude": 84.32199, "facility_type_standardized": "hsc" }, "geometry": { "type": "Point", "coordinates": [ 84.3204368, 18.9335435 ] } },
{ "type": "Feature", "properties": { "Statename": "Odisha", "Districtname": "Gajapati", "Subdistrictname": "Kasinagar", "Blockname": "Kasinagar", "Healthblockname": "Kashinagar", "Healthfacilitytype": "health sub centre", "Facilityname": "Gouri", "NIN": 6233121539, "latitude": 18.93646, "longitude": 83.8338, "facility_type_standardized": "hsc" }, "geometry": { "type": "Point", "coordinates": [ 83.8427914, 18.9363296 ] } },
{ "type": "Feature", "properties": { "Statename": "Odisha", "Districtname": "Gajapati", "Subdistrictname": "Garabandha", "Blockname": "Rayagada", "Healthblockname": "Rayagada", "Healthfacilitytype": "health sub centre", "Facilityname": "Koinpur", "NIN": 1155275637, "latitude": 18.94475, "longitude": 84.32856, "facility_type_standardized": "hsc" }, "geometry": { "type": "Point", "coordinates": [ 84.3386346, 18.9405918 ] } },
{ "type": "Feature", "properties": { "Statename": "Odisha", "Districtname": "Gajapati", "Subdistrictname": "Ramagiri", "Blockname": "Rayagada", "Healthblockname": "Rayagada", "Healthfacilitytype": "health sub centre", "Facilityname": "Laxmipur", "NIN": 8745817653, "latitude": 18.94573, "longitude": 84.283, "facility_type_standardized": "hsc" }, "geometry": { "type": "Point", "coordinates": [ 84.2635899, 18.9576495 ] } },
{ "type": "Feature", "properties": { "Statename": "Odisha", "Districtname": "Gajapati", "Subdistrictname": "Serango", "Blockname": "Gumma", "Healthblockname": "Gumma", "Healthfacilitytype": "health sub centre", "Facilityname": "Sukei", "NIN": 8213773685, "latitude": 18.95047, "longitude": 84.01171, "facility_type_standardized": "hsc" }, "geometry": { "type": "Point", "coordinates": [ 84.014672, 18.9771842 ] } },
{ "type": "Feature", "properties": { "Statename": "Odisha", "Districtname": "Gajapati", "Subdistrictname": "Rayagada", "Blockname": "Rayagada", "Healthblockname": "Rayagada", "Healthfacilitytype": "health sub centre", "Facilityname": "Raghunathpur", "NIN": 5518512719, "latitude": 18.95271, "longitude": 84.22168, "facility_type_standardized": "hsc" }, "geometry": { "type": "Point", "coordinates": [ 84.223883, 18.96114 ] } },
{ "type": "Feature", "properties": { "Statename": "Odisha", "Districtname": "Gajapati", "Subdistrictname": "Rayagada", "Blockname": "Rayagada", "Healthblockname": "Rayagada", "Healthfacilitytype": "health sub centre", "Facilityname": "Abarsingh", "NIN": 2527212415, "latitude": 18.95802, "longitude": 84.18886, "facility_type_standardized": "hsc" }, "geometry": { "type": "Point", "coordinates": [ 84.1907269, 18.9615175 ] } },
{ "type": "Feature", "properties": { "Statename": "Odisha", "Districtname": "Gajapati", "Subdistrictname": "Serango", "Blockname": "Gumma", "Healthblockname": "Gumma", "Healthfacilitytype": "health sub centre", "Facilityname": "Bantalada", "NIN": 8482516682, "latitude": 18.95833, "longitude": 84.06339, "facility_type_standardized": "hsc" }, "geometry": { "type": "Point", "coordinates": [ 84.0561966, 18.9715624 ] } },
{ "type": "Feature", "properties": { "Statename": "Odisha", "Districtname": "Gajapati", "Subdistrictname": "Rayagada", "Blockname": "Rayagada", "Healthblockname": "Rayagada", "Healthfacilitytype": "health sub centre", "Facilityname": "Champapur", "NIN": 6586482272, "latitude": 18.96227, "longitude": 84.14571, "facility_type_standardized": "hsc" }, "geometry": { "type": "Point", "coordinates": [ 84.1536869, 18.9610698 ] } },
{ "type": "Feature", "properties": { "Statename": "Odisha", "Districtname": "Gajapati", "Subdistrictname": "Rayagada", "Blockname": "Rayagada", "Healthblockname": "Rayagada", "Healthfacilitytype": "health sub centre", "Facilityname": "Rayagada", "NIN": 1485466773, "latitude": 18.9642, "longitude": 84.15809, "facility_type_standardized": "hsc" }, "geometry": { "type": "Point", "coordinates": [ 84.157984, 18.9618845 ] } },
{ "type": "Feature", "properties": { "Statename": "Odisha", "Districtname": "Gajapati", "Subdistrictname": "Rayagada", "Blockname": "Rayagada", "Healthblockname": "Rayagada", "Healthfacilitytype": "health sub centre", "Facilityname": "Jeerango", "NIN": 7468366625, "latitude": 18.96447, "longitude": 84.22646, "facility_type_standardized": "hsc" }, "geometry": { "type": "Point", "coordinates": [ 84.223883, 18.96114 ] } },
{ "type": "Feature", "properties": { "Statename": "Odisha", "Districtname": "Gajapati", "Subdistrictname": "Kasinagar", "Blockname": "Kasinagar", "Healthblockname": "Kashinagar", "Healthfacilitytype": "health sub centre", "Facilityname": "Khandava", "NIN": 7121531540, "latitude": 18.96682, "longitude": 83.83035, "facility_type_standardized": "hsc" }, "geometry": { "type": "Point", "coordinates": [ 83.8275109, 18.9697464 ] } },
{ "type": "Feature", "properties": { "Statename": "Odisha", "Districtname": "Gajapati", "Subdistrictname": "Kasinagar", "Blockname": "Kasinagar", "Healthblockname": "Kashinagar", "Healthfacilitytype": "health sub centre", "Facilityname": "Alada", "NIN": 8335582741, "latitude": 18.97437, "longitude": 83.87203, "facility_type_standardized": "hsc" }, "geometry": { "type": "Point", "coordinates": [ 83.8706849, 18.975597 ] } },
{ "type": "Feature", "properties": { "Statename": "Odisha", "Districtname": "Gajapati", "Subdistrictname": "Serango", "Blockname": "Gumma", "Healthblockname": "Gumma", "Healthfacilitytype": "health sub centre", "Facilityname": "Gumma", "NIN": 7428183276, "latitude": 18.98545, "longitude": 84.02564, "facility_type_standardized": "hsc" }, "geometry": { "type": "Point", "coordinates": [ 84.0215921, 18.9816866 ] } },
{ "type": "Feature", "properties": { "Statename": "Odisha", "Districtname": "Gajapati", "Subdistrictname": "Ramagiri", "Blockname": "Rayagada", "Healthblockname": "Rayagada", "Healthfacilitytype": "health sub centre", "Facilityname": "Sanasoda", "NIN": 3156413514, "latitude": 18.98771, "longitude": 84.28147, "facility_type_standardized": "hsc" }, "geometry": { "type": "Point", "coordinates": [ 84.2635899, 18.9576495 ] } },
{ "type": "Feature", "properties": { "Statename": "Odisha", "Districtname": "Gajapati", "Subdistrictname": "Ramagiri", "Blockname": "Rayagada", "Healthblockname": "Rayagada", "Healthfacilitytype": "health sub centre", "Facilityname": "Puttoro", "NIN": 8825627642, "latitude": 18.98849, "longitude": 84.2461, "facility_type_standardized": "hsc" }, "geometry": { "type": "Point", "coordinates": [ 84.2331733, 19.000906 ] } },
{ "type": "Feature", "properties": { "Statename": "Odisha", "Districtname": "Gajapati", "Subdistrictname": "Ramagiri", "Blockname": "Rayagada", "Healthblockname": "Rayagada", "Healthfacilitytype": "health sub centre", "Facilityname": "Dambala", "NIN": 7567345777, "latitude": 18.99739, "longitude": 84.19968, "facility_type_standardized": "hsc" }, "geometry": { "type": "Point", "coordinates": [ 84.2005654, 18.9977982 ] } },
{ "type": "Feature", "properties": { "Statename": "Odisha", "Districtname": "Gajapati", "Subdistrictname": "Serango", "Blockname": "Gumma", "Healthblockname": "Gumma", "Healthfacilitytype": "health sub centre", "Facilityname": "Linga", "NIN": 6237683344, "latitude": 18.99952, "longitude": 83.99754, "facility_type_standardized": "hsc" }, "geometry": { "type": "Point", "coordinates": [ 83.9989843, 18.9986682 ] } },
{ "type": "Feature", "properties": { "Statename": "Odisha", "Districtname": "Gajapati", "Subdistrictname": "Serango", "Blockname": "Gumma", "Healthblockname": "Gumma", "Healthfacilitytype": "health sub centre", "Facilityname": "Baijhal", "NIN": 4883545412, "latitude": 18.99956, "longitude": 83.91301, "facility_type_standardized": "hsc" }, "geometry": { "type": "Point", "coordinates": [ 83.9073087, 19.003741 ] } },
{ "type": "Feature", "properties": { "Statename": "Odisha", "Districtname": "Gajapati", "Subdistrictname": "Ramagiri", "Blockname": "Rayagada", "Healthblockname": "Rayagada", "Healthfacilitytype": "health sub centre", "Facilityname": "Loba", "NIN": 1251561476, "latitude": 19.00816, "longitude": 84.28295, "facility_type_standardized": "hsc" }, "geometry": { "type": "Point", "coordinates": [ 84.2876544, 19.0223516 ] } },
{ "type": "Feature", "properties": { "Statename": "Odisha", "Districtname": "Gajapati", "Subdistrictname": "Serango", "Blockname": "Gumma", "Healthblockname": "Gumma", "Healthfacilitytype": "health sub centre", "Facilityname": "Serengo", "NIN": 7446613478, "latitude": 19.00901, "longitude": 84.04529, "facility_type_standardized": "hsc" }, "geometry": { "type": "Point", "coordinates": [ 84.0464888, 19.0093662 ] } },
{ "type": "Feature", "properties": { "Statename": "Odisha", "Districtname": "Gajapati", "Subdistrictname": "Serango", "Blockname": "Gumma", "Healthblockname": "Gumma", "Healthfacilitytype": "health sub centre", "Facilityname": "B Kalakote", "NIN": 1751388784, "latitude": 19.01229, "longitude": 84.00418, "facility_type_standardized": "hsc" }, "geometry": { "type": "Point", "coordinates": [ 83.9975811, 19.0091727 ] } },
{ "type": "Feature", "properties": { "Statename": "Odisha", "Districtname": "Gajapati", "Subdistrictname": "Rayagada", "Blockname": "Rayagada", "Healthblockname": "Rayagada", "Healthfacilitytype": "health sub centre", "Facilityname": "Marlaba", "NIN": 1615314141, "latitude": 19.0185, "longitude": 84.13029, "facility_type_standardized": "hsc" }, "geometry": { "type": "Point", "coordinates": [ 84.1315231, 19.0193648 ] } },
{ "type": "Feature", "properties": { "Statename": "Odisha", "Districtname": "Gajapati", "Subdistrictname": "Serango", "Blockname": "Gumma", "Healthblockname": "Gumma", "Healthfacilitytype": "health sub centre", "Facilityname": "Tarajasingh", "NIN": 2757863283, "latitude": 19.03173, "longitude": 84.05391, "facility_type_standardized": "hsc" }, "geometry": { "type": "Point", "coordinates": [ 84.0461166, 19.0344307 ] } },
{ "type": "Feature", "properties": { "Statename": "Odisha", "Districtname": "Gajapati", "Subdistrictname": "Rayagada", "Blockname": "Rayagada", "Healthblockname": "Rayagada", "Healthfacilitytype": "health sub centre", "Facilityname": "Jallango", "NIN": 4224864720, "latitude": 19.03442, "longitude": 84.16628, "facility_type_standardized": "hsc" }, "geometry": { "type": "Point", "coordinates": [ 84.138752, 19.0185669 ] } },
{ "type": "Feature", "properties": { "Statename": "Odisha", "Districtname": "Gajapati", "Subdistrictname": "Ramagiri", "Blockname": "R.Udayagiri", "Healthblockname": "R.Udayagiri", "Healthfacilitytype": "health sub centre", "Facilityname": "Mangarajpur", "NIN": 6335531510, "latitude": 19.0356, "longitude": 84.2583, "facility_type_standardized": "hsc" }, "geometry": { "type": "Point", "coordinates": [ 84.2595601, 19.0651834 ] } },
{ "type": "Feature", "properties": { "Statename": "Odisha", "Districtname": "Gajapati", "Subdistrictname": "Serango", "Blockname": "Gumma", "Healthblockname": "Gumma", "Healthfacilitytype": "health sub centre", "Facilityname": "Jungjungle", "NIN": 1688683174, "latitude": 19.03602, "longitude": 83.99108, "facility_type_standardized": "hsc" }, "geometry": { "type": "Point", "coordinates": [ 84.0109678, 19.0485587 ] } },
{ "type": "Feature", "properties": { "Statename": "Odisha", "Districtname": "Gajapati", "Subdistrictname": "Serango", "Blockname": "Nuagada", "Healthblockname": "Nuagada", "Healthfacilitytype": "health sub centre", "Facilityname": "Titisingh", "NIN": 4534781648, "latitude": 19.0428, "longitude": 84.09438, "facility_type_standardized": "hsc" }, "geometry": { "type": "Point", "coordinates": [ 84.0933867, 19.0520735 ] } },
{ "type": "Feature", "properties": { "Statename": "Odisha", "Districtname": "Gajapati", "Subdistrictname": "Serango", "Blockname": "Gumma", "Healthblockname": "Gumma", "Healthfacilitytype": "health sub centre", "Facilityname": "Tumula", "NIN": 1611385228, "latitude": 19.04577, "longitude": 84.01112, "facility_type_standardized": "hsc" }, "geometry": { "type": "Point", "coordinates": [ 84.0125998, 19.0468207 ] } },
{ "type": "Feature", "properties": { "Statename": "Odisha", "Districtname": "Gajapati", "Subdistrictname": "Serango", "Blockname": "Nuagada", "Healthblockname": "Nuagada", "Healthfacilitytype": "health sub centre", "Facilityname": "Badapada", "NIN": 1351122385, "latitude": 19.05141, "longitude": 84.09353, "facility_type_standardized": "hsc" }, "geometry": { "type": "Point", "coordinates": [ 84.0933867, 19.0520735 ] } },
{ "type": "Feature", "properties": { "Statename": "Odisha", "Districtname": "Gajapati", "Subdistrictname": "Serango", "Blockname": "Nuagada", "Healthblockname": "Nuagada", "Healthfacilitytype": "health sub centre", "Facilityname": "Antarada", "NIN": 4613686684, "latitude": 19.05236, "longitude": 84.21823, "facility_type_standardized": "hsc" }, "geometry": { "type": "Point", "coordinates": [ 84.2564718, 19.0720234 ] } },
{ "type": "Feature", "properties": { "Statename": "Odisha", "Districtname": "Gajapati", "Subdistrictname": "R.Udayagiri", "Blockname": "R.Udayagiri", "Healthblockname": "R.Udayagiri", "Healthfacilitytype": "health sub centre", "Facilityname": "Jamadhal", "NIN": 5536265514, "latitude": 19.05294, "longitude": 84.30406, "facility_type_standardized": "hsc" }, "geometry": { "type": "Point", "coordinates": [ 84.3238088, 19.063062 ] } },
{ "type": "Feature", "properties": { "Statename": "Odisha", "Districtname": "Gajapati", "Subdistrictname": "Ramagiri", "Blockname": "R.Udayagiri", "Healthblockname": "R.Udayagiri", "Healthfacilitytype": "health sub centre", "Facilityname": "Tabarsingh", "NIN": 2812444830, "latitude": 19.06042, "longitude": 84.35638, "facility_type_standardized": "hsc" }, "geometry": { "type": "Point", "coordinates": [ 84.3238088, 19.063062 ] } },
{ "type": "Feature", "properties": { "Statename": "Odisha", "Districtname": "Gajapati", "Subdistrictname": "Serango", "Blockname": "Nuagada", "Healthblockname": "Nuagada", "Healthfacilitytype": "health sub centre", "Facilityname": "B K Pada", "NIN": 8163874145, "latitude": 19.06425, "longitude": 84.09232, "facility_type_standardized": "hsc" }, "geometry": { "type": "Point", "coordinates": [ 84.0898798, 19.0635228 ] } },
{ "type": "Feature", "properties": { "Statename": "Odisha", "Districtname": "Gajapati", "Subdistrictname": "Serango", "Blockname": "Nuagada", "Healthblockname": "Nuagada", "Healthfacilitytype": "health sub centre", "Facilityname": "Sauri", "NIN": 1153446115, "latitude": 19.06489, "longitude": 84.05074, "facility_type_standardized": "hsc" }, "geometry": { "type": "Point", "coordinates": [ 84.0373538, 19.0546065 ] } },
{ "type": "Feature", "properties": { "Statename": "Odisha", "Districtname": "Gajapati", "Subdistrictname": "R.Udayagiri", "Blockname": "R.Udayagiri", "Healthblockname": "R.Udayagiri", "Healthfacilitytype": "health sub centre", "Facilityname": "Jhulla", "NIN": 2645746864, "latitude": 19.06771, "longitude": 84.34678, "facility_type_standardized": "hsc" }, "geometry": { "type": "Point", "coordinates": [ 84.3238088, 19.063062 ] } },
{ "type": "Feature", "properties": { "Statename": "Odisha", "Districtname": "Gajapati", "Subdistrictname": "R.Udayagiri", "Blockname": "Nuagada", "Healthblockname": "Nuagada", "Healthfacilitytype": "health sub centre", "Facilityname": "Betarsingh", "NIN": 8787114332, "latitude": 19.09198, "longitude": 84.23058, "facility_type_standardized": "hsc" }, "geometry": { "type": "Point", "coordinates": [ 84.2564718, 19.0720234 ] } },
{ "type": "Feature", "properties": { "Statename": "Odisha", "Districtname": "Gajapati", "Subdistrictname": "R.Udayagiri", "Blockname": "Nuagada", "Healthblockname": "Nuagada", "Healthfacilitytype": "health sub centre", "Facilityname": "Lioba", "NIN": 3481185845, "latitude": 19.09584, "longitude": 84.16661, "facility_type_standardized": "hsc" }, "geometry": { "type": "Point", "coordinates": [ 84.1507247, 19.1043531 ] } },
{ "type": "Feature", "properties": { "Statename": "Odisha", "Districtname": "Gajapati", "Subdistrictname": "Ramagiri", "Blockname": "R.Udayagiri", "Healthblockname": "R.Udayagiri", "Healthfacilitytype": "health sub centre", "Facilityname": "Ramagiri", "NIN": 2615354129, "latitude": 19.09609, "longitude": 84.29567, "facility_type_standardized": "hsc" }, "geometry": { "type": "Point", "coordinates": [ 84.299136, 19.0883532 ] } },
{ "type": "Feature", "properties": { "Statename": "Odisha", "Districtname": "Gajapati", "Subdistrictname": "Serango", "Blockname": "Nuagada", "Healthblockname": "Nuagada", "Healthfacilitytype": "health sub centre", "Facilityname": "Nuagada", "NIN": 4588576266, "latitude": 19.10288, "longitude": 84.05079, "facility_type_standardized": "hsc" }, "geometry": { "type": "Point", "coordinates": [ 84.0471536, 19.1024824 ] } },
{ "type": "Feature", "properties": { "Statename": "Odisha", "Districtname": "Gajapati", "Subdistrictname": "Serango", "Blockname": "Nuagada", "Healthblockname": "Nuagada", "Healthfacilitytype": "health sub centre", "Facilityname": "Tabarada", "NIN": 6488553667, "latitude": 19.10716, "longitude": 84.12786, "facility_type_standardized": "hsc" }, "geometry": { "type": "Point", "coordinates": [ 84.1321193, 19.1098982 ] } },
{ "type": "Feature", "properties": { "Statename": "Odisha", "Districtname": "Gajapati", "Subdistrictname": "Ramagiri", "Blockname": "R.Udayagiri", "Healthblockname": "R.Udayagiri", "Healthfacilitytype": "health sub centre", "Facilityname": "Randiva", "NIN": 1566231260, "latitude": 19.14231, "longitude": 84.25464, "facility_type_standardized": "hsc" }, "geometry": { "type": "Point", "coordinates": [ 84.2508562, 19.1388545 ] } },
{ "type": "Feature", "properties": { "Statename": "Odisha", "Districtname": "Gajapati", "Subdistrictname": "Ramagiri", "Blockname": "R.Udayagiri", "Healthblockname": "R.Udayagiri", "Healthfacilitytype": "health sub centre", "Facilityname": "Panasadhia", "NIN": 1178424840, "latitude": 19.14566, "longitude": 84.30752, "facility_type_standardized": "hsc" }, "geometry": { "type": "Point", "coordinates": [ 84.3038389, 19.1429489 ] } },
{ "type": "Feature", "properties": { "Statename": "Odisha", "Districtname": "Gajapati", "Subdistrictname": "R.Udayagiri", "Blockname": "Nuagada", "Healthblockname": "Nuagada", "Healthfacilitytype": "health sub centre", "Facilityname": "Tumana", "NIN": 5543184484, "latitude": 19.15358, "longitude": 84.16939, "facility_type_standardized": "hsc" }, "geometry": { "type": "Point", "coordinates": [ 84.1726032, 19.144422 ] } },
{ "type": "Feature", "properties": { "Statename": "Odisha", "Districtname": "Gajapati", "Subdistrictname": "R.Udayagiri", "Blockname": "R.Udayagiri", "Healthblockname": "R.Udayagiri", "Healthfacilitytype": "health sub centre", "Facilityname": "R Udayagiri", "NIN": 3385812874, "latitude": 19.16181, "longitude": 84.15257, "facility_type_standardized": "hsc" }, "geometry": { "type": "Point", "coordinates": [ 84.1467232, 19.1643001 ] } },
{ "type": "Feature", "properties": { "Statename": "Odisha", "Districtname": "Gajapati", "Subdistrictname": "R.Udayagiri", "Blockname": "Nuagada", "Healthblockname": "Nuagada", "Healthfacilitytype": "health sub centre", "Facilityname": "Keradango", "NIN": 2226241319, "latitude": 19.16363, "longitude": 84.04097, "facility_type_standardized": "hsc" }, "geometry": { "type": "Point", "coordinates": [ 84.0377069, 19.1646854 ] } },
{ "type": "Feature", "properties": { "Statename": "Odisha", "Districtname": "Gajapati", "Subdistrictname": "R.Udayagiri", "Blockname": "R.Udayagiri", "Healthblockname": "R.Udayagiri", "Healthfacilitytype": "health sub centre", "Facilityname": "Lubersingh", "NIN": 2272612520, "latitude": 19.17445, "longitude": 84.18069, "facility_type_standardized": "hsc" }, "geometry": { "type": "Point", "coordinates": [ 84.1764937, 19.1741581 ] } },
{ "type": "Feature", "properties": { "Statename": "Odisha", "Districtname": "Gajapati", "Subdistrictname": "R.Udayagiri", "Blockname": "R.Udayagiri", "Healthblockname": "R.Udayagiri", "Healthfacilitytype": "health sub centre", "Facilityname": "Chelligada", "NIN": 8856821437, "latitude": 19.19614, "longitude": 84.25247, "facility_type_standardized": "hsc" }, "geometry": { "type": "Point", "coordinates": [ 84.2555368, 19.1941301 ] } },
{ "type": "Feature", "properties": { "Statename": "Odisha", "Districtname": "Gajapati", "Subdistrictname": "R.Udayagiri", "Blockname": "R.Udayagiri", "Healthblockname": "R.Udayagiri", "Healthfacilitytype": "health sub centre", "Facilityname": "Sialilati", "NIN": 8726117883, "latitude": 19.20827, "longitude": 84.31656, "facility_type_standardized": "hsc" }, "geometry": { "type": "Point", "coordinates": [ 84.2968295, 19.2298031 ] } },
{ "type": "Feature", "properties": { "Statename": "Odisha", "Districtname": "Gajapati", "Subdistrictname": "R.Udayagiri", "Blockname": "Nuagada", "Healthblockname": "Nuagada", "Healthfacilitytype": "health sub centre", "Facilityname": "Udayapur", "NIN": 1514871118, "latitude": 19.22014, "longitude": 84.00879, "facility_type_standardized": "hsc" }, "geometry": { "type": "Point", "coordinates": [ 84.0126309, 19.2179448 ] } },
{ "type": "Feature", "properties": { "Statename": "Odisha", "Districtname": "Gajapati", "Subdistrictname": "R.Udayagiri", "Blockname": "Nuagada", "Healthblockname": "Nuagada", "Healthfacilitytype": "health sub centre", "Facilityname": "Parimal", "NIN": 8618146446, "latitude": 19.22199, "longitude": 84.06772, "facility_type_standardized": "hsc" }, "geometry": { "type": "Point", "coordinates": [ 84.0679807, 19.2211211 ] } },
{ "type": "Feature", "properties": { "Statename": "Odisha", "Districtname": "Gajapati", "Subdistrictname": "R.Udayagiri", "Blockname": "R.Udayagiri", "Healthblockname": "R.Udayagiri", "Healthfacilitytype": "health sub centre", "Facilityname": "Mahendragada", "NIN": 6778725181, "latitude": 19.23305, "longitude": 84.26915, "facility_type_standardized": "hsc" }, "geometry": { "type": "Point", "coordinates": [ 84.2723767, 19.2361945 ] } },
{ "type": "Feature", "properties": { "Statename": "Odisha", "Districtname": "Gajapati", "Subdistrictname": "R.Udayagiri", "Blockname": "R.Udayagiri", "Healthblockname": "R.Udayagiri", "Healthfacilitytype": "health sub centre", "Facilityname": "Gadara", "NIN": 5342738340, "latitude": 19.24149, "longitude": 84.21945, "facility_type_standardized": "hsc" }, "geometry": { "type": "Point", "coordinates": [ 84.2341577, 19.2566409 ] } },
{ "type": "Feature", "properties": { "Statename": "Odisha", "Districtname": "Gajapati", "Subdistrictname": "R.Udayagiri", "Blockname": "R.Udayagiri", "Healthblockname": "R.Udayagiri", "Healthfacilitytype": "health sub centre", "Facilityname": "Chellagada", "NIN": 4834714653, "latitude": 19.24281, "longitude": 84.19413, "facility_type_standardized": "hsc" }, "geometry": { "type": "Point", "coordinates": [ 84.1882255, 19.2490589 ] } },
{ "type": "Feature", "properties": { "Statename": "Odisha", "Districtname": "Gajapati", "Subdistrictname": "R.Udayagiri", "Blockname": "Nuagada", "Healthblockname": "Nuagada", "Healthfacilitytype": "health sub centre", "Facilityname": "Sambalpur", "NIN": 7264632485, "latitude": 19.27638, "longitude": 84.08843, "facility_type_standardized": "hsc" }, "geometry": { "type": "Point", "coordinates": [ 84.085144, 19.2696484 ] } },
{ "type": "Feature", "properties": { "Statename": "Odisha", "Districtname": "Gajapati", "Subdistrictname": "Mohana", "Blockname": "Mohana", "Healthblockname": "Mohana", "Healthfacilitytype": "health sub centre", "Facilityname": "Jeerango", "NIN": 3257734834, "latitude": 19.28616, "longitude": 84.26141, "facility_type_standardized": "hsc" }, "geometry": { "type": "Point", "coordinates": [ 84.2612617, 19.2738374 ] } },
{ "type": "Feature", "properties": { "Statename": "Odisha", "Districtname": "Gajapati", "Subdistrictname": "R.Udayagiri", "Blockname": "Nuagada", "Healthblockname": "Nuagada", "Healthfacilitytype": "health sub centre", "Facilityname": "Anuguru", "NIN": 3323153217, "latitude": 19.29074, "longitude": 84.03651, "facility_type_standardized": "hsc" }, "geometry": { "type": "Point", "coordinates": [ 84.0348042, 19.290519 ] } },
{ "type": "Feature", "properties": { "Statename": "Odisha", "Districtname": "Gajapati", "Subdistrictname": "Mohana", "Blockname": "Mohana", "Healthblockname": "Mohana", "Healthfacilitytype": "health sub centre", "Facilityname": "CHANDRAGIRI", "NIN": 2118113188, "latitude": 19.30963, "longitude": 84.28454, "facility_type_standardized": "hsc" }, "geometry": { "type": "Point", "coordinates": [ 84.2847022, 19.3075455 ] } },
{ "type": "Feature", "properties": { "Statename": "Odisha", "Districtname": "Gajapati", "Subdistrictname": "R.Udayagiri", "Blockname": "Nuagada", "Healthblockname": "Nuagada", "Healthfacilitytype": "health sub centre", "Facilityname": "Sundardang", "NIN": 6715526155, "latitude": 19.31119, "longitude": 84.09203, "facility_type_standardized": "hsc" }, "geometry": { "type": "Point", "coordinates": [ 84.062851, 19.3277774 ] } },
{ "type": "Feature", "properties": { "Statename": "Odisha", "Districtname": "Gajapati", "Subdistrictname": "Mohana", "Blockname": "Mohana", "Healthblockname": "Mohana", "Healthfacilitytype": "health sub centre", "Facilityname": "Baghamari", "NIN": 3461838363, "latitude": 19.31175, "longitude": 84.23346, "facility_type_standardized": "hsc" }, "geometry": { "type": "Point", "coordinates": [ 84.2226052, 19.3116953 ] } },
{ "type": "Feature", "properties": { "Statename": "Odisha", "Districtname": "Gajapati", "Subdistrictname": "R.Udayagiri", "Blockname": "Nuagada", "Healthblockname": "Nuagada", "Healthfacilitytype": "health sub centre", "Facilityname": "Kirama", "NIN": 8462683569, "latitude": 19.32146, "longitude": 84.06592, "facility_type_standardized": "hsc" }, "geometry": { "type": "Point", "coordinates": [ 84.062851, 19.3277774 ] } },
{ "type": "Feature", "properties": { "Statename": "Odisha", "Districtname": "Gajapati", "Subdistrictname": "Mohana", "Blockname": "Mohana", "Healthblockname": "Mohana", "Healthfacilitytype": "health sub centre", "Facilityname": "Badasindhaba", "NIN": 8826166830, "latitude": 19.35294, "longitude": 84.21314, "facility_type_standardized": "hsc" }, "geometry": { "type": "Point", "coordinates": [ 84.2184058, 19.3590464 ] } },
{ "type": "Feature", "properties": { "Statename": "Odisha", "Districtname": "Gajapati", "Subdistrictname": "Mohana", "Blockname": "Mohana", "Healthblockname": "Mohana", "Healthfacilitytype": "health sub centre", "Facilityname": "Chudangapur", "NIN": 4567772282, "latitude": 19.35891, "longitude": 84.14644, "facility_type_standardized": "hsc" }, "geometry": { "type": "Point", "coordinates": [ 84.1413582, 19.3578925 ] } },
{ "type": "Feature", "properties": { "Statename": "Odisha", "Districtname": "Gajapati", "Subdistrictname": "Mohana", "Blockname": "Mohana", "Healthblockname": "Mohana", "Healthfacilitytype": "health sub centre", "Facilityname": "Bariabandha", "NIN": 4417563873, "latitude": 19.36465, "longitude": 84.20717, "facility_type_standardized": "hsc" }, "geometry": { "type": "Point", "coordinates": [ 84.2059813, 19.3635484 ] } },
{ "type": "Feature", "properties": { "Statename": "Odisha", "Districtname": "Gajapati", "Subdistrictname": "Mohana", "Blockname": "Mohana", "Healthblockname": "Mohana", "Healthfacilitytype": "health sub centre", "Facilityname": "Chandiput", "NIN": 5778856236, "latitude": 19.37435, "longitude": 84.30438, "facility_type_standardized": "hsc" }, "geometry": { "type": "Point", "coordinates": [ 84.2956149, 19.3780485 ] } },
{ "type": "Feature", "properties": { "Statename": "Odisha", "Districtname": "Gajapati", "Subdistrictname": "Mohana", "Blockname": "Mohana", "Healthblockname": "Mohana", "Healthfacilitytype": "health sub centre", "Facilityname": "Antaraba", "NIN": 8536583829, "latitude": 19.37893, "longitude": 84.17997, "facility_type_standardized": "hsc" }, "geometry": { "type": "Point", "coordinates": [ 84.1757902, 19.379203 ] } },
{ "type": "Feature", "properties": { "Statename": "Odisha", "Districtname": "Gajapati", "Subdistrictname": "Adava", "Blockname": "Mohana", "Healthblockname": "Mohana", "Healthfacilitytype": "health sub centre", "Facilityname": "Raipanka", "NIN": 2152211781, "latitude": 19.39201, "longitude": 83.98552, "facility_type_standardized": "hsc" }, "geometry": { "type": "Point", "coordinates": [ 84.0630849, 19.3580878 ] } },
{ "type": "Feature", "properties": { "Statename": "Odisha", "Districtname": "Gajapati", "Subdistrictname": "Mohana", "Blockname": "Mohana", "Healthblockname": "Mohana", "Healthfacilitytype": "health sub centre", "Facilityname": "Sikulipadar", "NIN": 7441248189, "latitude": 19.39758, "longitude": 84.3438, "facility_type_standardized": "hsc" }, "geometry": { "type": "Point", "coordinates": [ 84.3458431, 19.419068 ] } },
{ "type": "Feature", "properties": { "Statename": "Odisha", "Districtname": "Gajapati", "Subdistrictname": "Mohana", "Blockname": "Mohana", "Healthblockname": "Mohana", "Healthfacilitytype": "health sub centre", "Facilityname": "Pindiki", "NIN": 5436643448, "latitude": 19.39783, "longitude": 84.27127, "facility_type_standardized": "hsc" }, "geometry": { "type": "Point", "coordinates": [ 84.2956149, 19.3780485 ] } },
{ "type": "Feature", "properties": { "Statename": "Odisha", "Districtname": "Gajapati", "Subdistrictname": "Mohana", "Blockname": "Mohana", "Healthblockname": "Mohana", "Healthfacilitytype": "health sub centre", "Facilityname": "Guluba", "NIN": 8154477759, "latitude": 19.41767, "longitude": 84.09756, "facility_type_standardized": "hsc" }, "geometry": { "type": "Point", "coordinates": [ 84.1156552, 19.3579603 ] } },
{ "type": "Feature", "properties": { "Statename": "Odisha", "Districtname": "Gajapati", "Subdistrictname": "Adava", "Blockname": "Mohana", "Healthblockname": "Mohana", "Healthfacilitytype": "health sub centre", "Facilityname": "Buduli", "NIN": 5447437418, "latitude": 19.4187, "longitude": 84.15067, "facility_type_standardized": "hsc" }, "geometry": { "type": "Point", "coordinates": [ 84.1743773, 19.3808337 ] } },
{ "type": "Feature", "properties": { "Statename": "Odisha", "Districtname": "Gajapati", "Subdistrictname": "Mohana", "Blockname": "Mohana", "Healthblockname": "Mohana", "Healthfacilitytype": "health sub centre", "Facilityname": "Mudumudia", "NIN": 3178742734, "latitude": 19.42699, "longitude": 84.32469, "facility_type_standardized": "hsc" }, "geometry": { "type": "Point", "coordinates": [ 84.341029, 19.4232895 ] } },
{ "type": "Feature", "properties": { "Statename": "Odisha", "Districtname": "Gajapati", "Subdistrictname": "Mohana", "Blockname": "Mohana", "Healthblockname": "Mohana", "Healthfacilitytype": "health sub centre", "Facilityname": "Liligada", "NIN": 8584323367, "latitude": 19.43812, "longitude": 84.28442, "facility_type_standardized": "hsc" }, "geometry": { "type": "Point", "coordinates": [ 84.2869659, 19.4389201 ] } },
{ "type": "Feature", "properties": { "Statename": "Odisha", "Districtname": "Gajapati", "Subdistrictname": "Mohana", "Blockname": "Mohana", "Healthblockname": "Mohana", "Healthfacilitytype": "health sub centre", "Facilityname": "Mohana", "NIN": 6781783532, "latitude": 19.44212, "longitude": 84.26402, "facility_type_standardized": "hsc" }, "geometry": { "type": "Point", "coordinates": [ 84.2641857, 19.4414564 ] } },
{ "type": "Feature", "properties": { "Statename": "Odisha", "Districtname": "Gajapati", "Subdistrictname": "Adava", "Blockname": "Mohana", "Healthblockname": "Mohana", "Healthfacilitytype": "health sub centre", "Facilityname": "Mandimara", "NIN": 5544481830, "latitude": 19.45075, "longitude": 84.00839, "facility_type_standardized": "hsc" }, "geometry": { "type": "Point", "coordinates": [ 84.0630849, 19.3580878 ] } },
{ "type": "Feature", "properties": { "Statename": "Odisha", "Districtname": "Gajapati", "Subdistrictname": "Mohana", "Blockname": "Mohana", "Healthblockname": "Mohana", "Healthfacilitytype": "health sub centre", "Facilityname": "Luhagudi", "NIN": 2782658823, "latitude": 19.46175, "longitude": 84.35741, "facility_type_standardized": "hsc" }, "geometry": { "type": "Point", "coordinates": [ 84.3599787, 19.4588938 ] } },
{ "type": "Feature", "properties": { "Statename": "Odisha", "Districtname": "Gajapati", "Subdistrictname": "Mohana", "Blockname": "Mohana", "Healthblockname": "Mohana", "Healthfacilitytype": "health sub centre", "Facilityname": "Karachabadi", "NIN": 2473284632, "latitude": 19.46268, "longitude": 84.21207, "facility_type_standardized": "hsc" }, "geometry": { "type": "Point", "coordinates": [ 84.1793021, 19.4885225 ] } },
{ "type": "Feature", "properties": { "Statename": "Odisha", "Districtname": "Gajapati", "Subdistrictname": "Adava", "Blockname": "Mohana", "Healthblockname": "Mohana", "Healthfacilitytype": "health sub centre", "Facilityname": "Birikote", "NIN": 6863644321, "latitude": 19.47437, "longitude": 84.09969, "facility_type_standardized": "hsc" }, "geometry": { "type": "Point", "coordinates": [ 84.1710041, 19.4975185 ] } },
{ "type": "Feature", "properties": { "Statename": "Odisha", "Districtname": "Gajapati", "Subdistrictname": "Adava", "Blockname": "Mohana", "Healthblockname": "Mohana", "Healthfacilitytype": "health sub centre", "Facilityname": "Balibandha", "NIN": 5841686768, "latitude": 19.48267, "longitude": 84.067, "facility_type_standardized": "hsc" }, "geometry": { "type": "Point", "coordinates": [ 84.149093, 19.545036 ] } },
{ "type": "Feature", "properties": { "Statename": "Odisha", "Districtname": "Gajapati", "Subdistrictname": "Mohana", "Blockname": "Mohana", "Healthblockname": "Mohana", "Healthfacilitytype": "health sub centre", "Facilityname": "Badkhani", "NIN": 3588518856, "latitude": 19.4838, "longitude": 84.30006, "facility_type_standardized": "hsc" }, "geometry": { "type": "Point", "coordinates": [ 84.2949562, 19.4484326 ] } },
{ "type": "Feature", "properties": { "Statename": "Odisha", "Districtname": "Gajapati", "Subdistrictname": "Adava", "Blockname": "Mohana", "Healthblockname": "Mohana", "Healthfacilitytype": "health sub centre", "Facilityname": "Adava", "NIN": 8676343141, "latitude": 19.49121, "longitude": 84.18307, "facility_type_standardized": "hsc" }, "geometry": { "type": "Point", "coordinates": [ 84.1793021, 19.4885225 ] } },
{ "type": "Feature", "properties": { "Statename": "Odisha", "Districtname": "Gajapati", "Subdistrictname": "Mohana", "Blockname": "Mohana", "Healthblockname": "Mohana", "Healthfacilitytype": "health sub centre", "Facilityname": "Kesara", "NIN": 6882717181, "latitude": 19.5055, "longitude": 84.31181, "facility_type_standardized": "hsc" }, "geometry": { "type": "Point", "coordinates": [ 84.2949562, 19.4484326 ] } },
{ "type": "Feature", "properties": { "Statename": "Odisha", "Districtname": "Gajapati", "Subdistrictname": "Mohana", "Blockname": "Mohana", "Healthblockname": "Mohana", "Healthfacilitytype": "health sub centre", "Facilityname": "P Govindapur", "NIN": 5254621617, "latitude": 19.51401, "longitude": 84.33457, "facility_type_standardized": "hsc" }, "geometry": { "type": "Point", "coordinates": [ 84.3599787, 19.4588938 ] } },
{ "type": "Feature", "properties": { "Statename": "Odisha", "Districtname": "Gajapati", "Subdistrictname": "Adava", "Blockname": "Mohana", "Healthblockname": "Mohana", "Healthfacilitytype": "health sub centre", "Facilityname": "Jhiliki", "NIN": 4413258486, "latitude": 19.51602, "longitude": 84.17199, "facility_type_standardized": "hsc" }, "geometry": { "type": "Point", "coordinates": [ 84.1803933, 19.5091722 ] } },
{ "type": "Feature", "properties": { "Statename": "Odisha", "Districtname": "Gajapati", "Subdistrictname": "Mohana", "Blockname": "Mohana", "Healthblockname": "Mohana", "Healthfacilitytype": "health sub centre", "Facilityname": "Jarau", "NIN": 5487735184, "latitude": 19.53768, "longitude": 84.37057, "facility_type_standardized": "hsc" }, "geometry": { "type": "Point", "coordinates": [ 84.3599787, 19.4588938 ] } },
{ "type": "Feature", "properties": { "Statename": "Odisha", "Districtname": "Gajapati", "Subdistrictname": "Mohana", "Blockname": "Mohana", "Healthblockname": "Mohana", "Healthfacilitytype": "health sub centre", "Facilityname": "Malasapadar", "NIN": 2311643510, "latitude": 19.55244, "longitude": 84.32903, "facility_type_standardized": "hsc" }, "geometry": { "type": "Point", "coordinates": [ 84.3005593, 19.6236084 ] } },
{ "type": "Feature", "properties": { "Statename": "Odisha", "Districtname": "Gajapati", "Subdistrictname": "Mohana", "Blockname": "Mohana", "Healthblockname": "Mohana", "Healthfacilitytype": "health sub centre", "Facilityname": "Damadua", "NIN": 8338366175, "latitude": 19.55975, "longitude": 84.15946, "facility_type_standardized": "hsc" }, "geometry": { "type": "Point", "coordinates": [ 84.162079, 19.5508036 ] } },
{ "type": "Feature", "properties": { "Statename": "Odisha", "Districtname": "Gajapati", "Subdistrictname": "Mohana", "Blockname": "Mohana", "Healthblockname": "Mohana", "Healthfacilitytype": "health sub centre", "Facilityname": "Rajakhama", "NIN": 6675568684, "latitude": 19.56715, "longitude": 84.02393, "facility_type_standardized": "hsc" }, "geometry": { "type": "Point", "coordinates": [ 84.0358561, 19.6272576 ] } },
{ "type": "Feature", "properties": { "Statename": "Odisha", "Districtname": "Gajapati", "Subdistrictname": "Adava", "Blockname": "Mohana", "Healthblockname": "Mohana", "Healthfacilitytype": "health sub centre", "Facilityname": "K Garadama", "NIN": 2567782830, "latitude": 19.57114, "longitude": 83.94025, "facility_type_standardized": "hsc" }, "geometry": { "type": "Point", "coordinates": [ 84.0358561, 19.6272576 ] } },
{ "type": "Feature", "properties": { "Statename": "Odisha", "Districtname": "Gajapati", "Subdistrictname": "Adava", "Blockname": "Mohana", "Healthblockname": "Mohana", "Healthfacilitytype": "health sub centre", "Facilityname": "Paniganda", "NIN": 2184824825, "latitude": 19.60277, "longitude": 84.12045, "facility_type_standardized": "hsc" }, "geometry": { "type": "Point", "coordinates": [ 84.149093, 19.545036 ] } },
{ "type": "Feature", "properties": { "Statename": "Odisha", "Districtname": "Gajapati", "Subdistrictname": "Mohana", "Blockname": "Mohana", "Healthblockname": "Mohana", "Healthfacilitytype": "health sub centre", "Facilityname": "Dephaguda", "NIN": 5552517657, "latitude": 19.60551, "longitude": 84.01734, "facility_type_standardized": "hsc" }, "geometry": { "type": "Point", "coordinates": [ 84.0358561, 19.6272576 ] } }
]
}
