{
"type": "FeatureCollection",
"name": "jagatsinghapur_hsc_snapped",
"crs": { "type": "name", "properties": { "name": "urn:ogc:def:crs:OGC:1.3:CRS84" } },
"features": [
{ "type": "Feature", "properties": { "Statename": "Odisha", "Districtname": "Jagatsinghapur", "Subdistrictname": "Balikuda", "Blockname": "Balikuda", "Healthblockname": "Balikuda", "Healthfacilitytype": "health sub centre", "Facilityname": "Marchipur", "NIN": 6354717875, "latitude": 20.00795, "longitude": 86.35083, "facility_type_standardized": "hsc" }, "geometry": { "type": "Point", "coordinates": [ 86.3526329, 19.9979048 ] } },
{ "type": "Feature", "properties": { "Statename": "Odisha", "Districtname": "Jagatsinghapur", "Subdistrictname": "Balikuda", "Blockname": "Balikuda", "Healthblockname": "Balikuda", "Healthfacilitytype": "health sub centre", "Facilityname": "Ichhapur", "NIN": 3283755480, "latitude": 20.01282, "longitude": 86.36972, "facility_type_standardized": "hsc" }, "geometry": { "type": "Point", "coordinates": [ 86.3526329, 19.9979048 ] } },
{ "type": "Feature", "properties": { "Statename": "Odisha", "Districtname": "Jagatsinghapur", "Subdistrictname": "Balikuda", "Blockname": "Balikuda", "Healthblockname": "Balikuda", "Healthfacilitytype": "health sub centre", "Facilityname": "Naharana", "NIN": 4638286171, "latitude": 20.02608, "longitude": 86.33952, "facility_type_standardized": "hsc" }, "geometry": { "type": "Point", "coordinates": [ 86.3275213, 20.0445372 ] } },
{ "type": "Feature", "properties": { "Statename": "Odisha", "Districtname": "Jagatsinghapur", "Subdistrictname": "Balikuda", "Blockname": "Balikuda", "Healthblockname": "Balikuda", "Healthfacilitytype": "health sub centre", "Facilityname": "Baramundali", "NIN": 4862457753, "latitude": 20.03417, "longitude": 86.33995, "facility_type_standardized": "hsc" }, "geometry": { "type": "Point", "coordinates": [ 86.3275213, 20.0445372 ] } },
{ "type": "Feature", "properties": { "Statename": "Odisha", "Districtname": "Jagatsinghapur", "Subdistrictname": "Balikuda", "Blockname": "Balikuda", "Healthblockname": "Balikuda", "Healthfacilitytype": "health sub centre", "Facilityname": "Talagaon", "NIN": 1727486647, "latitude": 20.04408, "longitude": 86.33718, "facility_type_standardized": "hsc" }, "geometry": { "type": "Point", "coordinates": [ 86.3275213, 20.0445372 ] } },
{ "type": "Feature", "properties": { "Statename": "Odisha", "Districtname": "Jagatsinghapur", "Subdistrictname": "Balikuda", "Blockname": "Balikuda", "Healthblockname": "Balikuda", "Healthfacilitytype": "health sub centre", "Facilityname": "Tarasahi", "NIN": 7882631679, "latitude": 20.04506, "longitude": 86.27959, "facility_type_standardized": "hsc" }, "geometry": { "type": "Point", "coordinates": [ 86.2787944, 20.0455705 ] } },
{ "type": "Feature", "properties": { "Statename": "Odisha", "Districtname": "Jagatsinghapur", "Subdistrictname": "Naugaon", "Blockname": "Naugaon", "Healthblockname": "Naugaon", "Healthfacilitytype": "health sub centre", "Facilityname": "Oskana", "NIN": 4118113614, "latitude": 20.04606, "longitude": 86.21606, "facility_type_standardized": "hsc" }, "geometry": { "type": "Point", "coordinates": [ 86.2120664, 20.0449892 ] } },
{ "type": "Feature", "properties": { "Statename": "Odisha", "Districtname": "Jagatsinghapur", "Subdistrictname": "Balikuda", "Blockname": "Balikuda", "Healthblockname": "Balikuda", "Healthfacilitytype": "health sub centre", "Facilityname": "Kusupur", "NIN": 6327212152, "latitude": 20.04615, "longitude": 86.39393, "facility_type_standardized": "hsc" }, "geometry": { "type": "Point", "coordinates": [ 86.3926407, 20.0534764 ] } },
{ "type": "Feature", "properties": { "Statename": "Odisha", "Districtname": "Jagatsinghapur", "Subdistrictname": "Ersama", "Blockname": "Erasama", "Healthblockname": "Erasama", "Healthfacilitytype": "health sub centre", "Facilityname": "Gadaharishipur", "NIN": 4652388663, "latitude": 20.06281, "longitude": 86.42527, "facility_type_standardized": "hsc" }, "geometry": { "type": "Point", "coordinates": [ 86.4312435, 20.0653563 ] } },
{ "type": "Feature", "properties": { "Statename": "Odisha", "Districtname": "Jagatsinghapur", "Subdistrictname": "Balikuda", "Blockname": "Balikuda", "Healthblockname": "Balikuda", "Healthfacilitytype": "health sub centre", "Facilityname": "Anantapur", "NIN": 8688557258, "latitude": 20.06372, "longitude": 86.34535, "facility_type_standardized": "hsc" }, "geometry": { "type": "Point", "coordinates": [ 86.3704281, 20.0603543 ] } },
{ "type": "Feature", "properties": { "Statename": "Odisha", "Districtname": "Jagatsinghapur", "Subdistrictname": "Naugaon", "Blockname": "Naugaon", "Healthblockname": "Naugaon", "Healthfacilitytype": "health sub centre", "Facilityname": "Deriki", "NIN": 5366838455, "latitude": 20.067, "longitude": 86.21884, "facility_type_standardized": "hsc" }, "geometry": { "type": "Point", "coordinates": [ 86.2189432, 20.0669279 ] } },
{ "type": "Feature", "properties": { "Statename": "Odisha", "Districtname": "Jagatsinghapur", "Subdistrictname": "Balikuda", "Blockname": "Balikuda", "Healthblockname": "Balikuda", "Healthfacilitytype": "health sub centre", "Facilityname": "Machhagaon", "NIN": 1114264227, "latitude": 20.0689, "longitude": 86.27977, "facility_type_standardized": "hsc" }, "geometry": { "type": "Point", "coordinates": [ 86.2811132, 20.0676937 ] } },
{ "type": "Feature", "properties": { "Statename": "Odisha", "Districtname": "Jagatsinghapur", "Subdistrictname": "Naugaon", "Blockname": "Naugaon", "Healthblockname": "Naugaon", "Healthfacilitytype": "health sub centre", "Facilityname": "Sikhar", "NIN": 1146635154, "latitude": 20.06933, "longitude": 86.18195, "facility_type_standardized": "hsc" }, "geometry": { "type": "Point", "coordinates": [ 86.182147, 20.0795011 ] } },
{ "type": "Feature", "properties": { "Statename": "Odisha", "Districtname": "Jagatsinghapur", "Subdistrictname": "Balikuda", "Blockname": "Balikuda", "Healthblockname": "Balikuda", "Healthfacilitytype": "health sub centre", "Facilityname": "Oskana", "NIN": 4754463638, "latitude": 20.07097, "longitude": 86.3202, "facility_type_standardized": "hsc" }, "geometry": { "type": "Point", "coordinates": [ 86.3115926, 20.0661502 ] } },
{ "type": "Feature", "properties": { "Statename": "Odisha", "Districtname": "Jagatsinghapur", "Subdistrictname": "Naugaon", "Blockname": "Naugaon", "Healthblockname": "Naugaon", "Healthfacilitytype": "health sub centre", "Facilityname": "Bodal", "NIN": 7442385543, "latitude": 20.0745, "longitude": 86.19049, "facility_type_standardized": "hsc" }, "geometry": { "type": "Point", "coordinates": [ 86.191746, 20.0735728 ] } },
{ "type": "Feature", "properties": { "Statename": "Odisha", "Districtname": "Jagatsinghapur", "Subdistrictname": "Balikuda", "Blockname": "Balikuda", "Healthblockname": "Balikuda", "Healthfacilitytype": "health sub centre", "Facilityname": "Rahana", "NIN": 7488264156, "latitude": 20.08205, "longitude": 86.33819, "facility_type_standardized": "hsc" }, "geometry": { "type": "Point", "coordinates": [ 86.3472134, 20.1062624 ] } },
{ "type": "Feature", "properties": { "Statename": "Odisha", "Districtname": "Jagatsinghapur", "Subdistrictname": "Naugaon", "Blockname": "Naugaon", "Healthblockname": "Naugaon", "Healthfacilitytype": "health sub centre", "Facilityname": "Tiruna", "NIN": 7857166388, "latitude": 20.08427, "longitude": 86.23741, "facility_type_standardized": "hsc" }, "geometry": { "type": "Point", "coordinates": [ 86.2278515, 20.081818 ] } },
{ "type": "Feature", "properties": { "Statename": "Odisha", "Districtname": "Jagatsinghapur", "Subdistrictname": "Naugaon", "Blockname": "Naugaon", "Healthblockname": "Naugaon", "Healthfacilitytype": "health sub centre", "Facilityname": "Dabar", "NIN": 6645738243, "latitude": 20.08836, "longitude": 86.25751, "facility_type_standardized": "hsc" }, "geometry": { "type": "Point", "coordinates": [ 86.2766944, 20.0866866 ] } },
{ "type": "Feature", "properties": { "Statename": "Odisha", "Districtname": "Jagatsinghapur", "Subdistrictname": "Balikuda", "Blockname": "Balikuda", "Healthblockname": "Balikuda", "Healthfacilitytype": "health sub centre", "Facilityname": "Ghosaghara", "NIN": 4637537434, "latitude": 20.09058, "longitude": 86.37161, "facility_type_standardized": "hsc" }, "geometry": { "type": "Point", "coordinates": [ 86.3873152, 20.1030718 ] } },
{ "type": "Feature", "properties": { "Statename": "Odisha", "Districtname": "Jagatsinghapur", "Subdistrictname": "Ersama", "Blockname": "Erasama", "Healthblockname": "Erasama", "Healthfacilitytype": "health sub centre", "Facilityname": "Goda", "NIN": 2514231659, "latitude": 20.09339, "longitude": 86.38805, "facility_type_standardized": "hsc" }, "geometry": { "type": "Point", "coordinates": [ 86.3873152, 20.1030718 ] } },
{ "type": "Feature", "properties": { "Statename": "Odisha", "Districtname": "Jagatsinghapur", "Subdistrictname": "Ersama", "Blockname": "Erasama", "Healthblockname": "Erasama", "Healthfacilitytype": "health sub centre", "Facilityname": "Panchapalli", "NIN": 1755553318, "latitude": 20.10208, "longitude": 86.43014, "facility_type_standardized": "hsc" }, "geometry": { "type": "Point", "coordinates": [ 86.4464907, 20.0998704 ] } },
{ "type": "Feature", "properties": { "Statename": "Odisha", "Districtname": "Jagatsinghapur", "Subdistrictname": "Balikuda", "Blockname": "Balikuda", "Healthblockname": "Balikuda", "Healthfacilitytype": "health sub centre", "Facilityname": "Ambasala", "NIN": 2376827826, "latitude": 20.10444, "longitude": 86.28173, "facility_type_standardized": "hsc" }, "geometry": { "type": "Point", "coordinates": [ 86.2766944, 20.0866866 ] } },
{ "type": "Feature", "properties": { "Statename": "Odisha", "Districtname": "Jagatsinghapur", "Subdistrictname": "Balikuda", "Blockname": "Balikuda", "Healthblockname": "Balikuda", "Healthfacilitytype": "health sub centre", "Facilityname": "Khaleri", "NIN": 6878354312, "latitude": 20.10473, "longitude": 86.25578, "facility_type_standardized": "hsc" }, "geometry": { "type": "Point", "coordinates": [ 86.2558376, 20.1210058 ] } },
{ "type": "Feature", "properties": { "Statename": "Odisha", "Districtname": "Jagatsinghapur", "Subdistrictname": "Naugaon", "Blockname": "Naugaon", "Healthblockname": "Naugaon", "Healthfacilitytype": "health sub centre", "Facilityname": "Nuagaon MC", "NIN": 3746432859, "latitude": 20.1053, "longitude": 86.18955, "facility_type_standardized": "hsc" }, "geometry": { "type": "Point", "coordinates": [ 86.1910268, 20.1112781 ] } },
{ "type": "Feature", "properties": { "Statename": "Odisha", "Districtname": "Jagatsinghapur", "Subdistrictname": "Balikuda", "Blockname": "Balikuda", "Healthblockname": "Balikuda", "Healthfacilitytype": "health sub centre", "Facilityname": "Badagaon", "NIN": 4677317283, "latitude": 20.10558, "longitude": 86.29896, "facility_type_standardized": "hsc" }, "geometry": { "type": "Point", "coordinates": [ 86.3013216, 20.1230565 ] } },
{ "type": "Feature", "properties": { "Statename": "Odisha", "Districtname": "Jagatsinghapur", "Subdistrictname": "Balikuda", "Blockname": "Balikuda", "Healthblockname": "Balikuda", "Healthfacilitytype": "health sub centre", "Facilityname": "Borikina", "NIN": 2483467623, "latitude": 20.11651, "longitude": 86.33026, "facility_type_standardized": "hsc" }, "geometry": { "type": "Point", "coordinates": [ 86.3285239, 20.1220416 ] } },
{ "type": "Feature", "properties": { "Statename": "Odisha", "Districtname": "Jagatsinghapur", "Subdistrictname": "Ersama", "Blockname": "Erasama", "Healthblockname": "Erasama", "Healthfacilitytype": "health sub centre", "Facilityname": "J K Deipur", "NIN": 8675733458, "latitude": 20.12128, "longitude": 86.38142, "facility_type_standardized": "hsc" }, "geometry": { "type": "Point", "coordinates": [ 86.3873152, 20.1030718 ] } },
{ "type": "Feature", "properties": { "Statename": "Odisha", "Districtname": "Jagatsinghapur", "Subdistrictname": "Naugaon", "Blockname": "Naugaon", "Healthblockname": "Naugaon", "Healthfacilitytype": "health sub centre", "Facilityname": "Rohia", "NIN": 2452658889, "latitude": 20.12311, "longitude": 86.17357, "facility_type_standardized": "hsc" }, "geometry": { "type": "Point", "coordinates": [ 86.1937098, 20.1194712 ] } },
{ "type": "Feature", "properties": { "Statename": "Odisha", "Districtname": "Jagatsinghapur", "Subdistrictname": "Naugaon", "Blockname": "Naugaon", "Healthblockname": "Naugaon", "Healthfacilitytype": "health sub centre", "Facilityname": "Jamugaon", "NIN": 6573477632, "latitude": 20.12879, "longitude": 86.21856, "facility_type_standardized": "hsc" }, "geometry": { "type": "Point", "coordinates": [ 86.2333695, 20.1193399 ] } },
{ "type": "Feature", "properties": { "Statename": "Odisha", "Districtname": "Jagatsinghapur", "Subdistrictname": "Balikuda", "Blockname": "Balikuda", "Healthblockname": "Balikuda", "Healthfacilitytype": "health sub centre", "Facilityname": "Kailo", "NIN": 1178358840, "latitude": 20.12949, "longitude": 86.24052, "facility_type_standardized": "hsc" }, "geometry": { "type": "Point", "coordinates": [ 86.2333695, 20.1193399 ] } },
{ "type": "Feature", "properties": { "Statename": "Odisha", "Districtname": "Jagatsinghapur", "Subdistrictname": "Naugaon", "Blockname": "Naugaon", "Healthblockname": "Naugaon", "Healthfacilitytype": "health sub centre", "Facilityname": "Ghodansh", "NIN": 2671511570, "latitude": 20.12973, "longitude": 86.20542, "facility_type_standardized": "hsc" }, "geometry": { "type": "Point", "coordinates": [ 86.1937098, 20.1194712 ] } },
{ "type": "Feature", "properties": { "Statename": "Odisha", "Districtname": "Jagatsinghapur", "Subdistrictname": "Balikuda", "Blockname": "Balikuda", "Healthblockname": "Balikuda", "Healthfacilitytype": "health sub centre", "Facilityname": "Alavara", "NIN": 5651641523, "latitude": 20.13242, "longitude": 86.30125, "facility_type_standardized": "hsc" }, "geometry": { "type": "Point", "coordinates": [ 86.3002632, 20.1238483 ] } },
{ "type": "Feature", "properties": { "Statename": "Odisha", "Districtname": "Jagatsinghapur", "Subdistrictname": "Balikuda", "Blockname": "Balikuda", "Healthblockname": "Balikuda", "Healthfacilitytype": "health sub centre", "Facilityname": "Tirtira", "NIN": 2151521842, "latitude": 20.13801, "longitude": 86.34657, "facility_type_standardized": "hsc" }, "geometry": { "type": "Point", "coordinates": [ 86.34742, 20.1456239 ] } },
{ "type": "Feature", "properties": { "Statename": "Odisha", "Districtname": "Jagatsinghapur", "Subdistrictname": "Ersama", "Blockname": "Erasama", "Healthblockname": "Erasama", "Healthfacilitytype": "health sub centre", "Facilityname": "Ambiki", "NIN": 6768185768, "latitude": 20.14031, "longitude": 86.45953, "facility_type_standardized": "hsc" }, "geometry": { "type": "Point", "coordinates": [ 86.4687862, 20.1331908 ] } },
{ "type": "Feature", "properties": { "Statename": "Odisha", "Districtname": "Jagatsinghapur", "Subdistrictname": "Ersama", "Blockname": "Erasama", "Healthblockname": "Erasama", "Healthfacilitytype": "health sub centre", "Facilityname": "Gadabisunpur", "NIN": 4568682571, "latitude": 20.14167, "longitude": 86.42724, "facility_type_standardized": "hsc" }, "geometry": { "type": "Point", "coordinates": [ 86.4237686, 20.1410816 ] } },
{ "type": "Feature", "properties": { "Statename": "Odisha", "Districtname": "Jagatsinghapur", "Subdistrictname": "Balikuda", "Blockname": "Balikuda", "Healthblockname": "Balikuda", "Healthfacilitytype": "health sub centre", "Facilityname": "Ghodadia", "NIN": 8733168333, "latitude": 20.14426, "longitude": 86.34991, "facility_type_standardized": "hsc" }, "geometry": { "type": "Point", "coordinates": [ 86.34742, 20.1456239 ] } },
{ "type": "Feature", "properties": { "Statename": "Odisha", "Districtname": "Jagatsinghapur", "Subdistrictname": "Naugaon", "Blockname": "Naugaon", "Healthblockname": "Naugaon", "Healthfacilitytype": "health sub centre", "Facilityname": "Arakhakud", "NIN": 5676434649, "latitude": 20.14558, "longitude": 86.16864, "facility_type_standardized": "hsc" }, "geometry": { "type": "Point", "coordinates": [ 86.1557997, 20.1479071 ] } },
{ "type": "Feature", "properties": { "Statename": "Odisha", "Districtname": "Jagatsinghapur", "Subdistrictname": "Naugaon", "Blockname": "Naugaon", "Healthblockname": "Naugaon", "Healthfacilitytype": "health sub centre", "Facilityname": "Galadari", "NIN": 2574315111, "latitude": 20.14684, "longitude": 86.15412, "facility_type_standardized": "hsc" }, "geometry": { "type": "Point", "coordinates": [ 86.1557997, 20.1479071 ] } },
{ "type": "Feature", "properties": { "Statename": "Odisha", "Districtname": "Jagatsinghapur", "Subdistrictname": "Balikuda", "Blockname": "Balikuda", "Healthblockname": "Balikuda", "Healthfacilitytype": "health sub centre", "Facilityname": "Sangrampur", "NIN": 1123151480, "latitude": 20.14788, "longitude": 86.25053, "facility_type_standardized": "hsc" }, "geometry": { "type": "Point", "coordinates": [ 86.2661789, 20.1412873 ] } },
{ "type": "Feature", "properties": { "Statename": "Odisha", "Districtname": "Jagatsinghapur", "Subdistrictname": "Balikuda", "Blockname": "Balikuda", "Healthblockname": "Balikuda", "Healthfacilitytype": "health sub centre", "Facilityname": "Balikuda", "NIN": 1322175231, "latitude": 20.14911, "longitude": 86.27016, "facility_type_standardized": "hsc" }, "geometry": { "type": "Point", "coordinates": [ 86.2740019, 20.1538857 ] } },
{ "type": "Feature", "properties": { "Statename": "Odisha", "Districtname": "Jagatsinghapur", "Subdistrictname": "Ersama", "Blockname": "Erasama", "Healthblockname": "Erasama", "Healthfacilitytype": "health sub centre", "Facilityname": "Somepur", "NIN": 7725121318, "latitude": 20.15772, "longitude": 86.34811, "facility_type_standardized": "hsc" }, "geometry": { "type": "Point", "coordinates": [ 86.3403632, 20.1522207 ] } },
{ "type": "Feature", "properties": { "Statename": "Odisha", "Districtname": "Jagatsinghapur", "Subdistrictname": "Naugaon", "Blockname": "Naugaon", "Healthblockname": "Naugaon", "Healthfacilitytype": "health sub centre", "Facilityname": "Gajrajpur", "NIN": 3334384322, "latitude": 20.16302, "longitude": 86.17725, "facility_type_standardized": "hsc" }, "geometry": { "type": "Point", "coordinates": [ 86.1802671, 20.1637165 ] } },
{ "type": "Feature", "properties": { "Statename": "Odisha", "Districtname": "Jagatsinghapur", "Subdistrictname": "Balikuda", "Blockname": "Balikuda", "Healthblockname": "Balikuda", "Healthfacilitytype": "health sub centre", "Facilityname": "Alabol", "NIN": 7338354819, "latitude": 20.16387, "longitude": 86.28306, "facility_type_standardized": "hsc" }, "geometry": { "type": "Point", "coordinates": [ 86.2762078, 20.1595581 ] } },
{ "type": "Feature", "properties": { "Statename": "Odisha", "Districtname": "Jagatsinghapur", "Subdistrictname": "Balikuda", "Blockname": "Balikuda", "Healthblockname": "Balikuda", "Healthfacilitytype": "health sub centre", "Facilityname": "Alikanta", "NIN": 4413866676, "latitude": 20.16461, "longitude": 86.30724, "facility_type_standardized": "hsc" }, "geometry": { "type": "Point", "coordinates": [ 86.3123198, 20.1620629 ] } },
{ "type": "Feature", "properties": { "Statename": "Odisha", "Districtname": "Jagatsinghapur", "Subdistrictname": "Ersama", "Blockname": "Erasama", "Healthblockname": "Erasama", "Healthfacilitytype": "health sub centre", "Facilityname": "Bhajana", "NIN": 6212755554, "latitude": 20.16646, "longitude": 86.38749, "facility_type_standardized": "hsc" }, "geometry": { "type": "Point", "coordinates": [ 86.3844615, 20.1460456 ] } },
{ "type": "Feature", "properties": { "Statename": "Odisha", "Districtname": "Jagatsinghapur", "Subdistrictname": "Ersama", "Blockname": "Erasama", "Healthblockname": "Erasama", "Healthfacilitytype": "health sub centre", "Facilityname": "Hazipur", "NIN": 3482372764, "latitude": 20.16738, "longitude": 86.33258, "facility_type_standardized": "hsc" }, "geometry": { "type": "Point", "coordinates": [ 86.3403632, 20.1522207 ] } },
{ "type": "Feature", "properties": { "Statename": "Odisha", "Districtname": "Jagatsinghapur", "Subdistrictname": "Naugaon", "Blockname": "Naugaon", "Healthblockname": "Naugaon", "Healthfacilitytype": "health sub centre", "Facilityname": "Alanahat", "NIN": 5746785632, "latitude": 20.16776, "longitude": 86.20015, "facility_type_standardized": "hsc" }, "geometry": { "type": "Point", "coordinates": [ 86.1972501, 20.1729443 ] } },
{ "type": "Feature", "properties": { "Statename": "Odisha", "Districtname": "Jagatsinghapur", "Subdistrictname": "Balikuda", "Blockname": "Balikuda", "Healthblockname": "Balikuda", "Healthfacilitytype": "health sub centre", "Facilityname": "Garama", "NIN": 3321847687, "latitude": 20.17467, "longitude": 86.22773, "facility_type_standardized": "hsc" }, "geometry": { "type": "Point", "coordinates": [ 86.2391861, 20.1810202 ] } },
{ "type": "Feature", "properties": { "Statename": "Odisha", "Districtname": "Jagatsinghapur", "Subdistrictname": "Ersama", "Blockname": "Erasama", "Healthblockname": "Erasama", "Healthfacilitytype": "health sub centre", "Facilityname": "Paida", "NIN": 2144715113, "latitude": 20.17778, "longitude": 86.35829, "facility_type_standardized": "hsc" }, "geometry": { "type": "Point", "coordinates": [ 86.3597444, 20.1765024 ] } },
{ "type": "Feature", "properties": { "Statename": "Odisha", "Districtname": "Jagatsinghapur", "Subdistrictname": "Ersama", "Blockname": "Erasama", "Healthblockname": "Erasama", "Healthfacilitytype": "health sub centre", "Facilityname": "Jireilo", "NIN": 7156515657, "latitude": 20.18443, "longitude": 86.41319, "facility_type_standardized": "hsc" }, "geometry": { "type": "Point", "coordinates": [ 86.4036867, 20.2007904 ] } },
{ "type": "Feature", "properties": { "Statename": "Odisha", "Districtname": "Jagatsinghapur", "Subdistrictname": "Ersama", "Blockname": "Erasama", "Healthblockname": "Erasama", "Healthfacilitytype": "health sub centre", "Facilityname": "Bhiranga", "NIN": 1364887149, "latitude": 20.18513, "longitude": 86.38023, "facility_type_standardized": "hsc" }, "geometry": { "type": "Point", "coordinates": [ 86.3617445, 20.1739005 ] } },
{ "type": "Feature", "properties": { "Statename": "Odisha", "Districtname": "Jagatsinghapur", "Subdistrictname": "Balikuda", "Blockname": "Balikuda", "Healthblockname": "Balikuda", "Healthfacilitytype": "health sub centre", "Facilityname": "Singharpur", "NIN": 6818871722, "latitude": 20.18763, "longitude": 86.27355, "facility_type_standardized": "hsc" }, "geometry": { "type": "Point", "coordinates": [ 86.2733384, 20.1873156 ] } },
{ "type": "Feature", "properties": { "Statename": "Odisha", "Districtname": "Jagatsinghapur", "Subdistrictname": "Ersama", "Blockname": "Erasama", "Healthblockname": "Erasama", "Healthfacilitytype": "health sub centre", "Facilityname": "Dhobei", "NIN": 7754417439, "latitude": 20.18917, "longitude": 86.44879, "facility_type_standardized": "hsc" }, "geometry": { "type": "Point", "coordinates": [ 86.4585277, 20.2024992 ] } },
{ "type": "Feature", "properties": { "Statename": "Odisha", "Districtname": "Jagatsinghapur", "Subdistrictname": "Balikuda", "Blockname": "Balikuda", "Healthblockname": "Balikuda", "Healthfacilitytype": "health sub centre", "Facilityname": "Sirelo", "NIN": 1167648870, "latitude": 20.19259, "longitude": 86.30566, "facility_type_standardized": "hsc" }, "geometry": { "type": "Point", "coordinates": [ 86.3039334, 20.1873168 ] } },
{ "type": "Feature", "properties": { "Statename": "Odisha", "Districtname": "Jagatsinghapur", "Subdistrictname": "Jagatsinghapur", "Blockname": "Jagatsinghpur", "Healthblockname": "Jagatsinghpur", "Healthfacilitytype": "health sub centre", "Facilityname": "Kantaballavpur", "NIN": 3818647624, "latitude": 20.19439, "longitude": 86.17992, "facility_type_standardized": "hsc" }, "geometry": { "type": "Point", "coordinates": [ 86.1793543, 20.1941874 ] } },
{ "type": "Feature", "properties": { "Statename": "Odisha", "Districtname": "Jagatsinghapur", "Subdistrictname": "Balikuda", "Blockname": "Balikuda", "Healthblockname": "Balikuda", "Healthfacilitytype": "health sub centre", "Facilityname": "Krushnadaspur", "NIN": 8356876329, "latitude": 20.19614, "longitude": 86.25841, "facility_type_standardized": "hsc" }, "geometry": { "type": "Point", "coordinates": [ 86.2733384, 20.1873156 ] } },
{ "type": "Feature", "properties": { "Statename": "Odisha", "Districtname": "Jagatsinghapur", "Subdistrictname": "Jagatsinghapur", "Blockname": "Jagatsinghpur", "Healthblockname": "Jagatsinghpur", "Healthfacilitytype": "health sub centre", "Facilityname": "Salagaon", "NIN": 3543528875, "latitude": 20.19621, "longitude": 86.1501, "facility_type_standardized": "hsc" }, "geometry": { "type": "Point", "coordinates": [ 86.1312044, 20.2042927 ] } },
{ "type": "Feature", "properties": { "Statename": "Odisha", "Districtname": "Jagatsinghapur", "Subdistrictname": "Jagatsinghapur", "Blockname": "Jagatsinghpur", "Healthblockname": "Jagatsinghpur", "Healthfacilitytype": "health sub centre", "Facilityname": "Jotta", "NIN": 4665773737, "latitude": 20.19704, "longitude": 86.19391, "facility_type_standardized": "hsc" }, "geometry": { "type": "Point", "coordinates": [ 86.1940305, 20.1912371 ] } },
{ "type": "Feature", "properties": { "Statename": "Odisha", "Districtname": "Jagatsinghapur", "Subdistrictname": "Balikuda", "Blockname": "Balikuda", "Healthblockname": "Balikuda", "Healthfacilitytype": "health sub centre", "Facilityname": "Tandikul", "NIN": 8676236733, "latitude": 20.19747, "longitude": 86.32081, "facility_type_standardized": "hsc" }, "geometry": { "type": "Point", "coordinates": [ 86.3201084, 20.2014791 ] } },
{ "type": "Feature", "properties": { "Statename": "Odisha", "Districtname": "Jagatsinghapur", "Subdistrictname": "Jagatsinghapur", "Blockname": "Erasama", "Healthblockname": "Erasama", "Healthfacilitytype": "health sub centre", "Facilityname": "Erasama", "NIN": 8137824812, "latitude": 20.2009, "longitude": 86.41694, "facility_type_standardized": "hsc" }, "geometry": { "type": "Point", "coordinates": [ 86.4038483, 20.2023983 ] } },
{ "type": "Feature", "properties": { "Statename": "Odisha", "Districtname": "Jagatsinghapur", "Subdistrictname": "Balikuda", "Blockname": "Balikuda", "Healthblockname": "Balikuda", "Healthfacilitytype": "health sub centre", "Facilityname": "Podana", "NIN": 3675862472, "latitude": 20.2026, "longitude": 86.31398, "facility_type_standardized": "hsc" }, "geometry": { "type": "Point", "coordinates": [ 86.3124425, 20.202801 ] } },
{ "type": "Feature", "properties": { "Statename": "Odisha", "Districtname": "Jagatsinghapur", "Subdistrictname": "Ersama", "Blockname": "Erasama", "Healthblockname": "Erasama", "Healthfacilitytype": "health sub centre", "Facilityname": "Kanaguli", "NIN": 1786236784, "latitude": 20.20299, "longitude": 86.49127, "facility_type_standardized": "hsc" }, "geometry": { "type": "Point", "coordinates": [ 86.5105796, 20.2132636 ] } },
{ "type": "Feature", "properties": { "Statename": "Odisha", "Districtname": "Jagatsinghapur", "Subdistrictname": "Ersama", "Blockname": "Erasama", "Healthblockname": "Erasama", "Healthfacilitytype": "health sub centre", "Facilityname": "Japa", "NIN": 8837281537, "latitude": 20.2074, "longitude": 86.43573, "facility_type_standardized": "hsc" }, "geometry": { "type": "Point", "coordinates": [ 86.4448376, 20.2212756 ] } },
{ "type": "Feature", "properties": { "Statename": "Odisha", "Districtname": "Jagatsinghapur", "Subdistrictname": "Jagatsinghapur", "Blockname": "Jagatsinghpur", "Healthblockname": "Jagatsinghpur", "Healthfacilitytype": "health sub centre", "Facilityname": "Odissogarh", "NIN": 5112324149, "latitude": 20.20946, "longitude": 86.18114, "facility_type_standardized": "hsc" }, "geometry": { "type": "Point", "coordinates": [ 86.1883557, 20.2089849 ] } },
{ "type": "Feature", "properties": { "Statename": "Odisha", "Districtname": "Jagatsinghapur", "Subdistrictname": "Balikuda", "Blockname": "Erasama", "Healthblockname": "Erasama", "Healthfacilitytype": "health sub centre", "Facilityname": "Naugoan", "NIN": 7144383812, "latitude": 20.2139, "longitude": 86.53639, "facility_type_standardized": "hsc" }, "geometry": { "type": "Point", "coordinates": [ 86.5364069, 20.2212895 ] } },
{ "type": "Feature", "properties": { "Statename": "Odisha", "Districtname": "Jagatsinghapur", "Subdistrictname": "Tirtol", "Blockname": "Tirtol", "Healthblockname": "Tirtol", "Healthfacilitytype": "health sub centre", "Facilityname": "Ibrisingh", "NIN": 1573212410, "latitude": 20.21441, "longitude": 86.36336, "facility_type_standardized": "hsc" }, "geometry": { "type": "Point", "coordinates": [ 86.36535, 20.2160761 ] } },
{ "type": "Feature", "properties": { "Statename": "Odisha", "Districtname": "Jagatsinghapur", "Subdistrictname": "Balikuda", "Blockname": "Balikuda", "Healthblockname": "Balikuda", "Healthfacilitytype": "health sub centre", "Facilityname": "Maulugaon", "NIN": 4375877166, "latitude": 20.21477, "longitude": 86.27466, "facility_type_standardized": "hsc" }, "geometry": { "type": "Point", "coordinates": [ 86.2777798, 20.2068509 ] } },
{ "type": "Feature", "properties": { "Statename": "Odisha", "Districtname": "Jagatsinghapur", "Subdistrictname": "Jagatsinghapur", "Blockname": "Jagatsinghpur", "Healthblockname": "Jagatsinghpur", "Healthfacilitytype": "health sub centre", "Facilityname": "Kaduapada", "NIN": 8414854714, "latitude": 20.215, "longitude": 86.2267, "facility_type_standardized": "hsc" }, "geometry": { "type": "Point", "coordinates": [ 86.2244373, 20.2082879 ] } },
{ "type": "Feature", "properties": { "Statename": "Odisha", "Districtname": "Jagatsinghapur", "Subdistrictname": "Jagatsinghapur", "Blockname": "Jagatsinghpur", "Healthblockname": "Jagatsinghpur", "Healthfacilitytype": "health sub centre", "Facilityname": "Odisso", "NIN": 3673628586, "latitude": 20.21979, "longitude": 86.1907, "facility_type_standardized": "hsc" }, "geometry": { "type": "Point", "coordinates": [ 86.1968204, 20.2156059 ] } },
{ "type": "Feature", "properties": { "Statename": "Odisha", "Districtname": "Jagatsinghapur", "Subdistrictname": "Jagatsinghapur", "Blockname": "Jagatsinghpur", "Healthblockname": "Jagatsinghpur", "Healthfacilitytype": "health sub centre", "Facilityname": "Alipingal", "NIN": 6487417328, "latitude": 20.22115, "longitude": 86.15615, "facility_type_standardized": "hsc" }, "geometry": { "type": "Point", "coordinates": [ 86.1535538, 20.2258167 ] } },
{ "type": "Feature", "properties": { "Statename": "Odisha", "Districtname": "Jagatsinghapur", "Subdistrictname": "Paradip", "Blockname": "Kujanga", "Healthblockname": "Kujanga", "Healthfacilitytype": "health sub centre", "Facilityname": "Nehuru Bangala", "NIN": 2231631140, "latitude": 20.22255, "longitude": 86.38291, "facility_type_standardized": "hsc" }, "geometry": { "type": "Point", "coordinates": [ 86.3651987, 20.2220071 ] } },
{ "type": "Feature", "properties": { "Statename": "Odisha", "Districtname": "Jagatsinghapur", "Subdistrictname": "Jagatsinghapur", "Blockname": "Jagatsinghpur", "Healthblockname": "Jagatsinghpur", "Healthfacilitytype": "health sub centre", "Facilityname": "Rasalpur", "NIN": 1176655221, "latitude": 20.22424, "longitude": 86.1759, "facility_type_standardized": "hsc" }, "geometry": { "type": "Point", "coordinates": [ 86.1731603, 20.2080562 ] } },
{ "type": "Feature", "properties": { "Statename": "Odisha", "Districtname": "Jagatsinghapur", "Subdistrictname": "Ersama", "Blockname": "Erasama", "Healthblockname": "Erasama", "Healthfacilitytype": "health sub centre", "Facilityname": "Andhari", "NIN": 6473548177, "latitude": 20.22731, "longitude": 86.45638, "facility_type_standardized": "hsc" }, "geometry": { "type": "Point", "coordinates": [ 86.4448376, 20.2212756 ] } },
{ "type": "Feature", "properties": { "Statename": "Odisha", "Districtname": "Jagatsinghapur", "Subdistrictname": "Tirtol", "Blockname": "Tirtol", "Healthblockname": "Tirtol", "Healthfacilitytype": "health sub centre", "Facilityname": "Katara", "NIN": 7485432426, "latitude": 20.22765, "longitude": 86.27573, "facility_type_standardized": "hsc" }, "geometry": { "type": "Point", "coordinates": [ 86.2719513, 20.2311268 ] } },
{ "type": "Feature", "properties": { "Statename": "Odisha", "Districtname": "Jagatsinghapur", "Subdistrictname": "Jagatsinghapur", "Blockname": "Jagatsinghpur", "Healthblockname": "Jagatsinghpur", "Healthfacilitytype": "health sub centre", "Facilityname": "Sidhal", "NIN": 2618555219, "latitude": 20.22834, "longitude": 86.23441, "facility_type_standardized": "hsc" }, "geometry": { "type": "Point", "coordinates": [ 86.235884, 20.2313024 ] } },
{ "type": "Feature", "properties": { "Statename": "Odisha", "Districtname": "Jagatsinghapur", "Subdistrictname": "Tirtol", "Blockname": "Tirtol", "Healthblockname": "Tirtol", "Healthfacilitytype": "health sub centre", "Facilityname": "Alana", "NIN": 6264548378, "latitude": 20.22929, "longitude": 86.3116, "facility_type_standardized": "hsc" }, "geometry": { "type": "Point", "coordinates": [ 86.3061276, 20.2280192 ] } },
{ "type": "Feature", "properties": { "Statename": "Odisha", "Districtname": "Jagatsinghapur", "Subdistrictname": "Ersama", "Blockname": "Erasama", "Healthblockname": "Erasama", "Healthfacilitytype": "health sub centre", "Facilityname": "Dhinkia", "NIN": 4516175512, "latitude": 20.23026, "longitude": 86.5774, "facility_type_standardized": "hsc" }, "geometry": { "type": "Point", "coordinates": [ 86.5747225, 20.2250532 ] } },
{ "type": "Feature", "properties": { "Statename": "Odisha", "Districtname": "Jagatsinghapur", "Subdistrictname": "Jagatsinghapur", "Blockname": "Jagatsinghpur", "Healthblockname": "Jagatsinghpur", "Healthfacilitytype": "health sub centre", "Facilityname": "Balarampur", "NIN": 1727787424, "latitude": 20.23307, "longitude": 86.21135, "facility_type_standardized": "hsc" }, "geometry": { "type": "Point", "coordinates": [ 86.2137708, 20.2166691 ] } },
{ "type": "Feature", "properties": { "Statename": "Odisha", "Districtname": "Jagatsinghapur", "Subdistrictname": "Tirtol", "Blockname": "Tirtol", "Healthblockname": "Tirtol", "Healthfacilitytype": "health sub centre", "Facilityname": "Mahilo", "NIN": 3147427383, "latitude": 20.236, "longitude": 86.2598, "facility_type_standardized": "hsc" }, "geometry": { "type": "Point", "coordinates": [ 86.2659453, 20.2269324 ] } },
{ "type": "Feature", "properties": { "Statename": "Odisha", "Districtname": "Jagatsinghapur", "Subdistrictname": "Kujang", "Blockname": "Kujang", "Healthblockname": "Kujanga", "Healthfacilitytype": "health sub centre", "Facilityname": "Dhunpur", "NIN": 2734488121, "latitude": 20.23777, "longitude": 86.36408, "facility_type_standardized": "hsc" }, "geometry": { "type": "Point", "coordinates": [ 86.363841, 20.2365103 ] } },
{ "type": "Feature", "properties": { "Statename": "Odisha", "Districtname": "Jagatsinghapur", "Subdistrictname": "Paradip", "Blockname": "Kujanga", "Healthblockname": "Kujanga", "Healthfacilitytype": "health sub centre", "Facilityname": "Atharbanki", "NIN": 6788313275, "latitude": 20.23797, "longitude": 86.40752, "facility_type_standardized": "hsc" }, "geometry": { "type": "Point", "coordinates": [ 86.3843964, 20.2618226 ] } },
{ "type": "Feature", "properties": { "Statename": "Odisha", "Districtname": "Jagatsinghapur", "Subdistrictname": "Kujang", "Blockname": "Erasama", "Healthblockname": "Erasama", "Healthfacilitytype": "health sub centre", "Facilityname": "Balitutha", "NIN": 3838822561, "latitude": 20.2392, "longitude": 86.53206, "facility_type_standardized": "hsc" }, "geometry": { "type": "Point", "coordinates": [ 86.531756, 20.2399256 ] } },
{ "type": "Feature", "properties": { "Statename": "Odisha", "Districtname": "Jagatsinghapur", "Subdistrictname": "Tirtol", "Blockname": "Tirtol", "Healthblockname": "Tirtol", "Healthfacilitytype": "health sub centre", "Facilityname": "Jaganathpur", "NIN": 1538767771, "latitude": 20.23978, "longitude": 86.35421, "facility_type_standardized": "hsc" }, "geometry": { "type": "Point", "coordinates": [ 86.352303, 20.2388495 ] } },
{ "type": "Feature", "properties": { "Statename": "Odisha", "Districtname": "Jagatsinghapur", "Subdistrictname": "Jagatsinghapur", "Blockname": "Jagatsinghpur", "Healthblockname": "Jagatsinghpur", "Healthfacilitytype": "health sub centre", "Facilityname": "Palasa", "NIN": 3584443174, "latitude": 20.24302, "longitude": 86.1161, "facility_type_standardized": "hsc" }, "geometry": { "type": "Point", "coordinates": [ 86.101151, 20.2402823 ] } },
{ "type": "Feature", "properties": { "Statename": "Odisha", "Districtname": "Jagatsinghapur", "Subdistrictname": "Jagatsinghapur", "Blockname": "Jagatsinghpur", "Healthblockname": "Jagatsinghpur", "Healthfacilitytype": "health sub centre", "Facilityname": "Mundilo", "NIN": 6275747431, "latitude": 20.24623, "longitude": 86.08744, "facility_type_standardized": "hsc" }, "geometry": { "type": "Point", "coordinates": [ 86.101151, 20.2402823 ] } },
{ "type": "Feature", "properties": { "Statename": "Odisha", "Districtname": "Jagatsinghapur", "Subdistrictname": "Ersama", "Blockname": "Erasama", "Healthblockname": "Erasama", "Healthfacilitytype": "health sub centre", "Facilityname": "Olara", "NIN": 3717857670, "latitude": 20.24706, "longitude": 86.59875, "facility_type_standardized": "hsc" }, "geometry": { "type": "Point", "coordinates": [ 86.5993613, 20.2485665 ] } },
{ "type": "Feature", "properties": { "Statename": "Odisha", "Districtname": "Jagatsinghapur", "Subdistrictname": "Jagatsinghapur", "Blockname": "Jagatsinghpur", "Healthblockname": "Jagatsinghpur", "Healthfacilitytype": "health sub centre", "Facilityname": "Salajanga", "NIN": 2834183465, "latitude": 20.24776, "longitude": 86.1279, "facility_type_standardized": "hsc" }, "geometry": { "type": "Point", "coordinates": [ 86.1312245, 20.2636974 ] } },
{ "type": "Feature", "properties": { "Statename": "Odisha", "Districtname": "Jagatsinghapur", "Subdistrictname": "Ersama", "Blockname": "Erasama", "Healthblockname": "Erasama", "Healthfacilitytype": "health sub centre", "Facilityname": "Nuadihi", "NIN": 2611126372, "latitude": 20.24798, "longitude": 86.4423, "facility_type_standardized": "hsc" }, "geometry": { "type": "Point", "coordinates": [ 86.444697, 20.2594786 ] } },
{ "type": "Feature", "properties": { "Statename": "Odisha", "Districtname": "Jagatsinghapur", "Subdistrictname": "Kujang", "Blockname": "Kujang", "Healthblockname": "Kujanga", "Healthfacilitytype": "health sub centre", "Facilityname": "Pandua", "NIN": 7462366381, "latitude": 20.24912, "longitude": 86.41069, "facility_type_standardized": "hsc" }, "geometry": { "type": "Point", "coordinates": [ 86.3843964, 20.2618226 ] } },
{ "type": "Feature", "properties": { "Statename": "Odisha", "Districtname": "Jagatsinghapur", "Subdistrictname": "Ersama", "Blockname": "Erasama", "Healthblockname": "Erasama", "Healthfacilitytype": "health sub centre", "Facilityname": "Barabatia", "NIN": 6277847619, "latitude": 20.24942, "longitude": 86.46668, "facility_type_standardized": "hsc" }, "geometry": { "type": "Point", "coordinates": [ 86.4704456, 20.2422917 ] } },
{ "type": "Feature", "properties": { "Statename": "Odisha", "Districtname": "Jagatsinghapur", "Subdistrictname": "Jagatsinghapur", "Blockname": "Jagatsinghpur", "Healthblockname": "Jagatsinghpur", "Healthfacilitytype": "health sub centre", "Facilityname": "Bhagabanpur", "NIN": 4337346243, "latitude": 20.2509, "longitude": 86.24012, "facility_type_standardized": "hsc" }, "geometry": { "type": "Point", "coordinates": [ 86.2350261, 20.236147 ] } },
{ "type": "Feature", "properties": { "Statename": "Odisha", "Districtname": "Jagatsinghapur", "Subdistrictname": "Jagatsinghapur", "Blockname": "Jagatsinghpur", "Healthblockname": "Jagatsinghpur", "Healthfacilitytype": "health sub centre", "Facilityname": "Neepur", "NIN": 7285324864, "latitude": 20.25124, "longitude": 86.20671, "facility_type_standardized": "hsc" }, "geometry": { "type": "Point", "coordinates": [ 86.2069219, 20.2584882 ] } },
{ "type": "Feature", "properties": { "Statename": "Odisha", "Districtname": "Jagatsinghapur", "Subdistrictname": "Tirtol", "Blockname": "Tirtol", "Healthblockname": "Tirtol", "Healthfacilitytype": "health sub centre", "Facilityname": "Begunia", "NIN": 4352644746, "latitude": 20.25179, "longitude": 86.28681, "facility_type_standardized": "hsc" }, "geometry": { "type": "Point", "coordinates": [ 86.2936029, 20.2685331 ] } },
{ "type": "Feature", "properties": { "Statename": "Odisha", "Districtname": "Jagatsinghapur", "Subdistrictname": "Jagatsinghapur", "Blockname": "Jagatsinghpur", "Healthblockname": "Jagatsinghpur", "Healthfacilitytype": "health sub centre", "Facilityname": "Piteipur", "NIN": 1767778267, "latitude": 20.25303, "longitude": 86.23238, "facility_type_standardized": "hsc" }, "geometry": { "type": "Point", "coordinates": [ 86.2350261, 20.236147 ] } },
{ "type": "Feature", "properties": { "Statename": "Odisha", "Districtname": "Jagatsinghapur", "Subdistrictname": "Jagatsinghapur", "Blockname": "Jagatsinghpur", "Healthblockname": "Jagatsinghpur", "Healthfacilitytype": "health sub centre", "Facilityname": "Janakoti", "NIN": 7662445449, "latitude": 20.25972, "longitude": 86.14576, "facility_type_standardized": "hsc" }, "geometry": { "type": "Point", "coordinates": [ 86.1520922, 20.2605093 ] } },
{ "type": "Feature", "properties": { "Statename": "Odisha", "Districtname": "Jagatsinghapur", "Subdistrictname": "Jagatsinghapur", "Blockname": "Jagatsinghpur", "Healthblockname": "Jagatsinghpur", "Healthfacilitytype": "health sub centre", "Facilityname": "Taradapada", "NIN": 8568374311, "latitude": 20.26326, "longitude": 86.20411, "facility_type_standardized": "hsc" }, "geometry": { "type": "Point", "coordinates": [ 86.2018534, 20.2608807 ] } },
{ "type": "Feature", "properties": { "Statename": "Odisha", "Districtname": "Jagatsinghapur", "Subdistrictname": "Tirtol", "Blockname": "Tirtol", "Healthblockname": "Tirtol", "Healthfacilitytype": "health sub centre", "Facilityname": "Bodhei", "NIN": 1667738858, "latitude": 20.26374, "longitude": 86.36286, "facility_type_standardized": "hsc" }, "geometry": { "type": "Point", "coordinates": [ 86.3664145, 20.2690166 ] } },
{ "type": "Feature", "properties": { "Statename": "Odisha", "Districtname": "Jagatsinghapur", "Subdistrictname": "Paradip", "Blockname": "Kujanga", "Healthblockname": "Kujanga", "Healthfacilitytype": "health sub centre", "Facilityname": "Sandakuda", "NIN": 8847567214, "latitude": 20.26478, "longitude": 86.53678, "facility_type_standardized": "hsc" }, "geometry": { "type": "Point", "coordinates": [ 86.5370315, 20.261821 ] } },
{ "type": "Feature", "properties": { "Statename": "Odisha", "Districtname": "Jagatsinghapur", "Subdistrictname": "Ersama", "Blockname": "Erasama", "Healthblockname": "Erasama", "Healthfacilitytype": "health sub centre", "Facilityname": "Chatua", "NIN": 7378867118, "latitude": 20.26788, "longitude": 86.50234, "facility_type_standardized": "hsc" }, "geometry": { "type": "Point", "coordinates": [ 86.5007204, 20.2678415 ] } },
{ "type": "Feature", "properties": { "Statename": "Odisha", "Districtname": "Jagatsinghapur", "Subdistrictname": "Tirtol", "Blockname": "Tirtol", "Healthblockname": "Tirtol", "Healthfacilitytype": "health sub centre", "Facilityname": "Gopalpur", "NIN": 6855152515, "latitude": 20.26825, "longitude": 86.26332, "facility_type_standardized": "hsc" }, "geometry": { "type": "Point", "coordinates": [ 86.2766415, 20.2882808 ] } },
{ "type": "Feature", "properties": { "Statename": "Odisha", "Districtname": "Jagatsinghapur", "Subdistrictname": "Tirtol", "Blockname": "Tirtol", "Healthblockname": "Tirtol", "Healthfacilitytype": "health sub centre", "Facilityname": "Gobindpur", "NIN": 5574365887, "latitude": 20.26955, "longitude": 86.32084, "facility_type_standardized": "hsc" }, "geometry": { "type": "Point", "coordinates": [ 86.322713, 20.2670931 ] } },
{ "type": "Feature", "properties": { "Statename": "Odisha", "Districtname": "Jagatsinghapur", "Subdistrictname": "Kujang", "Blockname": "Kujang", "Healthblockname": "Kujanga", "Healthfacilitytype": "health sub centre", "Facilityname": "Dagarpada", "NIN": 2436766865, "latitude": 20.2696, "longitude": 86.38315, "facility_type_standardized": "hsc" }, "geometry": { "type": "Point", "coordinates": [ 86.3863446, 20.2768624 ] } },
{ "type": "Feature", "properties": { "Statename": "Odisha", "Districtname": "Jagatsinghapur", "Subdistrictname": "Jagatsinghapur", "Blockname": "Jagatsinghpur", "Healthblockname": "Jagatsinghpur", "Healthfacilitytype": "health sub centre", "Facilityname": "Katesinghpur", "NIN": 4753723685, "latitude": 20.26965, "longitude": 86.0945, "facility_type_standardized": "hsc" }, "geometry": { "type": "Point", "coordinates": [ 86.09518, 20.26323 ] } },
{ "type": "Feature", "properties": { "Statename": "Odisha", "Districtname": "Jagatsinghapur", "Subdistrictname": "Jagatsinghapur", "Blockname": "Jagatsinghpur", "Healthblockname": "Jagatsinghpur", "Healthfacilitytype": "health sub centre", "Facilityname": "Patenigaon", "NIN": 6342678452, "latitude": 20.27025, "longitude": 86.18581, "facility_type_standardized": "hsc" }, "geometry": { "type": "Point", "coordinates": [ 86.1815351, 20.2691933 ] } },
{ "type": "Feature", "properties": { "Statename": "Odisha", "Districtname": "Jagatsinghapur", "Subdistrictname": "Kujang", "Blockname": "Kujang", "Healthblockname": "Kujanga", "Healthfacilitytype": "health sub centre", "Facilityname": "Potanai", "NIN": 1412731133, "latitude": 20.27026, "longitude": 86.46745, "facility_type_standardized": "hsc" }, "geometry": { "type": "Point", "coordinates": [ 86.4675982, 20.267832 ] } },
{ "type": "Feature", "properties": { "Statename": "Odisha", "Districtname": "Jagatsinghapur", "Subdistrictname": "Kujang", "Blockname": "Kujang", "Healthblockname": "Kujanga", "Healthfacilitytype": "health sub centre", "Facilityname": "Kujanga", "NIN": 4218311126, "latitude": 20.27102, "longitude": 86.40532, "facility_type_standardized": "hsc" }, "geometry": { "type": "Point", "coordinates": [ 86.4154785, 20.2826617 ] } },
{ "type": "Feature", "properties": { "Statename": "Odisha", "Districtname": "Jagatsinghapur", "Subdistrictname": "Kujang", "Blockname": "Kujang", "Healthblockname": "Kujanga", "Healthfacilitytype": "health sub centre", "Facilityname": "Bagadia", "NIN": 5766678816, "latitude": 20.27139, "longitude": 86.59425, "facility_type_standardized": "hsc" }, "geometry": { "type": "Point", "coordinates": [ 86.5950091, 20.2696448 ] } },
{ "type": "Feature", "properties": { "Statename": "Odisha", "Districtname": "Jagatsinghapur", "Subdistrictname": "Jagatsinghapur", "Blockname": "Jagatsinghpur", "Healthblockname": "Jagatsinghpur", "Healthfacilitytype": "health sub centre", "Facilityname": "Punanga", "NIN": 6458144463, "latitude": 20.27347, "longitude": 86.15223, "facility_type_standardized": "hsc" }, "geometry": { "type": "Point", "coordinates": [ 86.1552884, 20.2730767 ] } },
{ "type": "Feature", "properties": { "Statename": "Odisha", "Districtname": "Jagatsinghapur", "Subdistrictname": "Jagatsinghapur", "Blockname": "Jagatsinghpur", "Healthblockname": "Jagatsinghpur", "Healthfacilitytype": "health sub centre", "Facilityname": "Sanpur", "NIN": 8123746771, "latitude": 20.2778, "longitude": 86.21926, "facility_type_standardized": "hsc" }, "geometry": { "type": "Point", "coordinates": [ 86.2153348, 20.2731676 ] } },
{ "type": "Feature", "properties": { "Statename": "Odisha", "Districtname": "Jagatsinghapur", "Subdistrictname": "Jagatsinghapur", "Blockname": "Jagatsinghpur", "Healthblockname": "Jagatsinghpur", "Healthfacilitytype": "health sub centre", "Facilityname": "Mandasahi", "NIN": 7414637640, "latitude": 20.27798, "longitude": 86.11296, "facility_type_standardized": "hsc" }, "geometry": { "type": "Point", "coordinates": [ 86.1067525, 20.2718709 ] } },
{ "type": "Feature", "properties": { "Statename": "Odisha", "Districtname": "Jagatsinghapur", "Subdistrictname": "Tirtol", "Blockname": "Tirtol", "Healthblockname": "Tirtol", "Healthfacilitytype": "health sub centre", "Facilityname": "Kanakpur", "NIN": 8441478214, "latitude": 20.27807, "longitude": 86.29518, "facility_type_standardized": "hsc" }, "geometry": { "type": "Point", "coordinates": [ 86.2958585, 20.2794059 ] } },
{ "type": "Feature", "properties": { "Statename": "Odisha", "Districtname": "Jagatsinghapur", "Subdistrictname": "Kujang", "Blockname": "Kujang", "Healthblockname": "Kujanga", "Healthfacilitytype": "health sub centre", "Facilityname": "Garei", "NIN": 4835232846, "latitude": 20.27822, "longitude": 86.43521, "facility_type_standardized": "hsc" }, "geometry": { "type": "Point", "coordinates": [ 86.4292483, 20.2739118 ] } },
{ "type": "Feature", "properties": { "Statename": "Odisha", "Districtname": "Jagatsinghapur", "Subdistrictname": "Kujang", "Blockname": "Kujang", "Healthblockname": "Kujanga", "Healthfacilitytype": "health sub centre", "Facilityname": "Fatepur", "NIN": 8717267341, "latitude": 20.28049, "longitude": 86.57154, "facility_type_standardized": "hsc" }, "geometry": { "type": "Point", "coordinates": [ 86.5681337, 20.2812864 ] } },
{ "type": "Feature", "properties": { "Statename": "Odisha", "Districtname": "Jagatsinghapur", "Subdistrictname": "Biridi", "Blockname": "Biridi", "Healthblockname": "Biridi", "Healthfacilitytype": "health sub centre", "Facilityname": "Baredia", "NIN": 8632813476, "latitude": 20.28188, "longitude": 86.06776, "facility_type_standardized": "hsc" }, "geometry": { "type": "Point", "coordinates": [ 86.0721892, 20.2938732 ] } },
{ "type": "Feature", "properties": { "Statename": "Odisha", "Districtname": "Jagatsinghapur", "Subdistrictname": "Kujang", "Blockname": "Kujang", "Healthblockname": "Kujanga", "Healthfacilitytype": "health sub centre", "Facilityname": "Patapur", "NIN": 7474253676, "latitude": 20.28331, "longitude": 86.50891, "facility_type_standardized": "hsc" }, "geometry": { "type": "Point", "coordinates": [ 86.5060614, 20.2884782 ] } },
{ "type": "Feature", "properties": { "Statename": "Odisha", "Districtname": "Jagatsinghapur", "Subdistrictname": "Tirtol", "Blockname": "Tirtol", "Healthblockname": "Tirtol", "Healthfacilitytype": "health sub centre", "Facilityname": "Sanara", "NIN": 6444346149, "latitude": 20.28565, "longitude": 86.2406, "facility_type_standardized": "hsc" }, "geometry": { "type": "Point", "coordinates": [ 86.2364732, 20.2875054 ] } },
{ "type": "Feature", "properties": { "Statename": "Odisha", "Districtname": "Jagatsinghapur", "Subdistrictname": "Kujang", "Blockname": "Kujang", "Healthblockname": "Kujanga", "Healthfacilitytype": "health sub centre", "Facilityname": "Borikhi", "NIN": 7185211310, "latitude": 20.28702, "longitude": 86.47933, "facility_type_standardized": "hsc" }, "geometry": { "type": "Point", "coordinates": [ 86.4784723, 20.2897718 ] } },
{ "type": "Feature", "properties": { "Statename": "Odisha", "Districtname": "Jagatsinghapur", "Subdistrictname": "Tirtol", "Blockname": "Tirtol", "Healthblockname": "Tirtol", "Healthfacilitytype": "health sub centre", "Facilityname": "Garam", "NIN": 7358182777, "latitude": 20.28757, "longitude": 86.32943, "facility_type_standardized": "hsc" }, "geometry": { "type": "Point", "coordinates": [ 86.3300857, 20.285454 ] } },
{ "type": "Feature", "properties": { "Statename": "Odisha", "Districtname": "Jagatsinghapur", "Subdistrictname": "Tirtol", "Blockname": "Tirtol", "Healthblockname": "Tirtol", "Healthfacilitytype": "health sub centre", "Facilityname": "Manijanga", "NIN": 6772624380, "latitude": 20.29045, "longitude": 86.28256, "facility_type_standardized": "hsc" }, "geometry": { "type": "Point", "coordinates": [ 86.2767335, 20.288283 ] } },
{ "type": "Feature", "properties": { "Statename": "Odisha", "Districtname": "Jagatsinghapur", "Subdistrictname": "Tirtol", "Blockname": "Tirtol", "Healthblockname": "Tirtol", "Healthfacilitytype": "health sub centre", "Facilityname": "Mulisingh", "NIN": 8227288712, "latitude": 20.29045, "longitude": 86.28256, "facility_type_standardized": "hsc" }, "geometry": { "type": "Point", "coordinates": [ 86.2767335, 20.288283 ] } },
{ "type": "Feature", "properties": { "Statename": "Odisha", "Districtname": "Jagatsinghapur", "Subdistrictname": "Kujang", "Blockname": "Kujang", "Healthblockname": "Kujanga", "Healthfacilitytype": "health sub centre", "Facilityname": "Ganadkipur", "NIN": 1717111379, "latitude": 20.29124, "longitude": 86.55883, "facility_type_standardized": "hsc" }, "geometry": { "type": "Point", "coordinates": [ 86.5535028, 20.2868962 ] } },
{ "type": "Feature", "properties": { "Statename": "Odisha", "Districtname": "Jagatsinghapur", "Subdistrictname": "Jagatsinghapur", "Blockname": "Jagatsinghpur", "Healthblockname": "Jagatsinghpur", "Healthfacilitytype": "health sub centre", "Facilityname": "Madhusudanpur Sasan", "NIN": 5758264864, "latitude": 20.29129, "longitude": 86.13356, "facility_type_standardized": "hsc" }, "geometry": { "type": "Point", "coordinates": [ 86.1341243, 20.2918773 ] } },
{ "type": "Feature", "properties": { "Statename": "Odisha", "Districtname": "Jagatsinghapur", "Subdistrictname": "Kujang", "Blockname": "Kujang", "Healthblockname": "Kujanga", "Healthfacilitytype": "health sub centre", "Facilityname": "Balia", "NIN": 4158188856, "latitude": 20.29138, "longitude": 86.5176, "facility_type_standardized": "hsc" }, "geometry": { "type": "Point", "coordinates": [ 86.5072381, 20.2889461 ] } },
{ "type": "Feature", "properties": { "Statename": "Odisha", "Districtname": "Jagatsinghapur", "Subdistrictname": "Tirtol", "Blockname": "Tirtol", "Healthblockname": "Tirtol", "Healthfacilitytype": "health sub centre", "Facilityname": "Nimakana", "NIN": 5166325257, "latitude": 20.29209, "longitude": 86.3785, "facility_type_standardized": "hsc" }, "geometry": { "type": "Point", "coordinates": [ 86.3830553, 20.29085 ] } },
{ "type": "Feature", "properties": { "Statename": "Odisha", "Districtname": "Jagatsinghapur", "Subdistrictname": "Jagatsinghapur", "Blockname": "Jagatsinghpur", "Healthblockname": "Jagatsinghpur", "Healthfacilitytype": "health sub centre", "Facilityname": "Palasola", "NIN": 2223656212, "latitude": 20.29215, "longitude": 86.18229, "facility_type_standardized": "hsc" }, "geometry": { "type": "Point", "coordinates": [ 86.1720155, 20.2872124 ] } },
{ "type": "Feature", "properties": { "Statename": "Odisha", "Districtname": "Jagatsinghapur", "Subdistrictname": "Jagatsinghapur", "Blockname": "Raghunathpur", "Healthblockname": "Raghunathpur", "Healthfacilitytype": "health sub centre", "Facilityname": "Radhanga", "NIN": 2754881437, "latitude": 20.29255, "longitude": 86.20651, "facility_type_standardized": "hsc" }, "geometry": { "type": "Point", "coordinates": [ 86.2153348, 20.2731676 ] } },
{ "type": "Feature", "properties": { "Statename": "Odisha", "Districtname": "Jagatsinghapur", "Subdistrictname": "Biridi", "Blockname": "Biridi", "Healthblockname": "Biridi", "Healthfacilitytype": "health sub centre", "Facilityname": "Basandara", "NIN": 1858753443, "latitude": 20.29319, "longitude": 86.05175, "facility_type_standardized": "hsc" }, "geometry": { "type": "Point", "coordinates": [ 86.0437524, 20.2892793 ] } },
{ "type": "Feature", "properties": { "Statename": "Odisha", "Districtname": "Jagatsinghapur", "Subdistrictname": "Kujang", "Blockname": "Kujang", "Healthblockname": "Kujanga", "Healthfacilitytype": "health sub centre", "Facilityname": "Sailo", "NIN": 4111352334, "latitude": 20.29657, "longitude": 86.4085, "facility_type_standardized": "hsc" }, "geometry": { "type": "Point", "coordinates": [ 86.4101421, 20.2969138 ] } },
{ "type": "Feature", "properties": { "Statename": "Odisha", "Districtname": "Jagatsinghapur", "Subdistrictname": "Tirtol", "Blockname": "Raghunathpur", "Healthblockname": "Raghunathpur", "Healthfacilitytype": "health sub centre", "Facilityname": "Eradanga", "NIN": 7475786252, "latitude": 20.29742, "longitude": 86.24792, "facility_type_standardized": "hsc" }, "geometry": { "type": "Point", "coordinates": [ 86.2364732, 20.2875054 ] } },
{ "type": "Feature", "properties": { "Statename": "Odisha", "Districtname": "Jagatsinghapur", "Subdistrictname": "Biridi", "Blockname": "Biridi", "Healthblockname": "Biridi", "Healthfacilitytype": "health sub centre", "Facilityname": "Puran", "NIN": 3721647489, "latitude": 20.29842, "longitude": 86.06615, "facility_type_standardized": "hsc" }, "geometry": { "type": "Point", "coordinates": [ 86.0677487, 20.3006361 ] } },
{ "type": "Feature", "properties": { "Statename": "Odisha", "Districtname": "Jagatsinghapur", "Subdistrictname": "Kujang", "Blockname": "Kujang", "Healthblockname": "Kujanga", "Healthfacilitytype": "health sub centre", "Facilityname": "Kothi", "NIN": 3837735335, "latitude": 20.2986, "longitude": 86.57835, "facility_type_standardized": "hsc" }, "geometry": { "type": "Point", "coordinates": [ 86.5715287, 20.3069493 ] } },
{ "type": "Feature", "properties": { "Statename": "Odisha", "Districtname": "Jagatsinghapur", "Subdistrictname": "Kujang", "Blockname": "Kujang", "Healthblockname": "Kujanga", "Healthfacilitytype": "health sub centre", "Facilityname": "Gopiakuda", "NIN": 5835428763, "latitude": 20.29884, "longitude": 86.54873, "facility_type_standardized": "hsc" }, "geometry": { "type": "Point", "coordinates": [ 86.5417017, 20.2988191 ] } },
{ "type": "Feature", "properties": { "Statename": "Odisha", "Districtname": "Jagatsinghapur", "Subdistrictname": "Jagatsinghapur", "Blockname": "Jagatsinghpur", "Healthblockname": "Jagatsinghpur", "Healthfacilitytype": "health sub centre", "Facilityname": "Singharpur", "NIN": 1583377443, "latitude": 20.29902, "longitude": 86.14393, "facility_type_standardized": "hsc" }, "geometry": { "type": "Point", "coordinates": [ 86.141279, 20.2978054 ] } },
{ "type": "Feature", "properties": { "Statename": "Odisha", "Districtname": "Jagatsinghapur", "Subdistrictname": "Jagatsinghapur", "Blockname": "Jagatsinghpur", "Healthblockname": "Jagatsinghpur", "Healthfacilitytype": "health sub centre", "Facilityname": "Rambhadeipur", "NIN": 4358337667, "latitude": 20.30034, "longitude": 86.11174, "facility_type_standardized": "hsc" }, "geometry": { "type": "Point", "coordinates": [ 86.1210953, 20.3071067 ] } },
{ "type": "Feature", "properties": { "Statename": "Odisha", "Districtname": "Jagatsinghapur", "Subdistrictname": "Kujang", "Blockname": "Kujang", "Healthblockname": "Kujanga", "Healthfacilitytype": "health sub centre", "Facilityname": "Pankapal", "NIN": 8188284155, "latitude": 20.30257, "longitude": 86.44951, "facility_type_standardized": "hsc" }, "geometry": { "type": "Point", "coordinates": [ 86.4497852, 20.3001217 ] } },
{ "type": "Feature", "properties": { "Statename": "Odisha", "Districtname": "Jagatsinghapur", "Subdistrictname": "Kujang", "Blockname": "Kujang", "Healthblockname": "Kujanga", "Healthfacilitytype": "health sub centre", "Facilityname": "Talapada", "NIN": 8222434774, "latitude": 20.30326, "longitude": 86.40423, "facility_type_standardized": "hsc" }, "geometry": { "type": "Point", "coordinates": [ 86.4042446, 20.3031142 ] } },
{ "type": "Feature", "properties": { "Statename": "Odisha", "Districtname": "Jagatsinghapur", "Subdistrictname": "Tirtol", "Blockname": "Tirtol", "Healthblockname": "Tirtol", "Healthfacilitytype": "health sub centre", "Facilityname": "Tirtol", "NIN": 6187453441, "latitude": 20.30417, "longitude": 86.38222, "facility_type_standardized": "hsc" }, "geometry": { "type": "Point", "coordinates": [ 86.3807216, 20.3045011 ] } },
{ "type": "Feature", "properties": { "Statename": "Odisha", "Districtname": "Jagatsinghapur", "Subdistrictname": "Kujang", "Blockname": "Kujang", "Healthblockname": "Kujanga", "Healthfacilitytype": "health sub centre", "Facilityname": "Mangarajpur", "NIN": 8417584656, "latitude": 20.30418, "longitude": 86.56596, "facility_type_standardized": "hsc" }, "geometry": { "type": "Point", "coordinates": [ 86.5715287, 20.3069493 ] } },
{ "type": "Feature", "properties": { "Statename": "Odisha", "Districtname": "Jagatsinghapur", "Subdistrictname": "Kujang", "Blockname": "Kujang", "Healthblockname": "Kujanga", "Healthfacilitytype": "health sub centre", "Facilityname": "Jagatnathpur", "NIN": 5528678856, "latitude": 20.30627, "longitude": 86.62858, "facility_type_standardized": "hsc" }, "geometry": { "type": "Point", "coordinates": [ 86.6279484, 20.3057915 ] } },
{ "type": "Feature", "properties": { "Statename": "Odisha", "Districtname": "Jagatsinghapur", "Subdistrictname": "Tirtol", "Blockname": "Tirtol", "Healthblockname": "Tirtol", "Healthfacilitytype": "health sub centre", "Facilityname": "Tentulipada", "NIN": 6524873855, "latitude": 20.30694, "longitude": 86.32183, "facility_type_standardized": "hsc" }, "geometry": { "type": "Point", "coordinates": [ 86.3226779, 20.306964 ] } },
{ "type": "Feature", "properties": { "Statename": "Odisha", "Districtname": "Jagatsinghapur", "Subdistrictname": "Jagatsinghapur", "Blockname": "Raghunathpur", "Healthblockname": "Raghunathpur", "Healthfacilitytype": "health sub centre", "Facilityname": "Tarikunda", "NIN": 7264458758, "latitude": 20.30851, "longitude": 86.13081, "facility_type_standardized": "hsc" }, "geometry": { "type": "Point", "coordinates": [ 86.1346956, 20.3092002 ] } },
{ "type": "Feature", "properties": { "Statename": "Odisha", "Districtname": "Jagatsinghapur", "Subdistrictname": "Balikuda", "Blockname": "Raghunathpur", "Healthblockname": "Raghunathpur", "Healthfacilitytype": "health sub centre", "Facilityname": "Redhua", "NIN": 2586883411, "latitude": 20.30888, "longitude": 86.21403, "facility_type_standardized": "hsc" }, "geometry": { "type": "Point", "coordinates": [ 86.2108257, 20.3215089 ] } },
{ "type": "Feature", "properties": { "Statename": "Odisha", "Districtname": "Jagatsinghapur", "Subdistrictname": "Kujang", "Blockname": "Kujang", "Healthblockname": "Kujanga", "Healthfacilitytype": "health sub centre", "Facilityname": "Taladanda", "NIN": 7516828865, "latitude": 20.30974, "longitude": 86.47757, "facility_type_standardized": "hsc" }, "geometry": { "type": "Point", "coordinates": [ 86.4769897, 20.3093056 ] } },
{ "type": "Feature", "properties": { "Statename": "Odisha", "Districtname": "Jagatsinghapur", "Subdistrictname": "Jagatsinghapur", "Blockname": "Jagatsinghpur", "Healthblockname": "Jagatsinghpur", "Healthfacilitytype": "health sub centre", "Facilityname": "Samanga", "NIN": 3842858312, "latitude": 20.31015, "longitude": 86.16722, "facility_type_standardized": "hsc" }, "geometry": { "type": "Point", "coordinates": [ 86.1632631, 20.3079581 ] } },
{ "type": "Feature", "properties": { "Statename": "Odisha", "Districtname": "Jagatsinghapur", "Subdistrictname": "Tirtol", "Blockname": "Tirtol", "Healthblockname": "Tirtol", "Healthfacilitytype": "health sub centre", "Facilityname": "Tarjanga", "NIN": 1686686468, "latitude": 20.31086, "longitude": 86.3063, "facility_type_standardized": "hsc" }, "geometry": { "type": "Point", "coordinates": [ 86.3132394, 20.3001286 ] } },
{ "type": "Feature", "properties": { "Statename": "Odisha", "Districtname": "Jagatsinghapur", "Subdistrictname": "Jagatsinghapur", "Blockname": "Raghunathpur", "Healthblockname": "Raghunathpur", "Healthfacilitytype": "health sub centre", "Facilityname": "Chhapada", "NIN": 4142818741, "latitude": 20.31355, "longitude": 86.26492, "facility_type_standardized": "hsc" }, "geometry": { "type": "Point", "coordinates": [ 86.259158, 20.3184135 ] } },
{ "type": "Feature", "properties": { "Statename": "Odisha", "Districtname": "Jagatsinghapur", "Subdistrictname": "Kujang", "Blockname": "Kujang", "Healthblockname": "Kujanga", "Healthfacilitytype": "health sub centre", "Facilityname": "Paradeep Garh", "NIN": 1815153711, "latitude": 20.31455, "longitude": 86.61188, "facility_type_standardized": "hsc" }, "geometry": { "type": "Point", "coordinates": [ 86.6122126, 20.3108993 ] } },
{ "type": "Feature", "properties": { "Statename": "Odisha", "Districtname": "Jagatsinghapur", "Subdistrictname": "Kujang", "Blockname": "Kujang", "Healthblockname": "Kujanga", "Healthfacilitytype": "health sub centre", "Facilityname": "Hasina", "NIN": 4373344714, "latitude": 20.31476, "longitude": 86.5642, "facility_type_standardized": "hsc" }, "geometry": { "type": "Point", "coordinates": [ 86.568246, 20.3146369 ] } },
{ "type": "Feature", "properties": { "Statename": "Odisha", "Districtname": "Jagatsinghapur", "Subdistrictname": "Tirtol", "Blockname": "Tirtol", "Healthblockname": "Tirtol", "Healthfacilitytype": "health sub centre", "Facilityname": "Tartol", "NIN": 3617586841, "latitude": 20.31476, "longitude": 86.36757, "facility_type_standardized": "hsc" }, "geometry": { "type": "Point", "coordinates": [ 86.3755945, 20.3177691 ] } },
{ "type": "Feature", "properties": { "Statename": "Odisha", "Districtname": "Jagatsinghapur", "Subdistrictname": "Kujang", "Blockname": "Kujang", "Healthblockname": "Kujanga", "Healthfacilitytype": "health sub centre", "Facilityname": "Zillanasi", "NIN": 6548745634, "latitude": 20.31844, "longitude": 86.49312, "facility_type_standardized": "hsc" }, "geometry": { "type": "Point", "coordinates": [ 86.4914863, 20.3214304 ] } },
{ "type": "Feature", "properties": { "Statename": "Odisha", "Districtname": "Jagatsinghapur", "Subdistrictname": "Kujang", "Blockname": "Kujang", "Healthblockname": "Kujanga", "Healthfacilitytype": "health sub centre", "Facilityname": "Balarampur", "NIN": 8784877840, "latitude": 20.31877, "longitude": 86.53601, "facility_type_standardized": "hsc" }, "geometry": { "type": "Point", "coordinates": [ 86.542658, 20.3215208 ] } },
{ "type": "Feature", "properties": { "Statename": "Odisha", "Districtname": "Jagatsinghapur", "Subdistrictname": "Biridi", "Blockname": "Biridi", "Healthblockname": "Biridi", "Healthfacilitytype": "health sub centre", "Facilityname": "Balia", "NIN": 1387775677, "latitude": 20.3193, "longitude": 86.074, "facility_type_standardized": "hsc" }, "geometry": { "type": "Point", "coordinates": [ 86.0838299, 20.3159149 ] } },
{ "type": "Feature", "properties": { "Statename": "Odisha", "Districtname": "Jagatsinghapur", "Subdistrictname": "Jagatsinghapur", "Blockname": "Raghunathpur", "Healthblockname": "Raghunathpur", "Healthfacilitytype": "health sub centre", "Facilityname": "Sadeipur", "NIN": 8337178357, "latitude": 20.32033, "longitude": 86.16761, "facility_type_standardized": "hsc" }, "geometry": { "type": "Point", "coordinates": [ 86.1704694, 20.3212916 ] } },
{ "type": "Feature", "properties": { "Statename": "Odisha", "Districtname": "Jagatsinghapur", "Subdistrictname": "Biridi", "Blockname": "Biridi", "Healthblockname": "Biridi", "Healthfacilitytype": "health sub centre", "Facilityname": "Manguli", "NIN": 1535156812, "latitude": 20.32301, "longitude": 86.05209, "facility_type_standardized": "hsc" }, "geometry": { "type": "Point", "coordinates": [ 86.0599159, 20.313918 ] } },
{ "type": "Feature", "properties": { "Statename": "Odisha", "Districtname": "Jagatsinghapur", "Subdistrictname": "Kujang", "Blockname": "Kujang", "Healthblockname": "Kujanga", "Healthfacilitytype": "health sub centre", "Facilityname": "Bhutamundei", "NIN": 8836158728, "latitude": 20.32384, "longitude": 86.58355, "facility_type_standardized": "hsc" }, "geometry": { "type": "Point", "coordinates": [ 86.578711, 20.3213524 ] } },
{ "type": "Feature", "properties": { "Statename": "Odisha", "Districtname": "Jagatsinghapur", "Subdistrictname": "Kujang", "Blockname": "Kujang", "Healthblockname": "Kujanga", "Healthfacilitytype": "health sub centre", "Facilityname": "Pipal", "NIN": 1183212230, "latitude": 20.32397, "longitude": 86.60051, "facility_type_standardized": "hsc" }, "geometry": { "type": "Point", "coordinates": [ 86.6073152, 20.3195587 ] } },
{ "type": "Feature", "properties": { "Statename": "Odisha", "Districtname": "Jagatsinghapur", "Subdistrictname": "Kujang", "Blockname": "Kujang", "Healthblockname": "Kujanga", "Healthfacilitytype": "health sub centre", "Facilityname": "Nuagard", "NIN": 5537247784, "latitude": 20.32554, "longitude": 86.628, "facility_type_standardized": "hsc" }, "geometry": { "type": "Point", "coordinates": [ 86.6143119, 20.3187114 ] } },
{ "type": "Feature", "properties": { "Statename": "Odisha", "Districtname": "Jagatsinghapur", "Subdistrictname": "Jagatsinghapur", "Blockname": "Raghunathpur", "Healthblockname": "Raghunathpur", "Healthfacilitytype": "health sub centre", "Facilityname": "Badakorakora", "NIN": 2484373176, "latitude": 20.32671, "longitude": 86.19837, "facility_type_standardized": "hsc" }, "geometry": { "type": "Point", "coordinates": [ 86.1984523, 20.3295116 ] } },
{ "type": "Feature", "properties": { "Statename": "Odisha", "Districtname": "Jagatsinghapur", "Subdistrictname": "Kujang", "Blockname": "Kujang", "Healthblockname": "Kujanga", "Healthfacilitytype": "health sub centre", "Facilityname": "Hansura", "NIN": 8454674618, "latitude": 20.32744, "longitude": 86.42527, "facility_type_standardized": "hsc" }, "geometry": { "type": "Point", "coordinates": [ 86.4176601, 20.3218115 ] } },
{ "type": "Feature", "properties": { "Statename": "Odisha", "Districtname": "Jagatsinghapur", "Subdistrictname": "Jagatsinghapur", "Blockname": "Raghunathpur", "Healthblockname": "Raghunathpur", "Healthfacilitytype": "health sub centre", "Facilityname": "Jaipur", "NIN": 1812622551, "latitude": 20.33102, "longitude": 86.27441, "facility_type_standardized": "hsc" }, "geometry": { "type": "Point", "coordinates": [ 86.266884, 20.3336588 ] } },
{ "type": "Feature", "properties": { "Statename": "Odisha", "Districtname": "Jagatsinghapur", "Subdistrictname": "Kujang", "Blockname": "Kujang", "Healthblockname": "Kujanga", "Healthfacilitytype": "health sub centre", "Facilityname": "Balidia", "NIN": 5538871863, "latitude": 20.33111, "longitude": 86.61569, "facility_type_standardized": "hsc" }, "geometry": { "type": "Point", "coordinates": [ 86.6037172, 20.3361717 ] } },
{ "type": "Feature", "properties": { "Statename": "Odisha", "Districtname": "Jagatsinghapur", "Subdistrictname": "Biridi", "Blockname": "Biridi", "Healthblockname": "Biridi", "Healthfacilitytype": "health sub centre", "Facilityname": "Sankarpur", "NIN": 3261878676, "latitude": 20.3319, "longitude": 86.12649, "facility_type_standardized": "hsc" }, "geometry": { "type": "Point", "coordinates": [ 86.1328177, 20.3231233 ] } },
{ "type": "Feature", "properties": { "Statename": "Odisha", "Districtname": "Jagatsinghapur", "Subdistrictname": "Biridi", "Blockname": "Biridi", "Healthblockname": "Biridi", "Healthfacilitytype": "health sub centre", "Facilityname": "Adhangagarh", "NIN": 8576385424, "latitude": 20.33376, "longitude": 86.10895, "facility_type_standardized": "hsc" }, "geometry": { "type": "Point", "coordinates": [ 86.1019457, 20.321374 ] } },
{ "type": "Feature", "properties": { "Statename": "Odisha", "Districtname": "Jagatsinghapur", "Subdistrictname": "Tirtol", "Blockname": "Tirtol", "Healthblockname": "Tirtol", "Healthfacilitytype": "health sub centre", "Facilityname": "Kolar", "NIN": 1287757478, "latitude": 20.33577, "longitude": 86.38825, "facility_type_standardized": "hsc" }, "geometry": { "type": "Point", "coordinates": [ 86.3792508, 20.3424374 ] } },
{ "type": "Feature", "properties": { "Statename": "Odisha", "Districtname": "Jagatsinghapur", "Subdistrictname": "Biridi", "Blockname": "Biridi", "Healthblockname": "Biridi", "Healthfacilitytype": "health sub centre", "Facilityname": "Sadhei", "NIN": 3683868123, "latitude": 20.33635, "longitude": 86.13989, "facility_type_standardized": "hsc" }, "geometry": { "type": "Point", "coordinates": [ 86.1495388, 20.3435355 ] } },
{ "type": "Feature", "properties": { "Statename": "Odisha", "Districtname": "Jagatsinghapur", "Subdistrictname": "Tirtol", "Blockname": "Tirtol", "Healthblockname": "Tirtol", "Healthfacilitytype": "health sub centre", "Facilityname": "Kanimul", "NIN": 6738258638, "latitude": 20.33777, "longitude": 86.30168, "facility_type_standardized": "hsc" }, "geometry": { "type": "Point", "coordinates": [ 86.2877868, 20.3381102 ] } },
{ "type": "Feature", "properties": { "Statename": "Odisha", "Districtname": "Jagatsinghapur", "Subdistrictname": "Kujang", "Blockname": "Kujang", "Healthblockname": "Kujanga", "Healthfacilitytype": "health sub centre", "Facilityname": "Gobardhanpur", "NIN": 1528885682, "latitude": 20.33813, "longitude": 86.41038, "facility_type_standardized": "hsc" }, "geometry": { "type": "Point", "coordinates": [ 86.4135593, 20.3455072 ] } },
{ "type": "Feature", "properties": { "Statename": "Odisha", "Districtname": "Jagatsinghapur", "Subdistrictname": "Tirtol", "Blockname": "Tirtol", "Healthblockname": "Tirtol", "Healthfacilitytype": "health sub centre", "Facilityname": "Sankheswar", "NIN": 7131515368, "latitude": 20.34217, "longitude": 86.34549, "facility_type_standardized": "hsc" }, "geometry": { "type": "Point", "coordinates": [ 86.3497993, 20.3507286 ] } },
{ "type": "Feature", "properties": { "Statename": "Odisha", "Districtname": "Jagatsinghapur", "Subdistrictname": "Tirtol", "Blockname": "Tirtol", "Healthblockname": "Tirtol", "Healthfacilitytype": "health sub centre", "Facilityname": "Amberi", "NIN": 8773237717, "latitude": 20.34456, "longitude": 86.36111, "facility_type_standardized": "hsc" }, "geometry": { "type": "Point", "coordinates": [ 86.3677951, 20.3381436 ] } },
{ "type": "Feature", "properties": { "Statename": "Odisha", "Districtname": "Jagatsinghapur", "Subdistrictname": "Jagatsinghapur", "Blockname": "Raghunathpur", "Healthblockname": "Raghunathpur", "Healthfacilitytype": "health sub centre", "Facilityname": "Dharadharpur", "NIN": 5771772489, "latitude": 20.34614, "longitude": 86.17374, "facility_type_standardized": "hsc" }, "geometry": { "type": "Point", "coordinates": [ 86.1733678, 20.349459 ] } },
{ "type": "Feature", "properties": { "Statename": "Odisha", "Districtname": "Jagatsinghapur", "Subdistrictname": "Biridi", "Blockname": "Biridi", "Healthblockname": "Biridi", "Healthfacilitytype": "health sub centre", "Facilityname": "Hazipur", "NIN": 2348258373, "latitude": 20.34888, "longitude": 86.04295, "facility_type_standardized": "hsc" }, "geometry": { "type": "Point", "coordinates": [ 86.0433014, 20.3533092 ] } },
{ "type": "Feature", "properties": { "Statename": "Odisha", "Districtname": "Jagatsinghapur", "Subdistrictname": "Tirtol", "Blockname": "Tirtol", "Healthblockname": "Tirtol", "Healthfacilitytype": "health sub centre", "Facilityname": "Bhansar", "NIN": 7172767837, "latitude": 20.35165, "longitude": 86.29044, "facility_type_standardized": "hsc" }, "geometry": { "type": "Point", "coordinates": [ 86.2877868, 20.3381102 ] } },
{ "type": "Feature", "properties": { "Statename": "Odisha", "Districtname": "Jagatsinghapur", "Subdistrictname": "Biridi", "Blockname": "Biridi", "Healthblockname": "Biridi", "Healthfacilitytype": "health sub centre", "Facilityname": "Arana", "NIN": 7324484554, "latitude": 20.35454, "longitude": 86.10971, "facility_type_standardized": "hsc" }, "geometry": { "type": "Point", "coordinates": [ 86.1091393, 20.3605504 ] } },
{ "type": "Feature", "properties": { "Statename": "Odisha", "Districtname": "Jagatsinghapur", "Subdistrictname": "Jagatsinghapur", "Blockname": "Raghunathpur", "Healthblockname": "Raghunathpur", "Healthfacilitytype": "health sub centre", "Facilityname": "Tarapur", "NIN": 5277368766, "latitude": 20.35505, "longitude": 86.22361, "facility_type_standardized": "hsc" }, "geometry": { "type": "Point", "coordinates": [ 86.223101, 20.3549261 ] } },
{ "type": "Feature", "properties": { "Statename": "Odisha", "Districtname": "Jagatsinghapur", "Subdistrictname": "Jagatsinghapur", "Blockname": "Raghunathpur", "Healthblockname": "Raghunathpur", "Healthfacilitytype": "health sub centre", "Facilityname": "Barty", "NIN": 6426487267, "latitude": 20.35547, "longitude": 86.20687, "facility_type_standardized": "hsc" }, "geometry": { "type": "Point", "coordinates": [ 86.2081233, 20.355608 ] } },
{ "type": "Feature", "properties": { "Statename": "Odisha", "Districtname": "Jagatsinghapur", "Subdistrictname": "Tirtol", "Blockname": "Tirtol", "Healthblockname": "Tirtol", "Healthfacilitytype": "health sub centre", "Facilityname": "Krishnanandapur", "NIN": 6443821381, "latitude": 20.3557, "longitude": 86.26482, "facility_type_standardized": "hsc" }, "geometry": { "type": "Point", "coordinates": [ 86.2646402, 20.3538487 ] } },
{ "type": "Feature", "properties": { "Statename": "Odisha", "Districtname": "Jagatsinghapur", "Subdistrictname": "Biridi", "Blockname": "Biridi", "Healthblockname": "Biridi", "Healthfacilitytype": "health sub centre", "Facilityname": "Biridi", "NIN": 8714782268, "latitude": 20.35666, "longitude": 86.08843, "facility_type_standardized": "hsc" }, "geometry": { "type": "Point", "coordinates": [ 86.089501, 20.3640441 ] } },
{ "type": "Feature", "properties": { "Statename": "Odisha", "Districtname": "Jagatsinghapur", "Subdistrictname": "Tirtol", "Blockname": "Tirtol", "Healthblockname": "Tirtol", "Healthfacilitytype": "health sub centre", "Facilityname": "Samantrapur", "NIN": 7715834854, "latitude": 20.35849, "longitude": 86.39659, "facility_type_standardized": "hsc" }, "geometry": { "type": "Point", "coordinates": [ 86.3995551, 20.3583032 ] } },
{ "type": "Feature", "properties": { "Statename": "Odisha", "Districtname": "Jagatsinghapur", "Subdistrictname": "Tirtol", "Blockname": "Tirtol", "Healthblockname": "Tirtol", "Healthfacilitytype": "health sub centre", "Facilityname": "Itatikiri", "NIN": 4742661780, "latitude": 20.3616, "longitude": 86.25608, "facility_type_standardized": "hsc" }, "geometry": { "type": "Point", "coordinates": [ 86.2610005, 20.3673391 ] } },
{ "type": "Feature", "properties": { "Statename": "Odisha", "Districtname": "Jagatsinghapur", "Subdistrictname": "Jagatsinghapur", "Blockname": "Raghunathpur", "Healthblockname": "Raghunathpur", "Healthfacilitytype": "health sub centre", "Facilityname": "Raghunathpur", "NIN": 1241627510, "latitude": 20.36267, "longitude": 86.15909, "facility_type_standardized": "hsc" }, "geometry": { "type": "Point", "coordinates": [ 86.1569202, 20.3644028 ] } },
{ "type": "Feature", "properties": { "Statename": "Odisha", "Districtname": "Jagatsinghapur", "Subdistrictname": "Biridi", "Blockname": "Biridi", "Healthblockname": "Biridi", "Healthfacilitytype": "health sub centre", "Facilityname": "Madhyasasan", "NIN": 2274338462, "latitude": 20.36389, "longitude": 86.03392, "facility_type_standardized": "hsc" }, "geometry": { "type": "Point", "coordinates": [ 86.0378316, 20.3584308 ] } },
{ "type": "Feature", "properties": { "Statename": "Odisha", "Districtname": "Jagatsinghapur", "Subdistrictname": "Biridi", "Blockname": "Biridi", "Healthblockname": "Biridi", "Healthfacilitytype": "health sub centre", "Facilityname": "Alando", "NIN": 5284384418, "latitude": 20.36895, "longitude": 86.06097, "facility_type_standardized": "hsc" }, "geometry": { "type": "Point", "coordinates": [ 86.0650694, 20.3666802 ] } },
{ "type": "Feature", "properties": { "Statename": "Odisha", "Districtname": "Jagatsinghapur", "Subdistrictname": "Jagatsinghapur", "Blockname": "Raghunathpur", "Healthblockname": "Raghunathpur", "Healthfacilitytype": "health sub centre", "Facilityname": "Korkora", "NIN": 1424574877, "latitude": 20.37325, "longitude": 86.17111, "facility_type_standardized": "hsc" }, "geometry": { "type": "Point", "coordinates": [ 86.1673704, 20.3720153 ] } },
{ "type": "Feature", "properties": { "Statename": "Odisha", "Districtname": "Jagatsinghapur", "Subdistrictname": "Jagatsinghapur", "Blockname": "Raghunathpur", "Healthblockname": "Raghunathpur", "Healthfacilitytype": "health sub centre", "Facilityname": "Uttarkul", "NIN": 3876741665, "latitude": 20.37837, "longitude": 86.23131, "facility_type_standardized": "hsc" }, "geometry": { "type": "Point", "coordinates": [ 86.2301262, 20.3731215 ] } },
{ "type": "Feature", "properties": { "Statename": "Odisha", "Districtname": "Jagatsinghapur", "Subdistrictname": "Biridi", "Blockname": "Biridi", "Healthblockname": "Biridi", "Healthfacilitytype": "health sub centre", "Facilityname": "Sankhapur", "NIN": 8815644540, "latitude": 20.38492, "longitude": 86.04878, "facility_type_standardized": "hsc" }, "geometry": { "type": "Point", "coordinates": [ 86.0439845, 20.3837862 ] } },
{ "type": "Feature", "properties": { "Statename": "Odisha", "Districtname": "Jagatsinghapur", "Subdistrictname": "Jagatsinghapur", "Blockname": "Raghunathpur", "Healthblockname": "Raghunathpur", "Healthfacilitytype": "health sub centre", "Facilityname": "Biratkatak", "NIN": 7725485853, "latitude": 20.38553, "longitude": 86.13333, "facility_type_standardized": "hsc" }, "geometry": { "type": "Point", "coordinates": [ 86.1140484, 20.3725035 ] } },
{ "type": "Feature", "properties": { "Statename": "Odisha", "Districtname": "Jagatsinghapur", "Subdistrictname": "Jagatsinghapur", "Blockname": "Raghunathpur", "Healthblockname": "Raghunathpur", "Healthfacilitytype": "health sub centre", "Facilityname": "Manijanga", "NIN": 6123552355, "latitude": 20.38761, "longitude": 86.25375, "facility_type_standardized": "hsc" }, "geometry": { "type": "Point", "coordinates": [ 86.2522325, 20.3924446 ] } },
{ "type": "Feature", "properties": { "Statename": "Odisha", "Districtname": "Jagatsinghapur", "Subdistrictname": "Jagatsinghapur", "Blockname": "Raghunathpur", "Healthblockname": "Raghunathpur", "Healthfacilitytype": "health sub centre", "Facilityname": "Babujanga", "NIN": 4651743785, "latitude": 20.38895, "longitude": 86.20083, "facility_type_standardized": "hsc" }, "geometry": { "type": "Point", "coordinates": [ 86.2031903, 20.3884384 ] } },
{ "type": "Feature", "properties": { "Statename": "Odisha", "Districtname": "Jagatsinghapur", "Subdistrictname": "Biridi", "Blockname": "Biridi", "Healthblockname": "Biridi", "Healthfacilitytype": "health sub centre", "Facilityname": "Belasarpur", "NIN": 3886852148, "latitude": 20.41466, "longitude": 86.0844, "facility_type_standardized": "hsc" }, "geometry": { "type": "Point", "coordinates": [ 86.09085, 20.42292 ] } }
]
}
