{
"type": "FeatureCollection",
"name": "koraput_hsc_snapped",
"crs": { "type": "name", "properties": { "name": "urn:ogc:def:crs:OGC:1.3:CRS84" } },
"features": [
{ "type": "Feature", "properties": { "Statename": "Odisha", "Districtname": "Koraput", "Subdistrictname": "Padua", "Blockname": "Nandapur", "Healthblockname": "Nandapur", "Healthfacilitytype": "health sub centre", "Facilityname": "Andarguda", "NIN": 4486375233, "latitude": 18.27473, "longitude": 82.62365, "facility_type_standardized": "hsc" }, "geometry": { "type": "Point", "coordinates": [ 82.620791, 18.2773872 ] } },
{ "type": "Feature", "properties": { "Statename": "Odisha", "Districtname": "Koraput", "Subdistrictname": "Padua", "Blockname": "Nandapur", "Healthblockname": "Nandapur", "Healthfacilitytype": "health sub centre", "Facilityname": "Hataguda", "NIN": 8536634580, "latitude": 18.30257, "longitude": 82.63041, "facility_type_standardized": "hsc" }, "geometry": { "type": "Point", "coordinates": [ 82.6327135, 18.3040167 ] } },
{ "type": "Feature", "properties": { "Statename": "Odisha", "Districtname": "Koraput", "Subdistrictname": "Nandapur", "Blockname": "Nandapur", "Healthblockname": "Nandapur", "Healthfacilitytype": "health sub centre", "Facilityname": "Kanta", "NIN": 4684314752, "latitude": 18.335, "longitude": 82.63389, "facility_type_standardized": "hsc" }, "geometry": { "type": "Point", "coordinates": [ 82.6416387, 18.3222906 ] } },
{ "type": "Feature", "properties": { "Statename": "Odisha", "Districtname": "Koraput", "Subdistrictname": "Padua", "Blockname": "Nandapur", "Healthblockname": "Nandapur", "Healthfacilitytype": "health sub centre", "Facilityname": "Kularsingh", "NIN": 6177842587, "latitude": 18.34873, "longitude": 82.65873, "facility_type_standardized": "hsc" }, "geometry": { "type": "Point", "coordinates": [ 82.6504809, 18.3329039 ] } },
{ "type": "Feature", "properties": { "Statename": "Odisha", "Districtname": "Koraput", "Subdistrictname": "Padua", "Blockname": "Nandapur", "Healthblockname": "Nandapur", "Healthfacilitytype": "health sub centre", "Facilityname": "Chatwa", "NIN": 3254826781, "latitude": 18.36056, "longitude": 82.77562, "facility_type_standardized": "hsc" }, "geometry": { "type": "Point", "coordinates": [ 82.7673322, 18.3519974 ] } },
{ "type": "Feature", "properties": { "Statename": "Odisha", "Districtname": "Koraput", "Subdistrictname": "Padua", "Blockname": "Nandapur", "Healthblockname": "Nandapur", "Healthfacilitytype": "health sub centre", "Facilityname": "Padwa", "NIN": 7144586646, "latitude": 18.37328, "longitude": 82.6897, "facility_type_standardized": "hsc" }, "geometry": { "type": "Point", "coordinates": [ 82.6833398, 18.3671862 ] } },
{ "type": "Feature", "properties": { "Statename": "Odisha", "Districtname": "Koraput", "Subdistrictname": "Kotiya", "Blockname": "Pottangi", "Healthblockname": "Pattangi", "Healthfacilitytype": "health sub centre", "Facilityname": "Rallegada", "NIN": 8648255282, "latitude": 18.38519, "longitude": 82.91335, "facility_type_standardized": "hsc" }, "geometry": { "type": "Point", "coordinates": [ 82.9249391, 18.3791216 ] } },
{ "type": "Feature", "properties": { "Statename": "Odisha", "Districtname": "Koraput", "Subdistrictname": "Kotiya", "Blockname": "Pottangi", "Healthblockname": "Pattangi", "Healthfacilitytype": "health sub centre", "Facilityname": "Tolagoluru", "NIN": 4415842865, "latitude": 18.38702, "longitude": 82.95927, "facility_type_standardized": "hsc" }, "geometry": { "type": "Point", "coordinates": [ 82.9584651, 18.3861411 ] } },
{ "type": "Feature", "properties": { "Statename": "Odisha", "Districtname": "Koraput", "Subdistrictname": "Nandapur", "Blockname": "Nandapur", "Healthblockname": "Nandapur", "Healthfacilitytype": "health sub centre", "Facilityname": "Jalaput", "NIN": 3633727445, "latitude": 18.38946, "longitude": 82.60881, "facility_type_standardized": "hsc" }, "geometry": { "type": "Point", "coordinates": [ 82.6306361, 18.4429673 ] } },
{ "type": "Feature", "properties": { "Statename": "Odisha", "Districtname": "Koraput", "Subdistrictname": "Padua", "Blockname": "Nandapur", "Healthblockname": "Nandapur", "Healthfacilitytype": "health sub centre", "Facilityname": "Zera", "NIN": 7663727282, "latitude": 18.40036, "longitude": 82.78719, "facility_type_standardized": "hsc" }, "geometry": { "type": "Point", "coordinates": [ 82.7844538, 18.4047732 ] } },
{ "type": "Feature", "properties": { "Statename": "Odisha", "Districtname": "Koraput", "Subdistrictname": "Kotiya", "Blockname": "Pottangi", "Healthblockname": "Pattangi", "Healthfacilitytype": "health sub centre", "Facilityname": "Ampaballi", "NIN": 7274738165, "latitude": 18.40478, "longitude": 82.97173, "facility_type_standardized": "hsc" }, "geometry": { "type": "Point", "coordinates": [ 82.9815984, 18.4067032 ] } },
{ "type": "Feature", "properties": { "Statename": "Odisha", "Districtname": "Koraput", "Subdistrictname": "Padua", "Blockname": "Nandapur", "Healthblockname": "Nandapur", "Healthfacilitytype": "health sub centre", "Facilityname": "Hatibari", "NIN": 5442678420, "latitude": 18.4061, "longitude": 82.74393, "facility_type_standardized": "hsc" }, "geometry": { "type": "Point", "coordinates": [ 82.7711176, 18.4171006 ] } },
{ "type": "Feature", "properties": { "Statename": "Odisha", "Districtname": "Koraput", "Subdistrictname": "Padua", "Blockname": "Nandapur", "Healthblockname": "Nandapur", "Healthfacilitytype": "health sub centre", "Facilityname": "Dorsuballar", "NIN": 1153116833, "latitude": 18.41834, "longitude": 82.68127, "facility_type_standardized": "hsc" }, "geometry": { "type": "Point", "coordinates": [ 82.6816692, 18.438827 ] } },
{ "type": "Feature", "properties": { "Statename": "Odisha", "Districtname": "Koraput", "Subdistrictname": "Padua", "Blockname": "Nandapur", "Healthblockname": "Nandapur", "Healthfacilitytype": "health sub centre", "Facilityname": "Attanda", "NIN": 4485157863, "latitude": 18.42363, "longitude": 82.62955, "facility_type_standardized": "hsc" }, "geometry": { "type": "Point", "coordinates": [ 82.6306361, 18.4429673 ] } },
{ "type": "Feature", "properties": { "Statename": "Odisha", "Districtname": "Koraput", "Subdistrictname": "Kotiya", "Blockname": "Pottangi", "Healthblockname": "Pattangi", "Healthfacilitytype": "health sub centre", "Facilityname": "Kuruli", "NIN": 4541388577, "latitude": 18.43177, "longitude": 82.96535, "facility_type_standardized": "hsc" }, "geometry": { "type": "Point", "coordinates": [ 82.962748, 18.4248517 ] } },
{ "type": "Feature", "properties": { "Statename": "Odisha", "Districtname": "Koraput", "Subdistrictname": "Pottangi", "Blockname": "Pottangi", "Healthblockname": "Pattangi", "Healthfacilitytype": "health sub centre", "Facilityname": "Sambai", "NIN": 5656615134, "latitude": 18.44496, "longitude": 82.87465, "facility_type_standardized": "hsc" }, "geometry": { "type": "Point", "coordinates": [ 82.8792849, 18.4410847 ] } },
{ "type": "Feature", "properties": { "Statename": "Odisha", "Districtname": "Koraput", "Subdistrictname": "Kotiya", "Blockname": "Pottangi", "Healthblockname": "Pattangi", "Healthfacilitytype": "health sub centre", "Facilityname": "Petru", "NIN": 4343272441, "latitude": 18.45022, "longitude": 82.98652, "facility_type_standardized": "hsc" }, "geometry": { "type": "Point", "coordinates": [ 82.9868764, 18.4461178 ] } },
{ "type": "Feature", "properties": { "Statename": "Odisha", "Districtname": "Koraput", "Subdistrictname": "Nandapur", "Blockname": "Nandapur", "Healthblockname": "Nandapur", "Healthfacilitytype": "health sub centre", "Facilityname": "Banamaliput", "NIN": 7177287575, "latitude": 18.45274, "longitude": 82.70838, "facility_type_standardized": "hsc" }, "geometry": { "type": "Point", "coordinates": [ 82.7106891, 18.4597644 ] } },
{ "type": "Feature", "properties": { "Statename": "Odisha", "Districtname": "Koraput", "Subdistrictname": "Nandapur", "Blockname": "Nandapur", "Healthblockname": "Nandapur", "Healthfacilitytype": "health sub centre", "Facilityname": "Bheja", "NIN": 6747826565, "latitude": 18.47576, "longitude": 82.68243, "facility_type_standardized": "hsc" }, "geometry": { "type": "Point", "coordinates": [ 82.6848918, 18.4723995 ] } },
{ "type": "Feature", "properties": { "Statename": "Odisha", "Districtname": "Koraput", "Subdistrictname": "Pottangi", "Blockname": "Nandapur", "Healthblockname": "Nandapur", "Healthfacilitytype": "health sub centre", "Facilityname": "Nandaka", "NIN": 6377687618, "latitude": 18.47611, "longitude": 82.81261, "facility_type_standardized": "hsc" }, "geometry": { "type": "Point", "coordinates": [ 82.8336176, 18.4664947 ] } },
{ "type": "Feature", "properties": { "Statename": "Odisha", "Districtname": "Koraput", "Subdistrictname": "Kotiya", "Blockname": "Pottangi", "Healthblockname": "Pattangi", "Healthfacilitytype": "health sub centre", "Facilityname": "Laudi", "NIN": 3788183253, "latitude": 18.47641, "longitude": 83.02074, "facility_type_standardized": "hsc" }, "geometry": { "type": "Point", "coordinates": [ 83.0119887, 18.5006203 ] } },
{ "type": "Feature", "properties": { "Statename": "Odisha", "Districtname": "Koraput", "Subdistrictname": "Nandapur", "Blockname": "Nandapur", "Healthblockname": "Nandapur", "Healthfacilitytype": "health sub centre", "Facilityname": "Darliput", "NIN": 5872738413, "latitude": 18.47884, "longitude": 82.56641, "facility_type_standardized": "hsc" }, "geometry": { "type": "Point", "coordinates": [ 82.5676741, 18.475678 ] } },
{ "type": "Feature", "properties": { "Statename": "Odisha", "Districtname": "Koraput", "Subdistrictname": "Pottangi", "Blockname": "Semiliguda", "Healthblockname": "Semiliguda", "Healthfacilitytype": "health sub centre", "Facilityname": "Sadam", "NIN": 8473241738, "latitude": 18.48051, "longitude": 82.85647, "facility_type_standardized": "hsc" }, "geometry": { "type": "Point", "coordinates": [ 82.8504029, 18.4960979 ] } },
{ "type": "Feature", "properties": { "Statename": "Odisha", "Districtname": "Koraput", "Subdistrictname": "Nandapur", "Blockname": "Nandapur", "Healthblockname": "Nandapur", "Healthfacilitytype": "health sub centre", "Facilityname": "Badel", "NIN": 2287264473, "latitude": 18.48135, "longitude": 82.64735, "facility_type_standardized": "hsc" }, "geometry": { "type": "Point", "coordinates": [ 82.6475447, 18.4809624 ] } },
{ "type": "Feature", "properties": { "Statename": "Odisha", "Districtname": "Koraput", "Subdistrictname": "Nandapur", "Blockname": "Nandapur", "Healthblockname": "Nandapur", "Healthfacilitytype": "health sub centre", "Facilityname": "Raisingi", "NIN": 5776738238, "latitude": 18.48154, "longitude": 82.73275, "facility_type_standardized": "hsc" }, "geometry": { "type": "Point", "coordinates": [ 82.7250731, 18.477068 ] } },
{ "type": "Feature", "properties": { "Statename": "Odisha", "Districtname": "Koraput", "Subdistrictname": "Kotiya", "Blockname": "Pottangi", "Healthblockname": "Pattangi", "Healthfacilitytype": "health sub centre", "Facilityname": "Pukali", "NIN": 3218838369, "latitude": 18.48717, "longitude": 82.90095, "facility_type_standardized": "hsc" }, "geometry": { "type": "Point", "coordinates": [ 82.8888312, 18.4877208 ] } },
{ "type": "Feature", "properties": { "Statename": "Odisha", "Districtname": "Koraput", "Subdistrictname": "Kotiya", "Blockname": "Pottangi", "Healthblockname": "Pattangi", "Healthfacilitytype": "health sub centre", "Facilityname": "Chandaka", "NIN": 6733644279, "latitude": 18.49523, "longitude": 82.96335, "facility_type_standardized": "hsc" }, "geometry": { "type": "Point", "coordinates": [ 82.9639676, 18.4956629 ] } },
{ "type": "Feature", "properties": { "Statename": "Odisha", "Districtname": "Koraput", "Subdistrictname": "Nandapur", "Blockname": "Nandapur", "Healthblockname": "Nandapur", "Healthfacilitytype": "health sub centre", "Facilityname": "Kosandi", "NIN": 6654823837, "latitude": 18.49656, "longitude": 82.74867, "facility_type_standardized": "hsc" }, "geometry": { "type": "Point", "coordinates": [ 82.7437528, 18.4917805 ] } },
{ "type": "Feature", "properties": { "Statename": "Odisha", "Districtname": "Koraput", "Subdistrictname": "Nandapur", "Blockname": "Nandapur", "Healthblockname": "Nandapur", "Healthfacilitytype": "health sub centre", "Facilityname": "Khamara", "NIN": 5581131629, "latitude": 18.49916, "longitude": 82.64368, "facility_type_standardized": "hsc" }, "geometry": { "type": "Point", "coordinates": [ 82.6475447, 18.4809624 ] } },
{ "type": "Feature", "properties": { "Statename": "Odisha", "Districtname": "Koraput", "Subdistrictname": "Nandapur", "Blockname": "Nandapur", "Healthblockname": "Nandapur", "Healthfacilitytype": "health sub centre", "Facilityname": "Khemunduguda", "NIN": 6577115121, "latitude": 18.50258, "longitude": 82.78999, "facility_type_standardized": "hsc" }, "geometry": { "type": "Point", "coordinates": [ 82.7715813, 18.5147496 ] } },
{ "type": "Feature", "properties": { "Statename": "Odisha", "Districtname": "Koraput", "Subdistrictname": "Machh Kund", "Blockname": "Lamtaput", "Healthblockname": "Lamptaput", "Healthfacilitytype": "health sub centre", "Facilityname": "Onkadelli", "NIN": 6116615425, "latitude": 18.5047, "longitude": 82.41172, "facility_type_standardized": "hsc" }, "geometry": { "type": "Point", "coordinates": [ 82.4187176, 18.4995783 ] } },
{ "type": "Feature", "properties": { "Statename": "Odisha", "Districtname": "Koraput", "Subdistrictname": "Kotiya", "Blockname": "Pottangi", "Healthblockname": "Pattangi", "Healthfacilitytype": "health sub centre", "Facilityname": "Kotia", "NIN": 8744285316, "latitude": 18.50969, "longitude": 82.9985, "facility_type_standardized": "hsc" }, "geometry": { "type": "Point", "coordinates": [ 82.9915729, 18.5083858 ] } },
{ "type": "Feature", "properties": { "Statename": "Odisha", "Districtname": "Koraput", "Subdistrictname": "Kotiya", "Blockname": "Pottangi", "Healthblockname": "Pattangi", "Healthfacilitytype": "health sub centre", "Facilityname": "Sunki", "NIN": 7688664155, "latitude": 18.5104, "longitude": 83.04975, "facility_type_standardized": "hsc" }, "geometry": { "type": "Point", "coordinates": [ 83.0471741, 18.500778 ] } },
{ "type": "Feature", "properties": { "Statename": "Odisha", "Districtname": "Koraput", "Subdistrictname": "Nandapur", "Blockname": "Nandapur", "Healthblockname": "Nandapur", "Healthfacilitytype": "health sub centre", "Facilityname": "Thuba", "NIN": 6782676818, "latitude": 18.51184, "longitude": 82.67094, "facility_type_standardized": "hsc" }, "geometry": { "type": "Point", "coordinates": [ 82.6770659, 18.5168326 ] } },
{ "type": "Feature", "properties": { "Statename": "Odisha", "Districtname": "Koraput", "Subdistrictname": "Pottangi", "Blockname": "Semiliguda", "Healthblockname": "Semiliguda", "Healthfacilitytype": "health sub centre", "Facilityname": "Hataguda", "NIN": 4116171176, "latitude": 18.517, "longitude": 82.83708, "facility_type_standardized": "hsc" }, "geometry": { "type": "Point", "coordinates": [ 82.8396016, 18.5255865 ] } },
{ "type": "Feature", "properties": { "Statename": "Odisha", "Districtname": "Koraput", "Subdistrictname": "Kotiya", "Blockname": "Semiliguda", "Healthblockname": "Semiliguda", "Healthfacilitytype": "health sub centre", "Facilityname": "Patakhemer", "NIN": 7637731865, "latitude": 18.52654, "longitude": 82.83188, "facility_type_standardized": "hsc" }, "geometry": { "type": "Point", "coordinates": [ 82.8396016, 18.5255865 ] } },
{ "type": "Feature", "properties": { "Statename": "Odisha", "Districtname": "Koraput", "Subdistrictname": "Machh Kund", "Blockname": "Lamtaput", "Healthblockname": "Lamptaput", "Healthfacilitytype": "health sub centre", "Facilityname": "Ballel", "NIN": 3774263820, "latitude": 18.53264, "longitude": 82.57724, "facility_type_standardized": "hsc" }, "geometry": { "type": "Point", "coordinates": [ 82.5772416, 18.5380507 ] } },
{ "type": "Feature", "properties": { "Statename": "Odisha", "Districtname": "Koraput", "Subdistrictname": "Nandapur", "Blockname": "Nandapur", "Healthblockname": "Nandapur", "Healthfacilitytype": "health sub centre", "Facilityname": "Hikimput", "NIN": 8317642380, "latitude": 18.53454, "longitude": 82.70956, "facility_type_standardized": "hsc" }, "geometry": { "type": "Point", "coordinates": [ 82.706967, 18.535742 ] } },
{ "type": "Feature", "properties": { "Statename": "Odisha", "Districtname": "Koraput", "Subdistrictname": "Pottangi", "Blockname": "Pottangi", "Healthblockname": "Pattangi", "Healthfacilitytype": "health sub centre", "Facilityname": "Gangarajpur", "NIN": 3187184852, "latitude": 18.53811, "longitude": 82.96644, "facility_type_standardized": "hsc" }, "geometry": { "type": "Point", "coordinates": [ 82.9647227, 18.55997 ] } },
{ "type": "Feature", "properties": { "Statename": "Odisha", "Districtname": "Koraput", "Subdistrictname": "Pottangi", "Blockname": "Semiliguda", "Healthblockname": "Semiliguda", "Healthfacilitytype": "health sub centre", "Facilityname": "Renga", "NIN": 5148763385, "latitude": 18.53823, "longitude": 82.85827, "facility_type_standardized": "hsc" }, "geometry": { "type": "Point", "coordinates": [ 82.8629851, 18.5301948 ] } },
{ "type": "Feature", "properties": { "Statename": "Odisha", "Districtname": "Koraput", "Subdistrictname": "Machh Kund", "Blockname": "Lamtaput", "Healthblockname": "Lamptaput", "Healthfacilitytype": "health sub centre", "Facilityname": "Godihanjhar", "NIN": 6728433365, "latitude": 18.53891, "longitude": 82.51884, "facility_type_standardized": "hsc" }, "geometry": { "type": "Point", "coordinates": [ 82.534197, 18.5195564 ] } },
{ "type": "Feature", "properties": { "Statename": "Odisha", "Districtname": "Koraput", "Subdistrictname": "Pottangi", "Blockname": "Pottangi", "Healthblockname": "Pattangi", "Healthfacilitytype": "health sub centre", "Facilityname": "Deo Pottangi", "NIN": 7278775239, "latitude": 18.54808, "longitude": 82.91588, "facility_type_standardized": "hsc" }, "geometry": { "type": "Point", "coordinates": [ 82.9582583, 18.5646359 ] } },
{ "type": "Feature", "properties": { "Statename": "Odisha", "Districtname": "Koraput", "Subdistrictname": "Machh Kund", "Blockname": "Lamtaput", "Healthblockname": "Lamptaput", "Healthfacilitytype": "health sub centre", "Facilityname": "Badigada", "NIN": 3574122119, "latitude": 18.54856, "longitude": 82.44331, "facility_type_standardized": "hsc" }, "geometry": { "type": "Point", "coordinates": [ 82.441783, 18.5434908 ] } },
{ "type": "Feature", "properties": { "Statename": "Odisha", "Districtname": "Koraput", "Subdistrictname": "Pottangi", "Blockname": "Pottangi", "Healthblockname": "Pattangi", "Healthfacilitytype": "health sub centre", "Facilityname": "Podapadar", "NIN": 7561124210, "latitude": 18.55267, "longitude": 82.99073, "facility_type_standardized": "hsc" }, "geometry": { "type": "Point", "coordinates": [ 82.9647227, 18.55997 ] } },
{ "type": "Feature", "properties": { "Statename": "Odisha", "Districtname": "Koraput", "Subdistrictname": "Machh Kund", "Blockname": "Lamtaput", "Healthblockname": "Lamptaput", "Healthfacilitytype": "health sub centre", "Facilityname": "Machhakund", "NIN": 7657772435, "latitude": 18.55321, "longitude": 82.47021, "facility_type_standardized": "hsc" }, "geometry": { "type": "Point", "coordinates": [ 82.4694279, 18.5511644 ] } },
{ "type": "Feature", "properties": { "Statename": "Odisha", "Districtname": "Koraput", "Subdistrictname": "Nandapur", "Blockname": "Nandapur", "Healthblockname": "Nandapur", "Healthfacilitytype": "health sub centre", "Facilityname": "Nandapur MC", "NIN": 5328748321, "latitude": 18.55916, "longitude": 82.74385, "facility_type_standardized": "hsc" }, "geometry": { "type": "Point", "coordinates": [ 82.7379935, 18.5633396 ] } },
{ "type": "Feature", "properties": { "Statename": "Odisha", "Districtname": "Koraput", "Subdistrictname": "Pottangi", "Blockname": "Pottangi", "Healthblockname": "Pattangi", "Healthfacilitytype": "health sub centre", "Facilityname": "Pottangi", "NIN": 7442183286, "latitude": 18.56136, "longitude": 82.976, "facility_type_standardized": "hsc" }, "geometry": { "type": "Point", "coordinates": [ 82.9647227, 18.55997 ] } },
{ "type": "Feature", "properties": { "Statename": "Odisha", "Districtname": "Koraput", "Subdistrictname": "Nandapur", "Blockname": "Nandapur", "Healthblockname": "Nandapur", "Healthfacilitytype": "health sub centre", "Facilityname": "Khurjee", "NIN": 6648881313, "latitude": 18.56363, "longitude": 82.77203, "facility_type_standardized": "hsc" }, "geometry": { "type": "Point", "coordinates": [ 82.7402148, 18.5656581 ] } },
{ "type": "Feature", "properties": { "Statename": "Odisha", "Districtname": "Koraput", "Subdistrictname": "Machh Kund", "Blockname": "Lamtaput", "Healthblockname": "Lamptaput", "Healthfacilitytype": "health sub centre", "Facilityname": "Guneipada", "NIN": 1712651635, "latitude": 18.57173, "longitude": 82.52111, "facility_type_standardized": "hsc" }, "geometry": { "type": "Point", "coordinates": [ 82.5246919, 18.5716907 ] } },
{ "type": "Feature", "properties": { "Statename": "Odisha", "Districtname": "Koraput", "Subdistrictname": "Pottangi", "Blockname": "Pottangi", "Healthblockname": "Pattangi", "Healthfacilitytype": "health sub centre", "Facilityname": "Maliput", "NIN": 4252873833, "latitude": 18.5816, "longitude": 82.91948, "facility_type_standardized": "hsc" }, "geometry": { "type": "Point", "coordinates": [ 82.9044159, 18.5991989 ] } },
{ "type": "Feature", "properties": { "Statename": "Odisha", "Districtname": "Koraput", "Subdistrictname": "Machh Kund", "Blockname": "Lamtaput", "Healthblockname": "Lamptaput", "Healthfacilitytype": "health sub centre", "Facilityname": "Tusuba", "NIN": 5863617840, "latitude": 18.58431, "longitude": 82.60665, "facility_type_standardized": "hsc" }, "geometry": { "type": "Point", "coordinates": [ 82.6079583, 18.5790172 ] } },
{ "type": "Feature", "properties": { "Statename": "Odisha", "Districtname": "Koraput", "Subdistrictname": "Similiguda", "Blockname": "Semiliguda", "Healthblockname": "Semiliguda", "Healthfacilitytype": "health sub centre", "Facilityname": "Hadiguda", "NIN": 4423768268, "latitude": 18.58663, "longitude": 82.83457, "facility_type_standardized": "hsc" }, "geometry": { "type": "Point", "coordinates": [ 82.8425547, 18.5520416 ] } },
{ "type": "Feature", "properties": { "Statename": "Odisha", "Districtname": "Koraput", "Subdistrictname": "Pottangi", "Blockname": "Semiliguda", "Healthblockname": "Semiliguda", "Healthfacilitytype": "health sub centre", "Facilityname": "Kunduli", "NIN": 1557215454, "latitude": 18.60765, "longitude": 82.89747, "facility_type_standardized": "hsc" }, "geometry": { "type": "Point", "coordinates": [ 82.9025276, 18.6039894 ] } },
{ "type": "Feature", "properties": { "Statename": "Odisha", "Districtname": "Koraput", "Subdistrictname": "Pottangi", "Blockname": "Semiliguda", "Healthblockname": "Semiliguda", "Healthfacilitytype": "health sub centre", "Facilityname": "Subai Semiliguda", "NIN": 5647121150, "latitude": 18.60789, "longitude": 82.79875, "facility_type_standardized": "hsc" }, "geometry": { "type": "Point", "coordinates": [ 82.7823539, 18.5936371 ] } },
{ "type": "Feature", "properties": { "Statename": "Odisha", "Districtname": "Koraput", "Subdistrictname": "Similiguda", "Blockname": "Semiliguda", "Healthblockname": "Semiliguda", "Healthfacilitytype": "health sub centre", "Facilityname": "Gunthaput", "NIN": 8872114445, "latitude": 18.60987, "longitude": 82.82741, "facility_type_standardized": "hsc" }, "geometry": { "type": "Point", "coordinates": [ 82.8368819, 18.6322961 ] } },
{ "type": "Feature", "properties": { "Statename": "Odisha", "Districtname": "Koraput", "Subdistrictname": "Nandapur", "Blockname": "Lamtaput", "Healthblockname": "Lamptaput", "Healthfacilitytype": "health sub centre", "Facilityname": "Sogar", "NIN": 3766852747, "latitude": 18.61451, "longitude": 82.71344, "facility_type_standardized": "hsc" }, "geometry": { "type": "Point", "coordinates": [ 82.7098582, 18.6067105 ] } },
{ "type": "Feature", "properties": { "Statename": "Odisha", "Districtname": "Koraput", "Subdistrictname": "Machh Kund", "Blockname": "Lamtaput", "Healthblockname": "Lamptaput", "Healthfacilitytype": "health sub centre", "Facilityname": "Mattamput", "NIN": 4424833715, "latitude": 18.61703, "longitude": 82.5669, "facility_type_standardized": "hsc" }, "geometry": { "type": "Point", "coordinates": [ 82.5613598, 18.6194057 ] } },
{ "type": "Feature", "properties": { "Statename": "Odisha", "Districtname": "Koraput", "Subdistrictname": "Nandapur", "Blockname": "Nandapur", "Healthblockname": "Nandapur", "Healthfacilitytype": "health sub centre", "Facilityname": "Bijapur", "NIN": 7742284263, "latitude": 18.62072, "longitude": 82.77294, "facility_type_standardized": "hsc" }, "geometry": { "type": "Point", "coordinates": [ 82.778189, 18.6217562 ] } },
{ "type": "Feature", "properties": { "Statename": "Odisha", "Districtname": "Koraput", "Subdistrictname": "Pottangi", "Blockname": "Semiliguda", "Healthblockname": "Semiliguda", "Healthfacilitytype": "health sub centre", "Facilityname": "M Dusura", "NIN": 5854728457, "latitude": 18.6214, "longitude": 82.80622, "facility_type_standardized": "hsc" }, "geometry": { "type": "Point", "coordinates": [ 82.8055107, 18.630705 ] } },
{ "type": "Feature", "properties": { "Statename": "Odisha", "Districtname": "Koraput", "Subdistrictname": "Kotiya", "Blockname": "Pottangi", "Healthblockname": "Pattangi", "Healthfacilitytype": "health sub centre", "Facilityname": "Galigavada", "NIN": 4776823231, "latitude": 18.62243, "longitude": 83.01638, "facility_type_standardized": "hsc" }, "geometry": { "type": "Point", "coordinates": [ 83.0057546, 18.6384405 ] } },
{ "type": "Feature", "properties": { "Statename": "Odisha", "Districtname": "Koraput", "Subdistrictname": "Machh Kund", "Blockname": "Lamtaput", "Healthblockname": "Lamptaput", "Healthfacilitytype": "health sub centre", "Facilityname": "Jolahanjar", "NIN": 1466386388, "latitude": 18.62246, "longitude": 82.52696, "facility_type_standardized": "hsc" }, "geometry": { "type": "Point", "coordinates": [ 82.5270222, 18.6224203 ] } },
{ "type": "Feature", "properties": { "Statename": "Odisha", "Districtname": "Koraput", "Subdistrictname": "Kotiya", "Blockname": "Pottangi", "Healthblockname": "Pattangi", "Healthfacilitytype": "health sub centre", "Facilityname": "Thuria", "NIN": 8344543320, "latitude": 18.62685, "longitude": 82.98971, "facility_type_standardized": "hsc" }, "geometry": { "type": "Point", "coordinates": [ 82.9866129, 18.6334213 ] } },
{ "type": "Feature", "properties": { "Statename": "Odisha", "Districtname": "Koraput", "Subdistrictname": "Boipariguda", "Blockname": "Boipariguda", "Healthblockname": "Boipariguda", "Healthfacilitytype": "health sub centre", "Facilityname": "Majhiguda", "NIN": 6451127150, "latitude": 18.62748, "longitude": 82.44018, "facility_type_standardized": "hsc" }, "geometry": { "type": "Point", "coordinates": [ 82.4421012, 18.6105465 ] } },
{ "type": "Feature", "properties": { "Statename": "Odisha", "Districtname": "Koraput", "Subdistrictname": "Pottangi", "Blockname": "Semiliguda", "Healthblockname": "Semiliguda", "Healthfacilitytype": "health sub centre", "Facilityname": "Khudi", "NIN": 3861243842, "latitude": 18.62916, "longitude": 82.9184, "facility_type_standardized": "hsc" }, "geometry": { "type": "Point", "coordinates": [ 82.9150248, 18.6304263 ] } },
{ "type": "Feature", "properties": { "Statename": "Odisha", "Districtname": "Koraput", "Subdistrictname": "Machh Kund", "Blockname": "Lamtaput", "Healthblockname": "Lamptaput", "Healthfacilitytype": "health sub centre", "Facilityname": "Lamptaput MC", "NIN": 6846658265, "latitude": 18.63394, "longitude": 82.59234, "facility_type_standardized": "hsc" }, "geometry": { "type": "Point", "coordinates": [ 82.5921614, 18.6198872 ] } },
{ "type": "Feature", "properties": { "Statename": "Odisha", "Districtname": "Koraput", "Subdistrictname": "Nandapur", "Blockname": "Lamtaput", "Healthblockname": "Lamptaput", "Healthfacilitytype": "health sub centre", "Facilityname": "Tikarpada", "NIN": 3823482454, "latitude": 18.64123, "longitude": 82.64833, "facility_type_standardized": "hsc" }, "geometry": { "type": "Point", "coordinates": [ 82.6439881, 18.6400389 ] } },
{ "type": "Feature", "properties": { "Statename": "Odisha", "Districtname": "Koraput", "Subdistrictname": "Pottangi", "Blockname": "Semiliguda", "Healthblockname": "Semiliguda", "Healthfacilitytype": "health sub centre", "Facilityname": "Sorisapadar", "NIN": 5242212651, "latitude": 18.64253, "longitude": 82.93559, "facility_type_standardized": "hsc" }, "geometry": { "type": "Point", "coordinates": [ 82.9418936, 18.636209 ] } },
{ "type": "Feature", "properties": { "Statename": "Odisha", "Districtname": "Koraput", "Subdistrictname": "Nandapur", "Blockname": "Lamtaput", "Healthblockname": "Lamptaput", "Healthfacilitytype": "health sub centre", "Facilityname": "Kadamguda", "NIN": 6851463486, "latitude": 18.6544, "longitude": 82.68967, "facility_type_standardized": "hsc" }, "geometry": { "type": "Point", "coordinates": [ 82.6777545, 18.6446364 ] } },
{ "type": "Feature", "properties": { "Statename": "Odisha", "Districtname": "Koraput", "Subdistrictname": "Nandapur", "Blockname": "Lamtaput", "Healthblockname": "Lamptaput", "Healthfacilitytype": "health sub centre", "Facilityname": "Umbel", "NIN": 7733831460, "latitude": 18.66155, "longitude": 82.7274, "facility_type_standardized": "hsc" }, "geometry": { "type": "Point", "coordinates": [ 82.7248199, 18.6587706 ] } },
{ "type": "Feature", "properties": { "Statename": "Odisha", "Districtname": "Koraput", "Subdistrictname": "Boipariguda", "Blockname": "Boipariguda", "Healthblockname": "Boipariguda", "Healthfacilitytype": "health sub centre", "Facilityname": "Kakalpada", "NIN": 8554353782, "latitude": 18.66887, "longitude": 82.41684, "facility_type_standardized": "hsc" }, "geometry": { "type": "Point", "coordinates": [ 82.3935965, 18.7018792 ] } },
{ "type": "Feature", "properties": { "Statename": "Odisha", "Districtname": "Koraput", "Subdistrictname": "Nandapur", "Blockname": "Lamtaput", "Healthblockname": "Lamptaput", "Healthfacilitytype": "health sub centre", "Facilityname": "Kumargandhan", "NIN": 7143345481, "latitude": 18.66916, "longitude": 82.67087, "facility_type_standardized": "hsc" }, "geometry": { "type": "Point", "coordinates": [ 82.6715773, 18.6671903 ] } },
{ "type": "Feature", "properties": { "Statename": "Odisha", "Districtname": "Koraput", "Subdistrictname": "Nandapur", "Blockname": "Lamtaput", "Healthblockname": "Lamptaput", "Healthfacilitytype": "health sub centre", "Facilityname": "Parajakhudubi", "NIN": 4685524383, "latitude": 18.67268, "longitude": 82.63951, "facility_type_standardized": "hsc" }, "geometry": { "type": "Point", "coordinates": [ 82.6421481, 18.6661662 ] } },
{ "type": "Feature", "properties": { "Statename": "Odisha", "Districtname": "Koraput", "Subdistrictname": "Similiguda", "Blockname": "Semiliguda", "Healthblockname": "Semiliguda", "Healthfacilitytype": "health sub centre", "Facilityname": "Pitaguda", "NIN": 6286828626, "latitude": 18.67643, "longitude": 82.76484, "facility_type_standardized": "hsc" }, "geometry": { "type": "Point", "coordinates": [ 82.7880269, 18.6963498 ] } },
{ "type": "Feature", "properties": { "Statename": "Odisha", "Districtname": "Koraput", "Subdistrictname": "Boipariguda", "Blockname": "Boipariguda", "Healthblockname": "Boipariguda", "Healthfacilitytype": "health sub centre", "Facilityname": "Chipakura", "NIN": 6481853437, "latitude": 18.6784, "longitude": 82.26605, "facility_type_standardized": "hsc" }, "geometry": { "type": "Point", "coordinates": [ 82.2511496, 18.6254553 ] } },
{ "type": "Feature", "properties": { "Statename": "Odisha", "Districtname": "Koraput", "Subdistrictname": "Kotiya", "Blockname": "Semiliguda", "Healthblockname": "Semiliguda", "Healthfacilitytype": "health sub centre", "Facilityname": "Kanti", "NIN": 6646182482, "latitude": 18.68164, "longitude": 83.00212, "facility_type_standardized": "hsc" }, "geometry": { "type": "Point", "coordinates": [ 82.989294, 18.6687532 ] } },
{ "type": "Feature", "properties": { "Statename": "Odisha", "Districtname": "Koraput", "Subdistrictname": "Boipariguda", "Blockname": "Boipariguda", "Healthblockname": "Boipariguda", "Healthfacilitytype": "health sub centre", "Facilityname": "Dasmantpur", "NIN": 2171131820, "latitude": 18.68221, "longitude": 82.42729, "facility_type_standardized": "hsc" }, "geometry": { "type": "Point", "coordinates": [ 82.397205, 18.7041429 ] } },
{ "type": "Feature", "properties": { "Statename": "Odisha", "Districtname": "Koraput", "Subdistrictname": "Similiguda", "Blockname": "Semiliguda", "Healthblockname": "Semiliguda", "Healthfacilitytype": "health sub centre", "Facilityname": "Mukhibidai", "NIN": 5715852116, "latitude": 18.68493, "longitude": 82.78809, "facility_type_standardized": "hsc" }, "geometry": { "type": "Point", "coordinates": [ 82.7891871, 18.6957586 ] } },
{ "type": "Feature", "properties": { "Statename": "Odisha", "Districtname": "Koraput", "Subdistrictname": "Similiguda", "Blockname": "Semiliguda", "Healthblockname": "Semiliguda", "Healthfacilitytype": "health sub centre", "Facilityname": "Aligaon", "NIN": 1136151477, "latitude": 18.68844, "longitude": 82.91551, "facility_type_standardized": "hsc" }, "geometry": { "type": "Point", "coordinates": [ 82.9150971, 18.6933434 ] } },
{ "type": "Feature", "properties": { "Statename": "Odisha", "Districtname": "Koraput", "Subdistrictname": "Boipariguda", "Blockname": "Boipariguda", "Healthblockname": "Boipariguda", "Healthfacilitytype": "health sub centre", "Facilityname": "Bodaput", "NIN": 7772738618, "latitude": 18.68847, "longitude": 82.48612, "facility_type_standardized": "hsc" }, "geometry": { "type": "Point", "coordinates": [ 82.5152474, 18.6874088 ] } },
{ "type": "Feature", "properties": { "Statename": "Odisha", "Districtname": "Koraput", "Subdistrictname": "Boipariguda", "Blockname": "Boipariguda", "Healthblockname": "Boipariguda", "Healthfacilitytype": "health sub centre", "Facilityname": "Kathopoda", "NIN": 7138581843, "latitude": 18.69248, "longitude": 82.33731, "facility_type_standardized": "hsc" }, "geometry": { "type": "Point", "coordinates": [ 82.3662829, 18.7165255 ] } },
{ "type": "Feature", "properties": { "Statename": "Odisha", "Districtname": "Koraput", "Subdistrictname": "Nandapur", "Blockname": "Lamtaput", "Healthblockname": "Lamptaput", "Healthfacilitytype": "health sub centre", "Facilityname": "Dhadi", "NIN": 4367726736, "latitude": 18.69593, "longitude": 82.58891, "facility_type_standardized": "hsc" }, "geometry": { "type": "Point", "coordinates": [ 82.5904512, 18.6968348 ] } },
{ "type": "Feature", "properties": { "Statename": "Odisha", "Districtname": "Koraput", "Subdistrictname": "Boipariguda", "Blockname": "Boipariguda", "Healthblockname": "Boipariguda", "Healthfacilitytype": "health sub centre", "Facilityname": "Kellar", "NIN": 5786855378, "latitude": 18.70173, "longitude": 82.39612, "facility_type_standardized": "hsc" }, "geometry": { "type": "Point", "coordinates": [ 82.3935965, 18.7018792 ] } },
{ "type": "Feature", "properties": { "Statename": "Odisha", "Districtname": "Koraput", "Subdistrictname": "Similiguda", "Blockname": "Semiliguda", "Healthblockname": "Semiliguda", "Healthfacilitytype": "health sub centre", "Facilityname": "Pakjhola Niranjapadar", "NIN": 8622273848, "latitude": 18.70574, "longitude": 82.89681, "facility_type_standardized": "hsc" }, "geometry": { "type": "Point", "coordinates": [ 82.8932401, 18.6933509 ] } },
{ "type": "Feature", "properties": { "Statename": "Odisha", "Districtname": "Koraput", "Subdistrictname": "Pottangi", "Blockname": "Semiliguda", "Healthblockname": "Semiliguda", "Healthfacilitytype": "health sub centre", "Facilityname": "Sundiput", "NIN": 7636568284, "latitude": 18.70961, "longitude": 82.93654, "facility_type_standardized": "hsc" }, "geometry": { "type": "Point", "coordinates": [ 82.9370812, 18.715721 ] } },
{ "type": "Feature", "properties": { "Statename": "Odisha", "Districtname": "Koraput", "Subdistrictname": "Similiguda", "Blockname": "Semiliguda", "Healthblockname": "Semiliguda", "Healthfacilitytype": "health sub centre", "Facilityname": "Dhudhari", "NIN": 8368578517, "latitude": 18.71531, "longitude": 82.95774, "facility_type_standardized": "hsc" }, "geometry": { "type": "Point", "coordinates": [ 82.9505861, 18.7090321 ] } },
{ "type": "Feature", "properties": { "Statename": "Odisha", "Districtname": "Koraput", "Subdistrictname": "Similiguda", "Blockname": "Semiliguda", "Healthblockname": "Semiliguda", "Healthfacilitytype": "health sub centre", "Facilityname": "Mania", "NIN": 8246254745, "latitude": 18.71619, "longitude": 82.90059, "facility_type_standardized": "hsc" }, "geometry": { "type": "Point", "coordinates": [ 82.8990265, 18.7216663 ] } },
{ "type": "Feature", "properties": { "Statename": "Odisha", "Districtname": "Koraput", "Subdistrictname": "Boipariguda", "Blockname": "Boipariguda", "Healthblockname": "Boipariguda", "Healthfacilitytype": "health sub centre", "Facilityname": "Dandabadi", "NIN": 7327771684, "latitude": 18.72203, "longitude": 82.20995, "facility_type_standardized": "hsc" }, "geometry": { "type": "Point", "coordinates": [ 82.2208665, 18.7778296 ] } },
{ "type": "Feature", "properties": { "Statename": "Odisha", "Districtname": "Koraput", "Subdistrictname": "Koraput", "Blockname": "Koraput", "Healthblockname": "Koraput", "Healthfacilitytype": "health sub centre", "Facilityname": "Suku", "NIN": 8835762819, "latitude": 18.72999, "longitude": 82.713, "facility_type_standardized": "hsc" }, "geometry": { "type": "Point", "coordinates": [ 82.7198569, 18.7701421 ] } },
{ "type": "Feature", "properties": { "Statename": "Odisha", "Districtname": "Koraput", "Subdistrictname": "Damonjodi", "Blockname": "Koraput", "Healthblockname": "Koraput", "Healthfacilitytype": "health sub centre", "Facilityname": "Kudumul", "NIN": 5283778172, "latitude": 18.73316, "longitude": 83.01181, "facility_type_standardized": "hsc" }, "geometry": { "type": "Point", "coordinates": [ 83.0155951, 18.7298347 ] } },
{ "type": "Feature", "properties": { "Statename": "Odisha", "Districtname": "Koraput", "Subdistrictname": "Sunabeda", "Blockname": "Semiliguda", "Healthblockname": "Semiliguda", "Healthfacilitytype": "health sub centre", "Facilityname": "Charangul", "NIN": 7764234360, "latitude": 18.7333, "longitude": 82.87897, "facility_type_standardized": "hsc" }, "geometry": { "type": "Point", "coordinates": [ 82.8878153, 18.7344466 ] } },
{ "type": "Feature", "properties": { "Statename": "Odisha", "Districtname": "Koraput", "Subdistrictname": "Boipariguda", "Blockname": "Boipariguda", "Healthblockname": "Boipariguda", "Healthfacilitytype": "health sub centre", "Facilityname": "Tentuliguma", "NIN": 2424688352, "latitude": 18.73418, "longitude": 82.12387, "facility_type_standardized": "hsc" }, "geometry": { "type": "Point", "coordinates": [ 82.2208665, 18.7778296 ] } },
{ "type": "Feature", "properties": { "Statename": "Odisha", "Districtname": "Koraput", "Subdistrictname": "Narayanpatana", "Blockname": "Narayan Patana", "Healthblockname": "Narayanpatna", "Healthfacilitytype": "health sub centre", "Facilityname": "Bari", "NIN": 6732584765, "latitude": 18.73509, "longitude": 83.07523, "facility_type_standardized": "hsc" }, "geometry": { "type": "Point", "coordinates": [ 83.0779319, 18.7281973 ] } },
{ "type": "Feature", "properties": { "Statename": "Odisha", "Districtname": "Koraput", "Subdistrictname": "Sunabeda", "Blockname": "Semiliguda", "Healthblockname": "Semiliguda", "Healthfacilitytype": "health sub centre", "Facilityname": "Balda", "NIN": 1333847349, "latitude": 18.73603, "longitude": 82.77217, "facility_type_standardized": "hsc" }, "geometry": { "type": "Point", "coordinates": [ 82.7672122, 18.7204466 ] } },
{ "type": "Feature", "properties": { "Statename": "Odisha", "Districtname": "Koraput", "Subdistrictname": "Boipariguda", "Blockname": "Boipariguda", "Healthblockname": "Boipariguda", "Healthfacilitytype": "health sub centre", "Facilityname": "Santeiput", "NIN": 8238154861, "latitude": 18.74842, "longitude": 82.40044, "facility_type_standardized": "hsc" }, "geometry": { "type": "Point", "coordinates": [ 82.428594, 18.7520933 ] } },
{ "type": "Feature", "properties": { "Statename": "Odisha", "Districtname": "Koraput", "Subdistrictname": "Nandapur", "Blockname": "Lamtaput", "Healthblockname": "Lamptaput", "Healthfacilitytype": "health sub centre", "Facilityname": "Petta", "NIN": 6727487131, "latitude": 18.74914, "longitude": 82.57483, "facility_type_standardized": "hsc" }, "geometry": { "type": "Point", "coordinates": [ 82.5740148, 18.7481001 ] } },
{ "type": "Feature", "properties": { "Statename": "Odisha", "Districtname": "Koraput", "Subdistrictname": "Boipariguda", "Blockname": "Boipariguda", "Healthblockname": "Boipariguda", "Healthfacilitytype": "health sub centre", "Facilityname": "Boipariguda", "NIN": 4188277414, "latitude": 18.74972, "longitude": 82.43297, "facility_type_standardized": "hsc" }, "geometry": { "type": "Point", "coordinates": [ 82.4309479, 18.7518458 ] } },
{ "type": "Feature", "properties": { "Statename": "Odisha", "Districtname": "Koraput", "Subdistrictname": "Sunabeda", "Blockname": "Semiliguda", "Healthblockname": "Semiliguda", "Healthfacilitytype": "health sub centre", "Facilityname": "T Bhejaput", "NIN": 2122273226, "latitude": 18.75194, "longitude": 82.9159, "facility_type_standardized": "hsc" }, "geometry": { "type": "Point", "coordinates": [ 82.9163301, 18.7505533 ] } },
{ "type": "Feature", "properties": { "Statename": "Odisha", "Districtname": "Koraput", "Subdistrictname": "Damonjodi", "Blockname": "Koraput", "Healthblockname": "Koraput", "Healthfacilitytype": "health sub centre", "Facilityname": "Mathalput", "NIN": 7765638189, "latitude": 18.75473, "longitude": 82.90594, "facility_type_standardized": "hsc" }, "geometry": { "type": "Point", "coordinates": [ 82.9047469, 18.7553668 ] } },
{ "type": "Feature", "properties": { "Statename": "Odisha", "Districtname": "Koraput", "Subdistrictname": "Narayanpatana", "Blockname": "Narayan Patana", "Healthblockname": "Narayanpatna", "Healthfacilitytype": "health sub centre", "Facilityname": "Talagumundi", "NIN": 3536286879, "latitude": 18.76008, "longitude": 83.09037, "facility_type_standardized": "hsc" }, "geometry": { "type": "Point", "coordinates": [ 83.093303, 18.7617627 ] } },
{ "type": "Feature", "properties": { "Statename": "Odisha", "Districtname": "Koraput", "Subdistrictname": "Pottangi", "Blockname": "Koraput", "Healthblockname": "Koraput", "Healthfacilitytype": "health sub centre", "Facilityname": "Dumuripadar", "NIN": 6578823756, "latitude": 18.76579, "longitude": 82.99322, "facility_type_standardized": "hsc" }, "geometry": { "type": "Point", "coordinates": [ 82.991685, 18.7622651 ] } },
{ "type": "Feature", "properties": { "Statename": "Odisha", "Districtname": "Koraput", "Subdistrictname": "Sunabeda", "Blockname": "Koraput", "Healthblockname": "Koraput", "Healthfacilitytype": "health sub centre", "Facilityname": "Dumuriput Kendubeda", "NIN": 5362782871, "latitude": 18.76917, "longitude": 82.79339, "facility_type_standardized": "hsc" }, "geometry": { "type": "Point", "coordinates": [ 82.7918665, 18.7765729 ] } },
{ "type": "Feature", "properties": { "Statename": "Odisha", "Districtname": "Koraput", "Subdistrictname": "Koraput", "Blockname": "Koraput", "Healthblockname": "Koraput", "Healthfacilitytype": "health sub centre", "Facilityname": "B N Guda Keranga", "NIN": 1811172533, "latitude": 18.7703, "longitude": 82.58715, "facility_type_standardized": "hsc" }, "geometry": { "type": "Point", "coordinates": [ 82.589438, 18.7696652 ] } },
{ "type": "Feature", "properties": { "Statename": "Odisha", "Districtname": "Koraput", "Subdistrictname": "Boipariguda", "Blockname": "Boipariguda", "Healthblockname": "Boipariguda", "Healthfacilitytype": "health sub centre", "Facilityname": "Bichalkotta", "NIN": 3624885723, "latitude": 18.77149, "longitude": 82.51115, "facility_type_standardized": "hsc" }, "geometry": { "type": "Point", "coordinates": [ 82.5181642, 18.7652336 ] } },
{ "type": "Feature", "properties": { "Statename": "Odisha", "Districtname": "Koraput", "Subdistrictname": "Boipariguda", "Blockname": "Boipariguda", "Healthblockname": "Boipariguda", "Healthfacilitytype": "health sub centre", "Facilityname": "Ramgiri", "NIN": 1838428413, "latitude": 18.77289, "longitude": 82.23898, "facility_type_standardized": "hsc" }, "geometry": { "type": "Point", "coordinates": [ 82.2465137, 18.7737623 ] } },
{ "type": "Feature", "properties": { "Statename": "Odisha", "Districtname": "Koraput", "Subdistrictname": "Bandhugaon", "Blockname": "Narayan Patana", "Healthblockname": "Narayanpatna", "Healthfacilitytype": "health sub centre", "Facilityname": "Bijaghati", "NIN": 6771247837, "latitude": 18.77859, "longitude": 83.01203, "facility_type_standardized": "hsc" }, "geometry": { "type": "Point", "coordinates": [ 83.0141195, 18.7769019 ] } },
{ "type": "Feature", "properties": { "Statename": "Odisha", "Districtname": "Koraput", "Subdistrictname": "Boipariguda", "Blockname": "Boipariguda", "Healthblockname": "Boipariguda", "Healthfacilitytype": "health sub centre", "Facilityname": "Pujariput", "NIN": 6644784511, "latitude": 18.77898, "longitude": 82.19372, "facility_type_standardized": "hsc" }, "geometry": { "type": "Point", "coordinates": [ 82.2208665, 18.7778296 ] } },
{ "type": "Feature", "properties": { "Statename": "Odisha", "Districtname": "Koraput", "Subdistrictname": "Boipariguda", "Blockname": "Boipariguda", "Healthblockname": "Boipariguda", "Healthfacilitytype": "health sub centre", "Facilityname": "Doraguda B", "NIN": 6328147472, "latitude": 18.78451, "longitude": 82.35902, "facility_type_standardized": "hsc" }, "geometry": { "type": "Point", "coordinates": [ 82.3682433, 18.7626498 ] } },
{ "type": "Feature", "properties": { "Statename": "Odisha", "Districtname": "Koraput", "Subdistrictname": "Boipariguda", "Blockname": "Boipariguda", "Healthblockname": "Boipariguda", "Healthfacilitytype": "health sub centre", "Facilityname": "Doraguda A", "NIN": 5261662133, "latitude": 18.78626, "longitude": 82.34996, "facility_type_standardized": "hsc" }, "geometry": { "type": "Point", "coordinates": [ 82.3269295, 18.7737218 ] } },
{ "type": "Feature", "properties": { "Statename": "Odisha", "Districtname": "Koraput", "Subdistrictname": "Boipariguda", "Blockname": "Boipariguda", "Healthblockname": "Boipariguda", "Healthfacilitytype": "health sub centre", "Facilityname": "Bhaluguda", "NIN": 7878631238, "latitude": 18.78796, "longitude": 82.37474, "facility_type_standardized": "hsc" }, "geometry": { "type": "Point", "coordinates": [ 82.3682433, 18.7626498 ] } },
{ "type": "Feature", "properties": { "Statename": "Odisha", "Districtname": "Koraput", "Subdistrictname": "Boipariguda", "Blockname": "Boipariguda", "Healthblockname": "Boipariguda", "Healthfacilitytype": "health sub centre", "Facilityname": "Mathapada", "NIN": 4578455679, "latitude": 18.78849, "longitude": 82.31324, "facility_type_standardized": "hsc" }, "geometry": { "type": "Point", "coordinates": [ 82.3269295, 18.7737218 ] } },
{ "type": "Feature", "properties": { "Statename": "Odisha", "Districtname": "Koraput", "Subdistrictname": "Boipariguda", "Blockname": "Boipariguda", "Healthblockname": "Boipariguda", "Healthfacilitytype": "health sub centre", "Facilityname": "Limaguda", "NIN": 6446236835, "latitude": 18.78877, "longitude": 82.42058, "facility_type_standardized": "hsc" }, "geometry": { "type": "Point", "coordinates": [ 82.4572408, 18.7779836 ] } },
{ "type": "Feature", "properties": { "Statename": "Odisha", "Districtname": "Koraput", "Subdistrictname": "Koraput", "Blockname": "Koraput", "Healthblockname": "Koraput", "Healthfacilitytype": "health sub centre", "Facilityname": "Lendrumaliguda", "NIN": 8446272240, "latitude": 18.78994, "longitude": 82.94724, "facility_type_standardized": "hsc" }, "geometry": { "type": "Point", "coordinates": [ 82.9450938, 18.7965486 ] } },
{ "type": "Feature", "properties": { "Statename": "Odisha", "Districtname": "Koraput", "Subdistrictname": "Damonjodi", "Blockname": "Koraput", "Healthblockname": "Koraput", "Healthfacilitytype": "health sub centre", "Facilityname": "B Bhejaput", "NIN": 5485363443, "latitude": 18.79141, "longitude": 82.80889, "facility_type_standardized": "hsc" }, "geometry": { "type": "Point", "coordinates": [ 82.8046336, 18.7806475 ] } },
{ "type": "Feature", "properties": { "Statename": "Odisha", "Districtname": "Koraput", "Subdistrictname": "Koraput", "Blockname": "Koraput", "Healthblockname": "Koraput", "Healthfacilitytype": "health sub centre", "Facilityname": "Umuri", "NIN": 8561778542, "latitude": 18.80008, "longitude": 82.67192, "facility_type_standardized": "hsc" }, "geometry": { "type": "Point", "coordinates": [ 82.6702899, 18.8040421 ] } },
{ "type": "Feature", "properties": { "Statename": "Odisha", "Districtname": "Koraput", "Subdistrictname": "Boipariguda", "Blockname": "Kundura", "Healthblockname": "Kundra", "Healthfacilitytype": "health sub centre", "Facilityname": "Ghumar", "NIN": 6342683585, "latitude": 18.80266, "longitude": 82.45803, "facility_type_standardized": "hsc" }, "geometry": { "type": "Point", "coordinates": [ 82.4572408, 18.7779836 ] } },
{ "type": "Feature", "properties": { "Statename": "Odisha", "Districtname": "Koraput", "Subdistrictname": "Boipariguda", "Blockname": "Kundura", "Healthblockname": "Kundra", "Healthfacilitytype": "health sub centre", "Facilityname": "Kalapada", "NIN": 1752715134, "latitude": 18.80436, "longitude": 82.41749, "facility_type_standardized": "hsc" }, "geometry": { "type": "Point", "coordinates": [ 82.4572408, 18.7779836 ] } },
{ "type": "Feature", "properties": { "Statename": "Odisha", "Districtname": "Koraput", "Subdistrictname": "Jeypore", "Blockname": "Jeypore", "Healthblockname": "Jeypur", "Healthfacilitytype": "health sub centre", "Facilityname": "Dangarchinchi", "NIN": 6856764425, "latitude": 18.80524, "longitude": 82.52317, "facility_type_standardized": "hsc" }, "geometry": { "type": "Point", "coordinates": [ 82.5433175, 18.8148948 ] } },
{ "type": "Feature", "properties": { "Statename": "Odisha", "Districtname": "Koraput", "Subdistrictname": "Bandhugaon", "Blockname": "Narayan Patana", "Healthblockname": "Narayanpatna", "Healthfacilitytype": "health sub centre", "Facilityname": "Sekram", "NIN": 3476642289, "latitude": 18.80524, "longitude": 83.25167, "facility_type_standardized": "hsc" }, "geometry": { "type": "Point", "coordinates": [ 83.202338, 18.8581178 ] } },
{ "type": "Feature", "properties": { "Statename": "Odisha", "Districtname": "Koraput", "Subdistrictname": "Boipariguda", "Blockname": "Boipariguda", "Healthblockname": "Boipariguda", "Healthfacilitytype": "health sub centre", "Facilityname": "Pulariput", "NIN": 6763728661, "latitude": 18.81385, "longitude": 82.38145, "facility_type_standardized": "hsc" }, "geometry": { "type": "Point", "coordinates": [ 82.3562316, 18.8379253 ] } },
{ "type": "Feature", "properties": { "Statename": "Odisha", "Districtname": "Koraput", "Subdistrictname": "Koraput", "Blockname": "Dasamantapur", "Healthblockname": "Dasmantapur", "Healthfacilitytype": "health sub centre", "Facilityname": "Malingjodi", "NIN": 8327842566, "latitude": 18.8154, "longitude": 82.83547, "facility_type_standardized": "hsc" }, "geometry": { "type": "Point", "coordinates": [ 82.8164743, 18.8129811 ] } },
{ "type": "Feature", "properties": { "Statename": "Odisha", "Districtname": "Koraput", "Subdistrictname": "Bandhugaon", "Blockname": "Narayan Patana", "Healthblockname": "Narayanpatna", "Healthfacilitytype": "health sub centre", "Facilityname": "Ichhapur", "NIN": 6444355389, "latitude": 18.822, "longitude": 83.05352, "facility_type_standardized": "hsc" }, "geometry": { "type": "Point", "coordinates": [ 83.0733766, 18.8331438 ] } },
{ "type": "Feature", "properties": { "Statename": "Odisha", "Districtname": "Koraput", "Subdistrictname": "Narayanpatana", "Blockname": "Narayan Patana", "Healthblockname": "Narayanpatna", "Healthfacilitytype": "health sub centre", "Facilityname": "Borigi", "NIN": 1484471469, "latitude": 18.82276, "longitude": 83.22146, "facility_type_standardized": "hsc" }, "geometry": { "type": "Point", "coordinates": [ 83.202338, 18.8581178 ] } },
{ "type": "Feature", "properties": { "Statename": "Odisha", "Districtname": "Koraput", "Subdistrictname": "Boipariguda", "Blockname": "Boipariguda", "Healthblockname": "Boipariguda", "Healthfacilitytype": "health sub centre", "Facilityname": "Baligaon", "NIN": 5786686328, "latitude": 18.82353, "longitude": 82.30855, "facility_type_standardized": "hsc" }, "geometry": { "type": "Point", "coordinates": [ 82.2926953, 18.7787015 ] } },
{ "type": "Feature", "properties": { "Statename": "Odisha", "Districtname": "Koraput", "Subdistrictname": "Boipariguda", "Blockname": "Kundura", "Healthblockname": "Kundra", "Healthfacilitytype": "health sub centre", "Facilityname": "Digapur", "NIN": 6438276336, "latitude": 18.82537, "longitude": 82.45907, "facility_type_standardized": "hsc" }, "geometry": { "type": "Point", "coordinates": [ 82.4886247, 18.8155011 ] } },
{ "type": "Feature", "properties": { "Statename": "Odisha", "Districtname": "Koraput", "Subdistrictname": "Bandhugaon", "Blockname": "Bandhugaon", "Healthblockname": "Bandhugaon", "Healthfacilitytype": "health sub centre", "Facilityname": "Pedavalada", "NIN": 2684666643, "latitude": 18.82683, "longitude": 83.28175, "facility_type_standardized": "hsc" }, "geometry": { "type": "Point", "coordinates": [ 83.3189456, 18.8551881 ] } },
{ "type": "Feature", "properties": { "Statename": "Odisha", "Districtname": "Koraput", "Subdistrictname": "Koraput", "Blockname": "Koraput", "Healthblockname": "Koraput", "Healthfacilitytype": "health sub centre", "Facilityname": "Debighat", "NIN": 7722364440, "latitude": 18.8275, "longitude": 82.63387, "facility_type_standardized": "hsc" }, "geometry": { "type": "Point", "coordinates": [ 82.63405, 18.829347 ] } },
{ "type": "Feature", "properties": { "Statename": "Odisha", "Districtname": "Koraput", "Subdistrictname": "Jeypore", "Blockname": "Jeypore", "Healthblockname": "Jeypur", "Healthfacilitytype": "health sub centre", "Facilityname": "Balia", "NIN": 5151257333, "latitude": 18.82964, "longitude": 82.50419, "facility_type_standardized": "hsc" }, "geometry": { "type": "Point", "coordinates": [ 82.4886247, 18.8155011 ] } },
{ "type": "Feature", "properties": { "Statename": "Odisha", "Districtname": "Koraput", "Subdistrictname": "Koraput", "Blockname": "Koraput", "Healthblockname": "Koraput", "Healthfacilitytype": "health sub centre", "Facilityname": "Rudhiamba", "NIN": 1172276154, "latitude": 18.83191, "longitude": 82.76993, "facility_type_standardized": "hsc" }, "geometry": { "type": "Point", "coordinates": [ 82.7723638, 18.8319767 ] } },
{ "type": "Feature", "properties": { "Statename": "Odisha", "Districtname": "Koraput", "Subdistrictname": "Jeypore", "Blockname": "Jeypore", "Healthblockname": "Jeypur", "Healthfacilitytype": "health sub centre", "Facilityname": "Tankua", "NIN": 5465848538, "latitude": 18.83349, "longitude": 82.55697, "facility_type_standardized": "hsc" }, "geometry": { "type": "Point", "coordinates": [ 82.56321, 18.8451379 ] } },
{ "type": "Feature", "properties": { "Statename": "Odisha", "Districtname": "Koraput", "Subdistrictname": "Koraput", "Blockname": "Dasamantapur", "Healthblockname": "Dasmantapur", "Healthfacilitytype": "health sub centre", "Facilityname": "Mujango", "NIN": 7276426686, "latitude": 18.83354, "longitude": 82.89125, "facility_type_standardized": "hsc" }, "geometry": { "type": "Point", "coordinates": [ 82.8839853, 18.8595343 ] } },
{ "type": "Feature", "properties": { "Statename": "Odisha", "Districtname": "Koraput", "Subdistrictname": "Boipariguda", "Blockname": "Boipariguda", "Healthblockname": "Boipariguda", "Healthfacilitytype": "health sub centre", "Facilityname": "B Kenduguda", "NIN": 4437227764, "latitude": 18.83371, "longitude": 82.35289, "facility_type_standardized": "hsc" }, "geometry": { "type": "Point", "coordinates": [ 82.3562316, 18.8379253 ] } },
{ "type": "Feature", "properties": { "Statename": "Odisha", "Districtname": "Koraput", "Subdistrictname": "Boipariguda", "Blockname": "Boipariguda", "Healthblockname": "Boipariguda", "Healthfacilitytype": "health sub centre", "Facilityname": "Kenduguda", "NIN": 4645588148, "latitude": 18.83371, "longitude": 82.35289, "facility_type_standardized": "hsc" }, "geometry": { "type": "Point", "coordinates": [ 82.3562316, 18.8379253 ] } },
{ "type": "Feature", "properties": { "Statename": "Odisha", "Districtname": "Koraput", "Subdistrictname": "Bandhugaon", "Blockname": "Bandhugaon", "Healthblockname": "Bandhugaon", "Healthfacilitytype": "health sub centre", "Facilityname": "Bikrampur", "NIN": 4727345433, "latitude": 18.8345, "longitude": 83.30728, "facility_type_standardized": "hsc" }, "geometry": { "type": "Point", "coordinates": [ 83.3231022, 18.8504529 ] } },
{ "type": "Feature", "properties": { "Statename": "Odisha", "Districtname": "Koraput", "Subdistrictname": "Boipariguda", "Blockname": "Kundura", "Healthblockname": "Kundra", "Healthfacilitytype": "health sub centre", "Facilityname": "Mosigam", "NIN": 4768371728, "latitude": 18.83747, "longitude": 82.41364, "facility_type_standardized": "hsc" }, "geometry": { "type": "Point", "coordinates": [ 82.4136132, 18.8660002 ] } },
{ "type": "Feature", "properties": { "Statename": "Odisha", "Districtname": "Koraput", "Subdistrictname": "Bandhugaon", "Blockname": "Narayan Patana", "Healthblockname": "Narayanpatna", "Healthfacilitytype": "health sub centre", "Facilityname": "Podapadar", "NIN": 1357383486, "latitude": 18.8413, "longitude": 83.1523, "facility_type_standardized": "hsc" }, "geometry": { "type": "Point", "coordinates": [ 83.1491488, 18.8497905 ] } },
{ "type": "Feature", "properties": { "Statename": "Odisha", "Districtname": "Koraput", "Subdistrictname": "Boipariguda", "Blockname": "Boipariguda", "Healthblockname": "Boipariguda", "Healthfacilitytype": "health sub centre", "Facilityname": "Siribeda", "NIN": 7441264681, "latitude": 18.84284, "longitude": 82.18561, "facility_type_standardized": "hsc" }, "geometry": { "type": "Point", "coordinates": [ 82.2208665, 18.7778296 ] } },
{ "type": "Feature", "properties": { "Statename": "Odisha", "Districtname": "Koraput", "Subdistrictname": "Bandhugaon", "Blockname": "Narayan Patana", "Healthblockname": "Narayanpatna", "Healthfacilitytype": "health sub centre", "Facilityname": "Tentulipadar", "NIN": 6464341442, "latitude": 18.84365, "longitude": 83.09018, "facility_type_standardized": "hsc" }, "geometry": { "type": "Point", "coordinates": [ 83.0794626, 18.839027 ] } },
{ "type": "Feature", "properties": { "Statename": "Odisha", "Districtname": "Koraput", "Subdistrictname": "Lakshmipur", "Blockname": "Laxmipur", "Healthblockname": "Laxmipur", "Healthfacilitytype": "health sub centre", "Facilityname": "Champi", "NIN": 6358718432, "latitude": 18.8441, "longitude": 82.9547, "facility_type_standardized": "hsc" }, "geometry": { "type": "Point", "coordinates": [ 82.9649667, 18.8342978 ] } },
{ "type": "Feature", "properties": { "Statename": "Odisha", "Districtname": "Koraput", "Subdistrictname": "Bandhugaon", "Blockname": "Bandhugaon", "Healthblockname": "Bandhugaon", "Healthfacilitytype": "health sub centre", "Facilityname": "Badabankidi", "NIN": 8782286135, "latitude": 18.84488, "longitude": 83.35472, "facility_type_standardized": "hsc" }, "geometry": { "type": "Point", "coordinates": [ 83.3252586, 18.8496724 ] } },
{ "type": "Feature", "properties": { "Statename": "Odisha", "Districtname": "Koraput", "Subdistrictname": "Kundura", "Blockname": "Kundura", "Healthblockname": "Kundra", "Healthfacilitytype": "health sub centre", "Facilityname": "Gundala", "NIN": 7553434866, "latitude": 18.8486, "longitude": 82.36622, "facility_type_standardized": "hsc" }, "geometry": { "type": "Point", "coordinates": [ 82.3674393, 18.8515624 ] } },
{ "type": "Feature", "properties": { "Statename": "Odisha", "Districtname": "Koraput", "Subdistrictname": "Boipariguda", "Blockname": "Boipariguda", "Healthblockname": "Boipariguda", "Healthfacilitytype": "health sub centre", "Facilityname": "Haldikund", "NIN": 5381732881, "latitude": 18.8497, "longitude": 82.22995, "facility_type_standardized": "hsc" }, "geometry": { "type": "Point", "coordinates": [ 82.2566122, 18.7891693 ] } },
{ "type": "Feature", "properties": { "Statename": "Odisha", "Districtname": "Koraput", "Subdistrictname": "Jeypore", "Blockname": "Jeypore", "Healthblockname": "Jeypur", "Healthfacilitytype": "health sub centre", "Facilityname": "Kumbariput", "NIN": 6353488411, "latitude": 18.85156, "longitude": 82.49818, "facility_type_standardized": "hsc" }, "geometry": { "type": "Point", "coordinates": [ 82.4902389, 18.8768866 ] } },
{ "type": "Feature", "properties": { "Statename": "Odisha", "Districtname": "Koraput", "Subdistrictname": "Koraput", "Blockname": "Dasamantapur", "Healthblockname": "Dasmantapur", "Healthfacilitytype": "health sub centre", "Facilityname": "Podagoda", "NIN": 2685585487, "latitude": 18.85182, "longitude": 82.86573, "facility_type_standardized": "hsc" }, "geometry": { "type": "Point", "coordinates": [ 82.8720585, 18.8536925 ] } },
{ "type": "Feature", "properties": { "Statename": "Odisha", "Districtname": "Koraput", "Subdistrictname": "Jeypore", "Blockname": "Jeypore", "Healthblockname": "Jeypur", "Healthfacilitytype": "health sub centre", "Facilityname": "Bariniput", "NIN": 2147367482, "latitude": 18.85287, "longitude": 82.60671, "facility_type_standardized": "hsc" }, "geometry": { "type": "Point", "coordinates": [ 82.6073029, 18.8563042 ] } },
{ "type": "Feature", "properties": { "Statename": "Odisha", "Districtname": "Koraput", "Subdistrictname": "Koraput Town", "Blockname": "Koraput", "Healthblockname": "Koraput", "Healthfacilitytype": "health sub centre", "Facilityname": "Jhadiguda", "NIN": 1343251169, "latitude": 18.85376, "longitude": 82.70726, "facility_type_standardized": "hsc" }, "geometry": { "type": "Point", "coordinates": [ 82.7066703, 18.855395 ] } },
{ "type": "Feature", "properties": { "Statename": "Odisha", "Districtname": "Koraput", "Subdistrictname": "Bandhugaon", "Blockname": "Bandhugaon", "Healthblockname": "Bandhugaon", "Healthfacilitytype": "health sub centre", "Facilityname": "Almonda", "NIN": 8837358210, "latitude": 18.85493, "longitude": 83.31863, "facility_type_standardized": "hsc" }, "geometry": { "type": "Point", "coordinates": [ 83.3189456, 18.8551881 ] } },
{ "type": "Feature", "properties": { "Statename": "Odisha", "Districtname": "Koraput", "Subdistrictname": "Narayanpatana", "Blockname": "Narayan Patana", "Healthblockname": "Narayanpatna", "Healthfacilitytype": "health sub centre", "Facilityname": "U Decaoadu", "NIN": 6573768188, "latitude": 18.86119, "longitude": 83.17083, "facility_type_standardized": "hsc" }, "geometry": { "type": "Point", "coordinates": [ 83.1806713, 18.8561659 ] } },
{ "type": "Feature", "properties": { "Statename": "Odisha", "Districtname": "Koraput", "Subdistrictname": "Boipariguda", "Blockname": "Boipariguda", "Healthblockname": "Boipariguda", "Healthfacilitytype": "health sub centre", "Facilityname": "Cherika", "NIN": 4746163866, "latitude": 18.86361, "longitude": 82.32121, "facility_type_standardized": "hsc" }, "geometry": { "type": "Point", "coordinates": [ 82.33702, 18.879293 ] } },
{ "type": "Feature", "properties": { "Statename": "Odisha", "Districtname": "Koraput", "Subdistrictname": "Lakshmipur", "Blockname": "Laxmipur", "Healthblockname": "Laxmipur", "Healthfacilitytype": "health sub centre", "Facilityname": "Kuttinga", "NIN": 5427387575, "latitude": 18.86763, "longitude": 83.00287, "facility_type_standardized": "hsc" }, "geometry": { "type": "Point", "coordinates": [ 83.0089943, 18.8665053 ] } },
{ "type": "Feature", "properties": { "Statename": "Odisha", "Districtname": "Koraput", "Subdistrictname": "Jeypore", "Blockname": "Jeypore", "Healthblockname": "Jeypur", "Healthfacilitytype": "health sub centre", "Facilityname": "Anta", "NIN": 6341863865, "latitude": 18.86952, "longitude": 82.52899, "facility_type_standardized": "hsc" }, "geometry": { "type": "Point", "coordinates": [ 82.5245725, 18.8690086 ] } },
{ "type": "Feature", "properties": { "Statename": "Odisha", "Districtname": "Koraput", "Subdistrictname": "Koraput", "Blockname": "Koraput", "Healthblockname": "Koraput", "Healthfacilitytype": "health sub centre", "Facilityname": "Malipondi", "NIN": 6248845320, "latitude": 18.8701, "longitude": 82.8034, "facility_type_standardized": "hsc" }, "geometry": { "type": "Point", "coordinates": [ 82.7989359, 18.8953755 ] } },
{ "type": "Feature", "properties": { "Statename": "Odisha", "Districtname": "Koraput", "Subdistrictname": "Bandhugaon", "Blockname": "Bandhugaon", "Healthblockname": "Bandhugaon", "Healthfacilitytype": "health sub centre", "Facilityname": "Kebirbadi", "NIN": 7844716261, "latitude": 18.87066, "longitude": 83.25928, "facility_type_standardized": "hsc" }, "geometry": { "type": "Point", "coordinates": [ 83.2140353, 18.8776027 ] } },
{ "type": "Feature", "properties": { "Statename": "Odisha", "Districtname": "Koraput", "Subdistrictname": "Narayanpatana", "Blockname": "Narayan Patana", "Healthblockname": "Narayanpatna", "Healthfacilitytype": "health sub centre", "Facilityname": "Balipeta", "NIN": 4728363450, "latitude": 18.87122, "longitude": 83.12251, "facility_type_standardized": "hsc" }, "geometry": { "type": "Point", "coordinates": [ 83.1221214, 18.8718771 ] } },
{ "type": "Feature", "properties": { "Statename": "Odisha", "Districtname": "Koraput", "Subdistrictname": "Bandhugaon", "Blockname": "Bandhugaon", "Healthblockname": "Bandhugaon", "Healthfacilitytype": "health sub centre", "Facilityname": "Kapalada", "NIN": 3274638570, "latitude": 18.87126, "longitude": 83.33892, "facility_type_standardized": "hsc" }, "geometry": { "type": "Point", "coordinates": [ 83.3189456, 18.8551881 ] } },
{ "type": "Feature", "properties": { "Statename": "Odisha", "Districtname": "Koraput", "Subdistrictname": "Koraput", "Blockname": "Koraput", "Healthblockname": "Koraput", "Healthfacilitytype": "health sub centre", "Facilityname": "Mahadaiput", "NIN": 5122366130, "latitude": 18.87367, "longitude": 82.73156, "facility_type_standardized": "hsc" }, "geometry": { "type": "Point", "coordinates": [ 82.7313696, 18.8715213 ] } },
{ "type": "Feature", "properties": { "Statename": "Odisha", "Districtname": "Koraput", "Subdistrictname": "Kundura", "Blockname": "Kundura", "Healthblockname": "Kundra", "Healthfacilitytype": "health sub centre", "Facilityname": "Gorahandi", "NIN": 8272687354, "latitude": 18.87503, "longitude": 82.43923, "facility_type_standardized": "hsc" }, "geometry": { "type": "Point", "coordinates": [ 82.4438899, 18.8815863 ] } },
{ "type": "Feature", "properties": { "Statename": "Odisha", "Districtname": "Koraput", "Subdistrictname": "Kakiriguma", "Blockname": "Narayan Patana", "Healthblockname": "Narayanpatna", "Healthfacilitytype": "health sub centre", "Facilityname": "NR Patna", "NIN": 2216112835, "latitude": 18.87658, "longitude": 83.16964, "facility_type_standardized": "hsc" }, "geometry": { "type": "Point", "coordinates": [ 83.1702897, 18.8775603 ] } },
{ "type": "Feature", "properties": { "Statename": "Odisha", "Districtname": "Koraput", "Subdistrictname": "Kundura", "Blockname": "Kundura", "Healthblockname": "Kundra", "Healthfacilitytype": "health sub centre", "Facilityname": "Banuaguda", "NIN": 5127131661, "latitude": 18.88349, "longitude": 82.40324, "facility_type_standardized": "hsc" }, "geometry": { "type": "Point", "coordinates": [ 82.4040109, 18.8793614 ] } },
{ "type": "Feature", "properties": { "Statename": "Odisha", "Districtname": "Koraput", "Subdistrictname": "Jeypore", "Blockname": "Jeypore", "Healthblockname": "Jeypur", "Healthfacilitytype": "health sub centre", "Facilityname": "Phampuni", "NIN": 3877416630, "latitude": 18.88351, "longitude": 82.47033, "facility_type_standardized": "hsc" }, "geometry": { "type": "Point", "coordinates": [ 82.4694732, 18.8889059 ] } },
{ "type": "Feature", "properties": { "Statename": "Odisha", "Districtname": "Koraput", "Subdistrictname": "Bandhugaon", "Blockname": "Narayan Patana", "Healthblockname": "Narayanpatna", "Healthfacilitytype": "health sub centre", "Facilityname": "Kumbhari", "NIN": 8521472889, "latitude": 18.88561, "longitude": 83.20902, "facility_type_standardized": "hsc" }, "geometry": { "type": "Point", "coordinates": [ 83.2087518, 18.8859911 ] } },
{ "type": "Feature", "properties": { "Statename": "Odisha", "Districtname": "Koraput", "Subdistrictname": "Koraput", "Blockname": "Koraput", "Healthblockname": "Koraput", "Healthfacilitytype": "health sub centre", "Facilityname": "Narajiput", "NIN": 3852675481, "latitude": 18.8903, "longitude": 82.75717, "facility_type_standardized": "hsc" }, "geometry": { "type": "Point", "coordinates": [ 82.7501303, 18.874385 ] } },
{ "type": "Feature", "properties": { "Statename": "Odisha", "Districtname": "Koraput", "Subdistrictname": "Koraput", "Blockname": "Koraput", "Healthblockname": "Koraput", "Healthfacilitytype": "health sub centre", "Facilityname": "Kendar", "NIN": 6428584624, "latitude": 18.89136, "longitude": 82.70345, "facility_type_standardized": "hsc" }, "geometry": { "type": "Point", "coordinates": [ 82.7152479, 18.9039236 ] } },
{ "type": "Feature", "properties": { "Statename": "Odisha", "Districtname": "Koraput", "Subdistrictname": "Boipariguda", "Blockname": "Boipariguda", "Healthblockname": "Boipariguda", "Healthfacilitytype": "health sub centre", "Facilityname": "Talur", "NIN": 3322271515, "latitude": 18.89259, "longitude": 82.19408, "facility_type_standardized": "hsc" }, "geometry": { "type": "Point", "coordinates": [ 82.3092353, 18.9067094 ] } },
{ "type": "Feature", "properties": { "Statename": "Odisha", "Districtname": "Koraput", "Subdistrictname": "Kundura", "Blockname": "Kundura", "Healthblockname": "Kundra", "Healthfacilitytype": "health sub centre", "Facilityname": "Lima", "NIN": 3812674772, "latitude": 18.89279, "longitude": 82.35562, "facility_type_standardized": "hsc" }, "geometry": { "type": "Point", "coordinates": [ 82.3516434, 18.8941394 ] } },
{ "type": "Feature", "properties": { "Statename": "Odisha", "Districtname": "Koraput", "Subdistrictname": "Koraput", "Blockname": "Koraput", "Healthblockname": "Koraput", "Healthfacilitytype": "health sub centre", "Facilityname": "U Mangra", "NIN": 2835278850, "latitude": 18.89531, "longitude": 82.67161, "facility_type_standardized": "hsc" }, "geometry": { "type": "Point", "coordinates": [ 82.6719708, 18.8905086 ] } },
{ "type": "Feature", "properties": { "Statename": "Odisha", "Districtname": "Koraput", "Subdistrictname": "Jeypore", "Blockname": "Jeypore", "Healthblockname": "Jeypur", "Healthfacilitytype": "health sub centre", "Facilityname": "Umuri", "NIN": 4838146233, "latitude": 18.89959, "longitude": 82.55977, "facility_type_standardized": "hsc" }, "geometry": { "type": "Point", "coordinates": [ 82.5617884, 18.8965888 ] } },
{ "type": "Feature", "properties": { "Statename": "Odisha", "Districtname": "Koraput", "Subdistrictname": "Jeypore", "Blockname": "Jeypore", "Healthblockname": "Jeypur", "Healthfacilitytype": "health sub centre", "Facilityname": "Godapadar", "NIN": 2444288167, "latitude": 18.90077, "longitude": 82.58756, "facility_type_standardized": "hsc" }, "geometry": { "type": "Point", "coordinates": [ 82.5803357, 18.898086 ] } },
{ "type": "Feature", "properties": { "Statename": "Odisha", "Districtname": "Koraput", "Subdistrictname": "Jeypore", "Blockname": "Jeypore", "Healthblockname": "Jeypur", "Healthfacilitytype": "health sub centre", "Facilityname": "Ekamba", "NIN": 4424873521, "latitude": 18.90276, "longitude": 82.54656, "facility_type_standardized": "hsc" }, "geometry": { "type": "Point", "coordinates": [ 82.5466666, 18.901808 ] } },
{ "type": "Feature", "properties": { "Statename": "Odisha", "Districtname": "Koraput", "Subdistrictname": "Kakiriguma", "Blockname": "Laxmipur", "Healthblockname": "Laxmipur", "Healthfacilitytype": "health sub centre", "Facilityname": "Goudaguda", "NIN": 8545755780, "latitude": 18.90593, "longitude": 83.007, "facility_type_standardized": "hsc" }, "geometry": { "type": "Point", "coordinates": [ 83.0058632, 18.9198059 ] } },
{ "type": "Feature", "properties": { "Statename": "Odisha", "Districtname": "Koraput", "Subdistrictname": "Jeypore", "Blockname": "Jeypore", "Healthblockname": "Jeypur", "Healthfacilitytype": "health sub centre", "Facilityname": "Kaliagam", "NIN": 3337214880, "latitude": 18.90886, "longitude": 82.49227, "facility_type_standardized": "hsc" }, "geometry": { "type": "Point", "coordinates": [ 82.4924799, 18.9272005 ] } },
{ "type": "Feature", "properties": { "Statename": "Odisha", "Districtname": "Koraput", "Subdistrictname": "Jeypore", "Blockname": "Jeypore", "Healthblockname": "Jeypur", "Healthfacilitytype": "health sub centre", "Facilityname": "OCC", "NIN": 2584835462, "latitude": 18.91538, "longitude": 82.6371, "facility_type_standardized": "hsc" }, "geometry": { "type": "Point", "coordinates": [ 82.6553825, 18.9402827 ] } },
{ "type": "Feature", "properties": { "Statename": "Odisha", "Districtname": "Koraput", "Subdistrictname": "Kundura", "Blockname": "Kundura", "Healthblockname": "Kundra", "Healthfacilitytype": "health sub centre", "Facilityname": "Jobapatraput", "NIN": 8248224639, "latitude": 18.91555, "longitude": 82.44073, "facility_type_standardized": "hsc" }, "geometry": { "type": "Point", "coordinates": [ 82.4364025, 18.9272803 ] } },
{ "type": "Feature", "properties": { "Statename": "Odisha", "Districtname": "Koraput", "Subdistrictname": "Kakiriguma", "Blockname": "Laxmipur", "Healthblockname": "Laxmipur", "Healthfacilitytype": "health sub centre", "Facilityname": "Panchada", "NIN": 7235788713, "latitude": 18.91696, "longitude": 82.96257, "facility_type_standardized": "hsc" }, "geometry": { "type": "Point", "coordinates": [ 82.9636313, 18.9186853 ] } },
{ "type": "Feature", "properties": { "Statename": "Odisha", "Districtname": "Koraput", "Subdistrictname": "Koraput", "Blockname": "Koraput", "Healthblockname": "Koraput", "Healthfacilitytype": "health sub centre", "Facilityname": "Litiguda", "NIN": 3814457739, "latitude": 18.91915, "longitude": 82.73636, "facility_type_standardized": "hsc" }, "geometry": { "type": "Point", "coordinates": [ 82.7321041, 18.9127037 ] } },
{ "type": "Feature", "properties": { "Statename": "Odisha", "Districtname": "Koraput", "Subdistrictname": "Bandhugaon", "Blockname": "Bandhugaon", "Healthblockname": "Bandhugaon", "Healthfacilitytype": "health sub centre", "Facilityname": "Baunsaput Sarapali", "NIN": 1883735589, "latitude": 18.92056, "longitude": 83.22872, "facility_type_standardized": "hsc" }, "geometry": { "type": "Point", "coordinates": [ 83.2279963, 18.9217976 ] } },
{ "type": "Feature", "properties": { "Statename": "Odisha", "Districtname": "Koraput", "Subdistrictname": "Kakiriguma", "Blockname": "Laxmipur", "Healthblockname": "Laxmipur", "Healthfacilitytype": "health sub centre", "Facilityname": "Kakirigumma", "NIN": 2747187819, "latitude": 18.92135, "longitude": 83.02171, "facility_type_standardized": "hsc" }, "geometry": { "type": "Point", "coordinates": [ 83.0058632, 18.9198059 ] } },
{ "type": "Feature", "properties": { "Statename": "Odisha", "Districtname": "Koraput", "Subdistrictname": "Koraput", "Blockname": "Koraput", "Healthblockname": "Koraput", "Healthfacilitytype": "health sub centre", "Facilityname": "Bagara", "NIN": 4287762753, "latitude": 18.92137, "longitude": 82.6874, "facility_type_standardized": "hsc" }, "geometry": { "type": "Point", "coordinates": [ 82.68552, 18.9196028 ] } },
{ "type": "Feature", "properties": { "Statename": "Odisha", "Districtname": "Koraput", "Subdistrictname": "Kundura", "Blockname": "Kundura", "Healthblockname": "Kundra", "Healthfacilitytype": "health sub centre", "Facilityname": "Kodalimunda", "NIN": 5837646339, "latitude": 18.92142, "longitude": 82.35069, "facility_type_standardized": "hsc" }, "geometry": { "type": "Point", "coordinates": [ 82.3717356, 18.9078074 ] } },
{ "type": "Feature", "properties": { "Statename": "Odisha", "Districtname": "Koraput", "Subdistrictname": "Koraput", "Blockname": "Dasamantapur", "Healthblockname": "Dasmantapur", "Healthfacilitytype": "health sub centre", "Facilityname": "A Malkangiri", "NIN": 7818543758, "latitude": 18.92308, "longitude": 82.78661, "facility_type_standardized": "hsc" }, "geometry": { "type": "Point", "coordinates": [ 82.7891468, 18.9222326 ] } },
{ "type": "Feature", "properties": { "Statename": "Odisha", "Districtname": "Koraput", "Subdistrictname": "Jeypore", "Blockname": "Jeypore", "Healthblockname": "Jeypur", "Healthfacilitytype": "health sub centre", "Facilityname": "Dhanpur", "NIN": 3842342648, "latitude": 18.92399, "longitude": 82.52253, "facility_type_standardized": "hsc" }, "geometry": { "type": "Point", "coordinates": [ 82.525284, 18.9166404 ] } },
{ "type": "Feature", "properties": { "Statename": "Odisha", "Districtname": "Koraput", "Subdistrictname": "Bandhugaon", "Blockname": "Bandhugaon", "Healthblockname": "Bandhugaon", "Healthfacilitytype": "health sub centre", "Facilityname": "Sansarpalli", "NIN": 7348635181, "latitude": 18.92569, "longitude": 83.27313, "facility_type_standardized": "hsc" }, "geometry": { "type": "Point", "coordinates": [ 83.2741599, 18.9313431 ] } },
{ "type": "Feature", "properties": { "Statename": "Odisha", "Districtname": "Koraput", "Subdistrictname": "Jeypore", "Blockname": "Jeypore", "Healthblockname": "Jeypur", "Healthfacilitytype": "health sub centre", "Facilityname": "Bairagimatha", "NIN": 3151553249, "latitude": 18.92852, "longitude": 82.58915, "facility_type_standardized": "hsc" }, "geometry": { "type": "Point", "coordinates": [ 82.5885392, 18.9279093 ] } },
{ "type": "Feature", "properties": { "Statename": "Odisha", "Districtname": "Koraput", "Subdistrictname": "Boipariguda", "Blockname": "Kundura", "Healthblockname": "Kundra", "Healthfacilitytype": "health sub centre", "Facilityname": "Dangarapounsi", "NIN": 4776557821, "latitude": 18.92938, "longitude": 82.44544, "facility_type_standardized": "hsc" }, "geometry": { "type": "Point", "coordinates": [ 82.4376596, 18.9285218 ] } },
{ "type": "Feature", "properties": { "Statename": "Odisha", "Districtname": "Koraput", "Subdistrictname": "Koraput", "Blockname": "Dasamantapur", "Healthblockname": "Dasmantapur", "Healthfacilitytype": "health sub centre", "Facilityname": "Paikapuki", "NIN": 8218248428, "latitude": 18.9306, "longitude": 82.85236, "facility_type_standardized": "hsc" }, "geometry": { "type": "Point", "coordinates": [ 82.8535947, 18.918735 ] } },
{ "type": "Feature", "properties": { "Statename": "Odisha", "Districtname": "Koraput", "Subdistrictname": "Koraput", "Blockname": "Dasamantapur", "Healthblockname": "Dasmantapur", "Healthfacilitytype": "health sub centre", "Facilityname": "P. Phulabeda", "NIN": 1121537425, "latitude": 18.93212, "longitude": 82.76864, "facility_type_standardized": "hsc" }, "geometry": { "type": "Point", "coordinates": [ 82.7688251, 18.9236861 ] } },
{ "type": "Feature", "properties": { "Statename": "Odisha", "Districtname": "Koraput", "Subdistrictname": "Kundura", "Blockname": "Kundura", "Healthblockname": "Kundra", "Healthfacilitytype": "health sub centre", "Facilityname": "Kundra", "NIN": 3448183172, "latitude": 18.93402, "longitude": 82.38098, "facility_type_standardized": "hsc" }, "geometry": { "type": "Point", "coordinates": [ 82.3886722, 18.930251 ] } },
{ "type": "Feature", "properties": { "Statename": "Odisha", "Districtname": "Koraput", "Subdistrictname": "Kundura", "Blockname": "Kundura", "Healthblockname": "Kundra", "Healthfacilitytype": "health sub centre", "Facilityname": "Karematy", "NIN": 1334287867, "latitude": 18.9366, "longitude": 82.33214, "facility_type_standardized": "hsc" }, "geometry": { "type": "Point", "coordinates": [ 82.3543532, 18.9564806 ] } },
{ "type": "Feature", "properties": { "Statename": "Odisha", "Districtname": "Koraput", "Subdistrictname": "Kundura", "Blockname": "Kundura", "Healthblockname": "Kundra", "Healthfacilitytype": "health sub centre", "Facilityname": "Jabapadar", "NIN": 3733243749, "latitude": 18.93689, "longitude": 82.28859, "facility_type_standardized": "hsc" }, "geometry": { "type": "Point", "coordinates": [ 82.3092353, 18.9067094 ] } },
{ "type": "Feature", "properties": { "Statename": "Odisha", "Districtname": "Koraput", "Subdistrictname": "Jeypore", "Blockname": "Jeypore", "Healthblockname": "Jeypur", "Healthfacilitytype": "health sub centre", "Facilityname": "Randapalli", "NIN": 7624877226, "latitude": 18.93815, "longitude": 82.57145, "facility_type_standardized": "hsc" }, "geometry": { "type": "Point", "coordinates": [ 82.5774523, 18.9373791 ] } },
{ "type": "Feature", "properties": { "Statename": "Odisha", "Districtname": "Koraput", "Subdistrictname": "Bandhugaon", "Blockname": "Bandhugaon", "Healthblockname": "Bandhugaon", "Healthfacilitytype": "health sub centre", "Facilityname": "Bandhugam", "NIN": 1534241151, "latitude": 18.93965, "longitude": 83.2495, "facility_type_standardized": "hsc" }, "geometry": { "type": "Point", "coordinates": [ 83.249867, 18.9367616 ] } },
{ "type": "Feature", "properties": { "Statename": "Odisha", "Districtname": "Koraput", "Subdistrictname": "Koraput", "Blockname": "Dasamantapur", "Healthblockname": "Dasmantapur", "Healthfacilitytype": "health sub centre", "Facilityname": "Porjapuki", "NIN": 2443527870, "latitude": 18.94165, "longitude": 82.82212, "facility_type_standardized": "hsc" }, "geometry": { "type": "Point", "coordinates": [ 82.798073, 18.9345798 ] } },
{ "type": "Feature", "properties": { "Statename": "Odisha", "Districtname": "Koraput", "Subdistrictname": "Jeypore", "Blockname": "Jeypore", "Healthblockname": "Jeypur", "Healthfacilitytype": "health sub centre", "Facilityname": "Salpha", "NIN": 1132376151, "latitude": 18.94357, "longitude": 82.46397, "facility_type_standardized": "hsc" }, "geometry": { "type": "Point", "coordinates": [ 82.4587092, 18.9485255 ] } },
{ "type": "Feature", "properties": { "Statename": "Odisha", "Districtname": "Koraput", "Subdistrictname": "Koraput", "Blockname": "Dasamantapur", "Healthblockname": "Dasmantapur", "Healthfacilitytype": "health sub centre", "Facilityname": "Nandigam", "NIN": 7114181121, "latitude": 18.94444, "longitude": 82.78765, "facility_type_standardized": "hsc" }, "geometry": { "type": "Point", "coordinates": [ 82.798073, 18.9345798 ] } },
{ "type": "Feature", "properties": { "Statename": "Odisha", "Districtname": "Koraput", "Subdistrictname": "Jeypore", "Blockname": "Jeypore", "Healthblockname": "Jeypur", "Healthfacilitytype": "health sub centre", "Facilityname": "Ranigada", "NIN": 1646478188, "latitude": 18.94747, "longitude": 82.6714, "facility_type_standardized": "hsc" }, "geometry": { "type": "Point", "coordinates": [ 82.6732711, 18.9420233 ] } },
{ "type": "Feature", "properties": { "Statename": "Odisha", "Districtname": "Koraput", "Subdistrictname": "Bandhugaon", "Blockname": "Bandhugaon", "Healthblockname": "Bandhugaon", "Healthfacilitytype": "health sub centre", "Facilityname": "Neelabadi", "NIN": 7558341488, "latitude": 18.94921, "longitude": 83.26568, "facility_type_standardized": "hsc" }, "geometry": { "type": "Point", "coordinates": [ 83.2715716, 18.9510727 ] } },
{ "type": "Feature", "properties": { "Statename": "Odisha", "Districtname": "Koraput", "Subdistrictname": "Jeypore", "Blockname": "Jeypore", "Healthblockname": "Jeypur", "Healthfacilitytype": "health sub centre", "Facilityname": "Hadia", "NIN": 5148467672, "latitude": 18.95137, "longitude": 82.52537, "facility_type_standardized": "hsc" }, "geometry": { "type": "Point", "coordinates": [ 82.5147593, 18.9594025 ] } },
{ "type": "Feature", "properties": { "Statename": "Odisha", "Districtname": "Koraput", "Subdistrictname": "Jeypore", "Blockname": "Jeypore", "Healthblockname": "Jeypur", "Healthfacilitytype": "health sub centre", "Facilityname": "Kumuliput", "NIN": 2457476345, "latitude": 18.95828, "longitude": 82.56186, "facility_type_standardized": "hsc" }, "geometry": { "type": "Point", "coordinates": [ 82.5589565, 18.95813 ] } },
{ "type": "Feature", "properties": { "Statename": "Odisha", "Districtname": "Koraput", "Subdistrictname": "Kakiriguma", "Blockname": "Narayan Patana", "Healthblockname": "Narayanpatna", "Healthfacilitytype": "health sub centre", "Facilityname": "Jogipallur", "NIN": 3673458182, "latitude": 18.95908, "longitude": 83.16597, "facility_type_standardized": "hsc" }, "geometry": { "type": "Point", "coordinates": [ 83.2166317, 18.927387 ] } },
{ "type": "Feature", "properties": { "Statename": "Odisha", "Districtname": "Koraput", "Subdistrictname": "Kundura", "Blockname": "Kundura", "Healthblockname": "Kundra", "Healthfacilitytype": "health sub centre", "Facilityname": "Khathalapadar", "NIN": 3244443630, "latitude": 18.9615, "longitude": 82.4158, "facility_type_standardized": "hsc" }, "geometry": { "type": "Point", "coordinates": [ 82.4152344, 18.9610061 ] } },
{ "type": "Feature", "properties": { "Statename": "Odisha", "Districtname": "Koraput", "Subdistrictname": "Jeypore", "Blockname": "Jeypore", "Healthblockname": "Jeypur", "Healthfacilitytype": "health sub centre", "Facilityname": "Kebidi", "NIN": 3214552311, "latitude": 18.96275, "longitude": 82.61845, "facility_type_standardized": "hsc" }, "geometry": { "type": "Point", "coordinates": [ 82.6155651, 18.9685347 ] } },
{ "type": "Feature", "properties": { "Statename": "Odisha", "Districtname": "Koraput", "Subdistrictname": "Jeypore", "Blockname": "Jeypore", "Healthblockname": "Jeypur", "Healthfacilitytype": "health sub centre", "Facilityname": "Khadapa", "NIN": 1281787869, "latitude": 18.9647, "longitude": 82.46974, "facility_type_standardized": "hsc" }, "geometry": { "type": "Point", "coordinates": [ 82.4662556, 18.9678565 ] } },
{ "type": "Feature", "properties": { "Statename": "Odisha", "Districtname": "Koraput", "Subdistrictname": "Kundura", "Blockname": "Kundura", "Healthblockname": "Kundra", "Healthfacilitytype": "health sub centre", "Facilityname": "Paknaguda", "NIN": 6418564834, "latitude": 18.96531, "longitude": 82.38133, "facility_type_standardized": "hsc" }, "geometry": { "type": "Point", "coordinates": [ 82.3967325, 18.9653413 ] } },
{ "type": "Feature", "properties": { "Statename": "Odisha", "Districtname": "Koraput", "Subdistrictname": "Lakshmipur", "Blockname": "Laxmipur", "Healthblockname": "Laxmipur", "Healthfacilitytype": "health sub centre", "Facilityname": "Dumuripadar", "NIN": 3157215652, "latitude": 18.96575, "longitude": 83.05364, "facility_type_standardized": "hsc" }, "geometry": { "type": "Point", "coordinates": [ 83.0290867, 18.9615786 ] } },
{ "type": "Feature", "properties": { "Statename": "Odisha", "Districtname": "Koraput", "Subdistrictname": "Bandhugaon", "Blockname": "Bandhugaon", "Healthblockname": "Bandhugaon", "Healthfacilitytype": "health sub centre", "Facilityname": "Chintaguda", "NIN": 4761333873, "latitude": 18.96653, "longitude": 83.29998, "facility_type_standardized": "hsc" }, "geometry": { "type": "Point", "coordinates": [ 83.2985384, 18.9635065 ] } },
{ "type": "Feature", "properties": { "Statename": "Odisha", "Districtname": "Koraput", "Subdistrictname": "Kakiriguma", "Blockname": "Laxmipur", "Healthblockname": "Laxmipur", "Healthfacilitytype": "health sub centre", "Facilityname": "Kellar", "NIN": 6278347148, "latitude": 18.96788, "longitude": 83.00644, "facility_type_standardized": "hsc" }, "geometry": { "type": "Point", "coordinates": [ 83.0265459, 18.9669656 ] } },
{ "type": "Feature", "properties": { "Statename": "Odisha", "Districtname": "Koraput", "Subdistrictname": "Jeypore", "Blockname": "Jeypore", "Healthblockname": "Jeypur", "Healthfacilitytype": "health sub centre", "Facilityname": "Balipujariput", "NIN": 1262563552, "latitude": 18.97037, "longitude": 82.63521, "facility_type_standardized": "hsc" }, "geometry": { "type": "Point", "coordinates": [ 82.6291982, 18.9580219 ] } },
{ "type": "Feature", "properties": { "Statename": "Odisha", "Districtname": "Koraput", "Subdistrictname": "Koraput", "Blockname": "Dasamantapur", "Healthblockname": "Dasmantapur", "Healthfacilitytype": "health sub centre", "Facilityname": "Adamunda", "NIN": 8115253224, "latitude": 18.97693, "longitude": 82.75206, "facility_type_standardized": "hsc" }, "geometry": { "type": "Point", "coordinates": [ 82.7720153, 18.9726138 ] } },
{ "type": "Feature", "properties": { "Statename": "Odisha", "Districtname": "Koraput", "Subdistrictname": "Dasamantapur", "Blockname": "Dasamantapur", "Healthblockname": "Dasmantapur", "Healthfacilitytype": "health sub centre", "Facilityname": "Parjabedapadar", "NIN": 8558386564, "latitude": 18.98286, "longitude": 82.89518, "facility_type_standardized": "hsc" }, "geometry": { "type": "Point", "coordinates": [ 82.8903235, 18.9948168 ] } },
{ "type": "Feature", "properties": { "Statename": "Odisha", "Districtname": "Koraput", "Subdistrictname": "Kundura", "Blockname": "Kundura", "Healthblockname": "Kundra", "Healthfacilitytype": "health sub centre", "Facilityname": "Bhusangguda", "NIN": 8677234174, "latitude": 18.98398, "longitude": 82.41882, "facility_type_standardized": "hsc" }, "geometry": { "type": "Point", "coordinates": [ 82.4160306, 18.9747169 ] } },
{ "type": "Feature", "properties": { "Statename": "Odisha", "Districtname": "Koraput", "Subdistrictname": "Lakshmipur", "Blockname": "Laxmipur", "Healthblockname": "Laxmipur", "Healthfacilitytype": "health sub centre", "Facilityname": "Laxmipur", "NIN": 4383546241, "latitude": 18.98539, "longitude": 83.11515, "facility_type_standardized": "hsc" }, "geometry": { "type": "Point", "coordinates": [ 83.1145271, 18.9906485 ] } },
{ "type": "Feature", "properties": { "Statename": "Odisha", "Districtname": "Koraput", "Subdistrictname": "Koraput", "Blockname": "Dasamantapur", "Healthblockname": "Dasmantapur", "Healthfacilitytype": "health sub centre", "Facilityname": "Kapsiguda", "NIN": 5527468861, "latitude": 18.98706, "longitude": 82.68339, "facility_type_standardized": "hsc" }, "geometry": { "type": "Point", "coordinates": [ 82.6674414, 18.9882379 ] } },
{ "type": "Feature", "properties": { "Statename": "Odisha", "Districtname": "Koraput", "Subdistrictname": "Dasamantapur", "Blockname": "Dasamantapur", "Healthblockname": "Dasmantapur", "Healthfacilitytype": "health sub centre", "Facilityname": "Pindapadar", "NIN": 8616724830, "latitude": 18.99089, "longitude": 82.69991, "facility_type_standardized": "hsc" }, "geometry": { "type": "Point", "coordinates": [ 82.6674414, 18.9882379 ] } },
{ "type": "Feature", "properties": { "Statename": "Odisha", "Districtname": "Koraput", "Subdistrictname": "Dasamantapur", "Blockname": "Dasamantapur", "Healthblockname": "Dasmantapur", "Healthfacilitytype": "health sub centre", "Facilityname": "Lulla", "NIN": 6266131223, "latitude": 18.99115, "longitude": 82.85764, "facility_type_standardized": "hsc" }, "geometry": { "type": "Point", "coordinates": [ 82.8581116, 18.999321 ] } },
{ "type": "Feature", "properties": { "Statename": "Odisha", "Districtname": "Koraput", "Subdistrictname": "Jeypore", "Blockname": "Jeypore", "Healthblockname": "Jeypur", "Healthfacilitytype": "health sub centre", "Facilityname": "Jamunda", "NIN": 5447654582, "latitude": 18.99447, "longitude": 82.50971, "facility_type_standardized": "hsc" }, "geometry": { "type": "Point", "coordinates": [ 82.5098175, 18.9917582 ] } },
{ "type": "Feature", "properties": { "Statename": "Odisha", "Districtname": "Koraput", "Subdistrictname": "Kundura", "Blockname": "Kundura", "Healthblockname": "Kundra", "Healthfacilitytype": "health sub centre", "Facilityname": "Bagderi", "NIN": 5145711262, "latitude": 18.9984, "longitude": 82.34771, "facility_type_standardized": "hsc" }, "geometry": { "type": "Point", "coordinates": [ 82.3354376, 19.0165203 ] } },
{ "type": "Feature", "properties": { "Statename": "Odisha", "Districtname": "Koraput", "Subdistrictname": "Kakiriguma", "Blockname": "Laxmipur", "Healthblockname": "Laxmipur", "Healthfacilitytype": "health sub centre", "Facilityname": "Bandikar", "NIN": 4671286385, "latitude": 19.00668, "longitude": 83.14408, "facility_type_standardized": "hsc" }, "geometry": { "type": "Point", "coordinates": [ 83.1145271, 18.9906485 ] } },
{ "type": "Feature", "properties": { "Statename": "Odisha", "Districtname": "Koraput", "Subdistrictname": "Bhairabsingipur", "Blockname": "Borigumma", "Healthblockname": "Borigumma", "Healthfacilitytype": "health sub centre", "Facilityname": "Tenkar", "NIN": 4755687185, "latitude": 19.00845, "longitude": 82.6449, "facility_type_standardized": "hsc" }, "geometry": { "type": "Point", "coordinates": [ 82.6674414, 18.9882379 ] } },
{ "type": "Feature", "properties": { "Statename": "Odisha", "Districtname": "Koraput", "Subdistrictname": "Lakshmipur", "Blockname": "Laxmipur", "Healthblockname": "Laxmipur", "Healthfacilitytype": "health sub centre", "Facilityname": "Marbaiguda", "NIN": 2471221131, "latitude": 19.00941, "longitude": 83.08436, "facility_type_standardized": "hsc" }, "geometry": { "type": "Point", "coordinates": [ 83.1145271, 18.9906485 ] } },
{ "type": "Feature", "properties": { "Statename": "Odisha", "Districtname": "Koraput", "Subdistrictname": "Bhairabsingipur", "Blockname": "Borigumma", "Healthblockname": "Borigumma", "Healthfacilitytype": "health sub centre", "Facilityname": "Chandbeda", "NIN": 7788132186, "latitude": 19.01002, "longitude": 82.75463, "facility_type_standardized": "hsc" }, "geometry": { "type": "Point", "coordinates": [ 82.7720153, 18.9726138 ] } },
{ "type": "Feature", "properties": { "Statename": "Odisha", "Districtname": "Koraput", "Subdistrictname": "Dasamantapur", "Blockname": "Dasamantapur", "Healthblockname": "Dasmantapur", "Healthfacilitytype": "health sub centre", "Facilityname": "R Girliguma", "NIN": 1747578241, "latitude": 19.01087, "longitude": 82.80377, "facility_type_standardized": "hsc" }, "geometry": { "type": "Point", "coordinates": [ 82.8138792, 18.9916364 ] } },
{ "type": "Feature", "properties": { "Statename": "Odisha", "Districtname": "Koraput", "Subdistrictname": "Jeypore", "Blockname": "Jeypore", "Healthblockname": "Jeypur", "Healthfacilitytype": "health sub centre", "Facilityname": "Jayantagiri", "NIN": 6872182867, "latitude": 19.01269, "longitude": 82.55065, "facility_type_standardized": "hsc" }, "geometry": { "type": "Point", "coordinates": [ 82.554651, 19.0140501 ] } },
{ "type": "Feature", "properties": { "Statename": "Odisha", "Districtname": "Koraput", "Subdistrictname": "Jeypore", "Blockname": "Jeypore", "Healthblockname": "Jeypur", "Healthfacilitytype": "health sub centre", "Facilityname": "Konga", "NIN": 7764218827, "latitude": 19.01317, "longitude": 82.46521, "facility_type_standardized": "hsc" }, "geometry": { "type": "Point", "coordinates": [ 82.4649811, 19.0044039 ] } },
{ "type": "Feature", "properties": { "Statename": "Odisha", "Districtname": "Koraput", "Subdistrictname": "Kundura", "Blockname": "Kundura", "Healthblockname": "Kundra", "Healthfacilitytype": "health sub centre", "Facilityname": "Raniguda", "NIN": 4813413848, "latitude": 19.01379, "longitude": 82.37042, "facility_type_standardized": "hsc" }, "geometry": { "type": "Point", "coordinates": [ 82.3690309, 19.0137666 ] } },
{ "type": "Feature", "properties": { "Statename": "Odisha", "Districtname": "Koraput", "Subdistrictname": "Kotpad", "Blockname": "Kotpad", "Healthblockname": "Kotapad", "Healthfacilitytype": "health sub centre", "Facilityname": "Bobia", "NIN": 1732222557, "latitude": 19.01553, "longitude": 82.39606, "facility_type_standardized": "hsc" }, "geometry": { "type": "Point", "coordinates": [ 82.3977077, 19.0083575 ] } },
{ "type": "Feature", "properties": { "Statename": "Odisha", "Districtname": "Koraput", "Subdistrictname": "Bandhugaon", "Blockname": "Bandhugaon", "Healthblockname": "Bandhugaon", "Healthfacilitytype": "health sub centre", "Facilityname": "Jaguguda", "NIN": 8114212130, "latitude": 19.02166, "longitude": 83.30734, "facility_type_standardized": "hsc" }, "geometry": { "type": "Point", "coordinates": [ 83.3101516, 19.0224346 ] } },
{ "type": "Feature", "properties": { "Statename": "Odisha", "Districtname": "Koraput", "Subdistrictname": "Bandhugaon", "Blockname": "Bandhugaon", "Healthblockname": "Bandhugaon", "Healthfacilitytype": "health sub centre", "Facilityname": "Kumbhariput", "NIN": 1522523248, "latitude": 19.02604, "longitude": 83.2623, "facility_type_standardized": "hsc" }, "geometry": { "type": "Point", "coordinates": [ 83.2622502, 19.026181 ] } },
{ "type": "Feature", "properties": { "Statename": "Odisha", "Districtname": "Koraput", "Subdistrictname": "Bhairabsingipur", "Blockname": "Borigumma", "Healthblockname": "Borigumma", "Healthfacilitytype": "health sub centre", "Facilityname": "Ranaspur", "NIN": 8533781467, "latitude": 19.02647, "longitude": 82.67713, "facility_type_standardized": "hsc" }, "geometry": { "type": "Point", "coordinates": [ 82.6758528, 19.0447919 ] } },
{ "type": "Feature", "properties": { "Statename": "Odisha", "Districtname": "Koraput", "Subdistrictname": "Boriguma", "Blockname": "Borigumma", "Healthblockname": "Borigumma", "Healthfacilitytype": "health sub centre", "Facilityname": "S Pindapadar", "NIN": 6447346658, "latitude": 19.02648, "longitude": 82.57132, "facility_type_standardized": "hsc" }, "geometry": { "type": "Point", "coordinates": [ 82.5685009, 19.0238579 ] } },
{ "type": "Feature", "properties": { "Statename": "Odisha", "Districtname": "Koraput", "Subdistrictname": "Boriguma", "Blockname": "Borigumma", "Healthblockname": "Borigumma", "Healthfacilitytype": "health sub centre", "Facilityname": "Puruna Borigumma", "NIN": 5181632513, "latitude": 19.03092, "longitude": 82.76095, "facility_type_standardized": "hsc" }, "geometry": { "type": "Point", "coordinates": [ 82.7720153, 18.9726138 ] } },
{ "type": "Feature", "properties": { "Statename": "Odisha", "Districtname": "Koraput", "Subdistrictname": "Dasamantapur", "Blockname": "Dasamantapur", "Healthblockname": "Dasmantapur", "Healthfacilitytype": "health sub centre", "Facilityname": "Machaput", "NIN": 6162712225, "latitude": 19.03168, "longitude": 83.01987, "facility_type_standardized": "hsc" }, "geometry": { "type": "Point", "coordinates": [ 82.9987972, 19.0038237 ] } },
{ "type": "Feature", "properties": { "Statename": "Odisha", "Districtname": "Koraput", "Subdistrictname": "Bhairabsingipur", "Blockname": "Borigumma", "Healthblockname": "Borigumma", "Healthfacilitytype": "health sub centre", "Facilityname": "Santoshpur", "NIN": 2221162346, "latitude": 19.03204, "longitude": 82.66118, "facility_type_standardized": "hsc" }, "geometry": { "type": "Point", "coordinates": [ 82.6758528, 19.0447919 ] } },
{ "type": "Feature", "properties": { "Statename": "Odisha", "Districtname": "Koraput", "Subdistrictname": "Kotpad", "Blockname": "Kotpad", "Healthblockname": "Kotapad", "Healthfacilitytype": "health sub centre", "Facilityname": "Nandigam", "NIN": 5535116429, "latitude": 19.03371, "longitude": 82.46871, "facility_type_standardized": "hsc" }, "geometry": { "type": "Point", "coordinates": [ 82.4528901, 19.0119977 ] } },
{ "type": "Feature", "properties": { "Statename": "Odisha", "Districtname": "Koraput", "Subdistrictname": "Dasamantapur", "Blockname": "Dasamantapur", "Healthblockname": "Dasmantapur", "Healthfacilitytype": "health sub centre", "Facilityname": "Sukraput", "NIN": 1483823736, "latitude": 19.03539, "longitude": 82.88985, "facility_type_standardized": "hsc" }, "geometry": { "type": "Point", "coordinates": [ 82.8966308, 19.0421399 ] } },